{
  "updated": "2025-09-26",
  "stations": [
    { "id":"chimpu-ocllo",       "name":"Chimpu Ocllo",       "lat":-11.95206, "lon":-77.06272, "pending": false },
    { "id":"san-felipe",         "name":"San Felipe",         "lat":-11.95863, "lon":-77.06062, "pending": false },
    { "id":"san-carlos",         "name":"San Carlos",         "lat":-11.96566, "lon":-77.05957, "pending": false },
    { "id":"la-alborada",        "name":"La Alborada",        "lat":-11.97361, "lon":-77.05858, "pending": false },
    { "id":"los-incas",          "name":"Los Incas",          "lat":-11.98037, "lon":-77.05760, "pending": false },
    { "id":"sangarara",          "name":"Sangarará",          "lat":-11.98402, "lon":-77.05682, "pending": false },
    { "id":"jamaica",            "name":"Jamaica",            "lat":-11.98683, "lon":-77.05645, "pending": false },
    { "id":"micaela-bastidas",   "name":"Micaela Bastidas",   "lat":-11.98792, "lon":-77.05623, "pending": false },
    { "id":"andres-belaunde",    "name":"Andrés Belaunde",    "lat":-11.98605, "lon":-77.05774, "pending": false },
    { "id":"los-angeles",        "name":"Los Ángeles",        "lat":-11.98869, "lon":-77.05673, "pending": false },
    { "id":"22-de-agosto",       "name":"Veintidós de Agosto","lat":-11.98733, "lon":-77.05722, "pending": false },
    { "id":"jose-pagador",       "name":"José Pagador",       "lat":-11.98947, "lon":-77.05689, "pending": false },
    { "id":"las-vegas",          "name":"Las Vegas",          "lat":-11.99113, "lon":-77.05663, "pending": false },
    { "id":"universitaria",      "name":"Universitaria",      "lat":-11.99284, "lon":-77.05633, "pending": false },
    { "id":"universidad",        "name":"Universidad",        "lat":-11.99467, "lon":-77.05598, "pending": false },
    { "id":"maestro-peruano",    "name":"Maestro Peruano",    "lat":-11.99735, "lon":-77.05558, "pending": false },
    { "id":"los-platinos",       "name":"Los Platinos",       "lat":-11.99916, "lon":-77.05520, "pending": false },
    { "id":"santa-ligia",        "name":"Santa Ligia",        "lat":-12.00096, "lon":-77.05489, "pending": false },

    { "id":"naranjal",           "name":"Naranjal",           "lat":-12.01139, "lon":-77.05287, "pending": false },
    { "id":"izaguirre",          "name":"Izaguirre",          "lat":-11.98965, "lon":-77.05702, "pending": false },
    { "id":"pacifico",           "name":"Pacífico",           "lat":-11.99485, "lon":-77.05602, "pending": false },
    { "id":"independencia",      "name":"Independencia",      "lat":-11.99832, "lon":-77.05526, "pending": false },
    { "id":"los-jazmines",       "name":"Los Jazmines",       "lat":-12.00212, "lon":-77.05477, "pending": false },
    { "id":"tomas-valle",        "name":"Tomás Valle",        "lat":-12.00663, "lon":-77.05395, "pending": false },
    { "id":"el-milagro",         "name":"El Milagro",         "lat":-12.01139, "lon":-77.05287, "pending": false },
    { "id":"honorio-delgado",    "name":"Honorio Delgado",    "lat":-12.01739, "lon":-77.05155, "pending": false },
    { "id":"uni",                "name":"UNI",                "lat":-12.02401, "lon":-77.04902, "pending": false },
    { "id":"parque-del-trabajo", "name":"Parque del Trabajo", "lat":-12.02952, "lon":-77.04426, "pending": false },
    { "id":"caqueta",            "name":"Caquetá",            "lat":-12.03653, "lon":-77.04362, "pending": false },
    { "id":"ramon-castilla",     "name":"Ramón Castilla",     "lat":-12.04375, "lon":-77.04185, "pending": false },
    { "id":"tacna",              "name":"Tacna",              "lat":-12.04638, "lon":-77.03750, "pending": false },
    { "id":"jiron-de-la-union",  "name":"Jirón de la Unión",  "lat":-12.04890, "lon":-77.03337, "pending": false },
    { "id":"colmena",            "name":"Colmena",            "lat":-12.05120, "lon":-77.03396, "pending": false },

    { "id":"espana",             "name":"España",             "lat":-12.05764, "lon":-77.04180, "pending": false },
    { "id":"estacion-central",   "name":"Estación Central",   "lat":-12.05740, "lon":-77.03585, "pending": false },
    { "id":"estadio-nacional",   "name":"Estadio Nacional",   "lat":-12.06879, "lon":-77.03206, "pending": false },
    { "id":"mexico",             "name":"México",             "lat":-12.07615, "lon":-77.02920, "pending": false },
    { "id":"canada",             "name":"Canadá",             "lat":-12.08197, "lon":-77.02674, "pending": false },
    { "id":"javier-prado",       "name":"Javier Prado",       "lat":-12.08988, "lon":-77.02318, "pending": false },
    { "id":"canaval-moreyra",    "name":"Canaval y Moreyra",  "lat":-12.09655, "lon":-77.02496, "pending": false },
    { "id":"aramburu",           "name":"Aramburú",           "lat":-12.10235, "lon":-77.02728, "pending": false },
    { "id":"domingo-orue",       "name":"Domingo Orué",       "lat":-12.11060, "lon":-77.02672, "pending": false },
    { "id":"angamos",            "name":"Angamos",            "lat":-12.11327, "lon":-77.02596, "pending": false },
    { "id":"ricardo-palma",      "name":"Ricardo Palma",      "lat":-12.11888, "lon":-77.02594, "pending": false },
    { "id":"benavides",          "name":"Benavides",          "lat":-12.12495, "lon":-77.02426, "pending": false },
    { "id":"28-de-julio",        "name":"28 de Julio",        "lat":-12.12896, "lon":-77.02297, "pending": false },
    { "id":"plaza-de-flores",    "name":"Plaza de Flores",    "lat":-12.13587, "lon":-77.01872, "pending": false },
    { "id":"balta",              "name":"Balta",              "lat":-12.14005, "lon":-77.01777, "pending": false },
    { "id":"bulevar",            "name":"Bulevar",            "lat":-12.14857, "lon":-77.02019, "pending": false },
    { "id":"estadio-union",      "name":"Estadio Unión",      "lat":-12.15295, "lon":-77.01969, "pending": false },
    { "id":"escuela-militar",    "name":"Escuela Militar",    "lat":-12.15969, "lon":-77.01896, "pending": false },
    { "id":"teran",              "name":"Fernando Terán",     "lat":-12.16863, "lon":-77.01862, "pending": false },
    { "id":"rosario-de-villa",   "name":"Rosario de Villa",   "lat":-12.17306, "lon":-77.01517, "pending": false },
    { "id":"matellini",          "name":"Matellini",          "lat":-12.17830, "lon":-77.01052, "pending": false }
  ]
}
