{
  "updated": "2025-09-26",
  "stations": [
    { "id":"chimpu-ocllo",            "name":"Chimpu Ocllo",             "lat":-11.8963694,          "lon":-77.0373894,          "pending": false },
    { "id":"san-felipe",              "name":"San Felipe",               "lat":-11.9011622,          "lon":-77.0400505,          "pending": false },
    { "id":"san-carlos",              "name":"San Carlos",               "lat":-11.906467,           "lon":-77.0430204,          "pending": false },
    { "id":"la-alborada",             "name":"La Alborada",              "lat":-11.911095,           "lon":-77.0456211,          "pending": false },
    { "id":"los-incas",               "name":"Los Incas",                "lat":-11.9154528,          "lon":-77.0480489,          "pending": false },
    { "id":"sangarara",               "name":"Sangarará",                "lat":-11.9196197,          "lon":-77.0503945,          "pending": false },
    { "id":"jamaica",                 "name":"Jamaica",                  "lat":-11.9255586,          "lon":-77.0520246,          "pending": false },
    { "id":"micaela-bastidas",        "name":"Micaela Bastidas",         "lat":-11.9302115,          "lon":-77.0537402,          "pending": false },
    { "id":"andres-belaunde",         "name":"Andrés Belaunde",          "lat":-11.935051,           "lon":-77.0564039,          "pending": false },
    { "id":"los-angeles",             "name":"Los Ángeles",              "lat":-11.9419641,          "lon":-77.0601805,          "pending": false },
    { "id":"22-de-agosto",            "name":"Veintidós de Agosto",      "lat":-11.9466452,          "lon":-77.0605922,          "pending": false },
    { "id":"jose-pagador",            "name":"José Pagador",             "lat":-11.9520554,          "lon":-77.0600192,          "pending": false },
    { "id":"las-vegas",               "name":"Las Vegas",                "lat":-11.9548874,          "lon":-77.059923,           "pending": false },
    { "id":"universitaria",           "name":"Universitaria",            "lat":-11.9581796,          "lon":-77.0605262,          "pending": false },
    { "id":"universidad",             "name":"Universidad",              "lat":-11.9627856,          "lon":-77.0623263,          "pending": false },
    { "id":"maestro-peruano",         "name":"Maestro Peruano",          "lat":-11.965154369554302,  "lon":-77.06177479851397,   "pending": false },
    { "id":"los-platinos",            "name":"Los Platinos",             "lat":-11.969808851409882,  "lon":-77.06077570168708,   "pending": false },
    { "id":"santa-ligia",             "name":"Santa Ligia",              "lat":-11.9739763,          "lon":-77.059873,           "pending": false },
    { "id":"naranjal",                "name":"Naranjal",                 "lat":-11.9821275,          "lon":-77.0587452,          "pending": false },
    { "id":"izaguirre",               "name":"Izaguirre",                "lat":-11.9896113,          "lon":-77.0570433,          "pending": false },
    { "id":"pacifico",                "name":"Pacífico",                 "lat":-11.994758,           "lon":-77.0560737,          "pending": false },
    { "id":"independencia",           "name":"Independencia",            "lat":-11.9985058,          "lon":-77.0552504,          "pending": false },
    { "id":"los-jazmines",            "name":"Los Jazmines",             "lat":-12.0018024,          "lon":-77.0548037,          "pending": false },
    { "id":"tomas-valle",             "name":"Tomás Valle",              "lat":-12.0066832,          "lon":-77.0539541,          "pending": false },
    { "id":"el-milagro",              "name":"El Milagro",               "lat":-12.0112372,          "lon":-77.0529399,          "pending": false },
    { "id":"honorio-delgado",         "name":"Honorio Delgado",          "lat":-12.0178703,          "lon":-77.0514378,          "pending": false },
    { "id":"uni",                     "name":"UNI",                      "lat":-12.024196,           "lon":-77.0488716,          "pending": false },
    { "id":"parque-del-trabajo",      "name":"Parque del Trabajo",       "lat":-12.0299693,          "lon":-77.0441872,          "pending": false },
    { "id":"caqueta",                 "name":"Caquetá",                  "lat":-12.036372,           "lon":-77.0436608,          "pending": false },
    { "id":"ramon-castilla",          "name":"Ramón Castilla",           "lat":-12.044068,           "lon":-77.0413799,          "pending": false },
    { "id":"dos-de-mayo-norte",       "name":"Dos de Mayo Norte",        "lat":-12.0457683,          "lon":-77.0427571,          "pending": false },
    { "id":"dos-de-mayo-sur",         "name":"Dos de Mayo Sur",          "lat":-12.0471913,          "lon":-77.0427055,          "pending": false },
    { "id":"tacna-norte",             "name":"Tacna Norte",              "lat":-12.0461698,          "lon":-77.0379215,          "pending": false },
    { "id":"tacna-sur",               "name":"Tacna Sur",                "lat":-12.0465251,          "lon":-77.0372168,          "pending": false },
    { "id":"quilca",                  "name":"Quilca",                   "lat":-12.0519234,          "lon":-77.0422796,          "pending": false },
    { "id":"jiron-de-la-union-norte", "name":"Jirón de la Unión Norte",  "lat":-12.0491792,          "lon":-77.0328966,          "pending": false },
    { "id":"jiron-de-la-union-sur",   "name":"Jirón de la Unión Sur",    "lat":-12.04869991343665,   "lon":-77.03374690607168,   "pending": false },
    { "id":"espana",                  "name":"España",                   "lat":-12.056744,           "lon":-77.0418486,          "pending": false },
    { "id":"colmena",                 "name":"Colmena",                  "lat":-12.0523087,          "lon":-77.0328374,          "pending": false },
    { "id":"estacion-central",        "name":"Estación Central",         "lat":-12.0576958,          "lon":-77.0359527,          "pending": false },
    { "id":"estadio-nacional",        "name":"Estadio Nacional",         "lat":-12.0688642,          "lon":-77.0319942,          "pending": false },
    { "id":"mexico",                  "name":"México",                   "lat":-12.0766412,          "lon":-77.0289771,          "pending": false },
    { "id":"canada",                  "name":"Canadá",                   "lat":-12.0822429,          "lon":-77.0266711,          "pending": false },
    { "id":"javier-prado",            "name":"Javier Prado",             "lat":-12.0892872,          "lon":-77.0235469,          "pending": false },
    { "id":"canaval-moreyra",         "name":"Canaval y Moreyra",        "lat":-12.0969508,          "lon":-77.0251166,          "pending": false },
    { "id":"aramburu",                "name":"Aramburú",                 "lat":-12.1022941,          "lon":-77.0272485,          "pending": false },
    { "id":"domingo-orue",            "name":"Domingo Orué",             "lat":-12.1085005,          "lon":-77.0264381,          "pending": false },
    { "id":"angamos",                 "name":"Angamos",                  "lat":-12.1132904,          "lon":-77.0259612,          "pending": false },
    { "id":"ricardo-palma",           "name":"Ricardo Palma",            "lat":-12.1190148,          "lon":-77.0259295,          "pending": false },
    { "id":"benavides",               "name":"Benavides",                "lat":-12.1251351,          "lon":-77.0242088,          "pending": false },
    { "id":"28-de-julio",             "name":"28 de Julio",              "lat":-12.1294115,          "lon":-77.0228217,          "pending": false },
    { "id":"plaza-de-flores",         "name":"Plaza de Flores",          "lat":-12.135416773618147,  "lon":-77.01911983068669,   "pending": false },
    { "id":"balta",                   "name":"Balta",                    "lat":-12.1411578,          "lon":-77.0177423,          "pending": false },
    { "id":"bulevar",                 "name":"Bulevar",                  "lat":-12.1484065,          "lon":-77.0201185,          "pending": false },
    { "id":"estadio-union",           "name":"Estadio Unión",            "lat":-12.1529242,          "lon":-77.0196905,          "pending": false },
    { "id":"escuela-militar",         "name":"Escuela Militar",          "lat":-12.1594717,          "lon":-77.0189075,          "pending": false },
    { "id":"teran",                   "name":"Fernando Terán",           "lat":-12.16881,            "lon":-77.0186,             "pending": false },
    { "id":"rosario-de-villa",        "name":"Rosario de Villa",         "lat":-12.1735009,          "lon":-77.01471,            "pending": false },
    { "id":"matellini",               "name":"Matellini",                "lat":-12.1784235,          "lon":-77.0104245,          "pending": false }
  ]
}
