[{"stopId":823669,"stopName":"Mercado Central Fevacel","stopTypeGroup":"bus","stopLat":-12.0078192,"stopLon":-77.056244,"routeNames":"1103 1201 1206 1208 1403 1610 2203 2205 2407 2703 3203-(Lima-Callao) CR28 CR53 CR62 IM08 IM47 IO19 IO35b IO38b IO45 IPC06 NM09"},{"stopId":931388,"stopName":"Calle 9","stopTypeGroup":"bus","stopLat":-12.0077607,"stopLon":-77.1070556,"routeNames":"IM04 IM24 IM40"},{"stopId":931410,"stopName":"Calle 9","stopTypeGroup":"bus","stopLat":-12.0076497,"stopLon":-77.1073974,"routeNames":"IM04 IM24 IM40"},{"stopId":1003279,"stopName":"Antares","stopTypeGroup":"bus","stopLat":-12.0076468,"stopLon":-77.0851551,"routeNames":"1208 1501-(Lima-Callao) 1502-(Lima-Callao) 1703-(Lima-Callao) 2702 3205 CR15 CR17 CR27 CR28 CR34 CR42 CR51 CR62 CR65 CR69 CR84 IM30 IM47 IO09 IO38b IO40 IPC06 OM25 OM32 OM47-(Callao-Lima)"},{"stopId":823581,"stopName":"Mercado Central Fevacel","stopTypeGroup":"bus","stopLat":-12.0076408,"stopLon":-77.0560616,"routeNames":"1103 1201 1206 1208 1403 1610 2203 2205 2407 CR28 CR53 CR62 IM08 IM47 IO19 IO35b IO38b IO45 IPC06 NM09"},{"stopId":1003235,"stopName":"Antares","stopTypeGroup":"bus","stopLat":-12.0075906,"stopLon":-77.0853379,"routeNames":"1208 1501-(Lima-Callao) 1502-(Lima-Callao) 1703-(Lima-Callao) 2702 3205 CR15 CR17 CR27 CR28 CR34 CR42 CR51 CR62 CR65 CR69 CR84 IM30 IM47 IO09 IO38b IO40 IPC06 OM25 OM32 OM47-(Callao-Lima)"},{"stopId":823670,"stopName":"Túpac Amaru","stopTypeGroup":"bus","stopLat":-12.0074939,"stopLon":-77.0540392,"routeNames":"1103 1201 1206 1208 1403 1610 2203 2205 2407 2703 3203-(Lima-Callao) CR28 CR53 CR62 IM08 IM47 IO19 IO35b IO38b IO45 IPC06 NM09"},{"stopId":1017579,"stopName":"Tomás Valle","stopTypeGroup":"bus","stopLat":-12.0074212,"stopLon":-77.0536493,"routeNames":"1508 2209 2409 2411 2611 2803 CR12 CR43 NH26b SH112a"},{"stopId":823580,"stopName":"Tomás Valle","stopTypeGroup":"bus","stopLat":-12.007242,"stopLon":-77.0539749,"routeNames":"1103 1201 1206 1208 1403 1508 1610 2203 2205 2209 2407 2409 2411 2611 2803 CR12 CR28 CR43 CR53 CR62 IM08 IM47 IO19 IO35b IO38b IO45 IPC06 NH26b NM09 SH112a"},{"stopId":737717,"stopName":"Plaza Norte","stopTypeGroup":"bus","stopLat":-12.0070269,"stopLon":-77.0613831,"routeNames":"1031 1208 1213 1217 1308 1404 1411 1412 1505 1602 1607 1608 1612 1701 1702 1706 1801-(Lima-Callao) 1802 1804 2204 2408 2414 2510 2511-(Lima-Callao) 2513 2603 2604 2702 2805 4204 4212 7101 8102 8105 8107 8108 8109 8110 8111 8112 8209 8211 8212 930"},{"stopId":1019291,"stopName":"Simón Bolívar","stopTypeGroup":"bus","stopLat":-12.0069328,"stopLon":-77.087837,"routeNames":"2203 2406 2702 2703 7204 8201 8214 IM18"},{"stopId":737425,"stopName":"Angélica Gamarra","stopTypeGroup":"bus","stopLat":-12.0068957,"stopLon":-77.0822078,"routeNames":"018p 1103 1503 1504 1506 1513 1514 1518 1604 1611 1615 1618 1704 1901-(Lima-Callao) 2502 2505 2613 2804-(Lima-Callao) 7103 8104 CR17 IO44b IO45 SH24a"},{"stopId":737529,"stopName":"Plaza Norte","stopTypeGroup":"bus","stopLat":-12.0067304,"stopLon":-77.0618686,"routeNames":"1031 1208 1213 1217 1308 1404 1411 1412 1505 1602 1607 1608 1612 1701 1702 1706 1801-(Lima-Callao) 1802 1804 2204 2408 2414 2510 2511-(Lima-Callao) 2513 2603 2604 2702 2805 4204 4212 7101 8102 8105 8107 8108 8109 8110 8111 8112 8209 8211 8212 930"},{"stopId":1003280,"stopName":"Universitaria","stopTypeGroup":"bus","stopLat":-12.0067229,"stopLon":-77.0826802,"routeNames":"1208 1501-(Lima-Callao) 1502-(Lima-Callao) 1703-(Lima-Callao) 2702 3205 CR15 CR17 CR27 CR28 CR34 CR42 CR51 CR62 CR65 CR69 CR84 IM30 IM47 IO09 IO38b IO40 IPC06 OM25 OM32 OM47-(Callao-Lima)"},{"stopId":761253,"stopName":"Simón Bolívar","stopTypeGroup":"bus","stopLat":-12.006712,"stopLon":-77.0880604,"routeNames":"2203 2406 2702 2703 7204 8201 8214 IM18"},{"stopId":1195053,"stopName":"Bocanegra","stopTypeGroup":"bus","stopLat":-12.0066514,"stopLon":-77.0987772,"routeNames":"2404-(Lima-Callao) 2701-(Lima-Callao) CR07 IM57 IO27 IO35b OM23 UCL01-(Lima-Callao) UCL03-(Lima-Callao)"},{"stopId":815580,"stopName":"Tomás Valle","stopTypeGroup":"bus","stopLat":-12.0065363,"stopLon":-77.0539695,"routeNames":"A B D EX5 EX7 EX8 L"},{"stopId":1003234,"stopName":"Universitaria","stopTypeGroup":"bus","stopLat":-12.0065149,"stopLon":-77.0819288,"routeNames":"1208 1501-(Lima-Callao) 2702 3205 CR15 CR27 CR28 CR34 CR42 CR51 CR65 CR69 CR84 IM30 IO09 IO40"},{"stopId":1003281,"stopName":"Santa Eulália","stopTypeGroup":"bus","stopLat":-12.006513,"stopLon":-77.0790753,"routeNames":"1208 1501-(Lima-Callao) 2702 3205 CR15 CR27 CR28 CR34 CR42 CR51 CR65 CR69 CR84 IM30 IO09 IO40"},{"stopId":1194981,"stopName":"Bocanegra","stopTypeGroup":"bus","stopLat":-12.0064021,"stopLon":-77.0992266,"routeNames":"2404-(Lima-Callao) 2701-(Lima-Callao) CR07 IM57 IO27 IO35b OM23 UCL01-(Lima-Callao)"},{"stopId":1003282,"stopName":"Santa Rosa","stopTypeGroup":"bus","stopLat":-12.0063871,"stopLon":-77.0765755,"routeNames":"1208 1501-(Lima-Callao) 2702 3205 CR15 CR27 CR28 CR34 CR42 CR51 CR65 CR69 CR84 IM30 IO09 IO40"},{"stopId":1003232,"stopName":"Santa Eulália","stopTypeGroup":"bus","stopLat":-12.0063431,"stopLon":-77.0789327,"routeNames":"1208 1501-(Lima-Callao) 2702 3205 CR15 CR27 CR28 CR34 CR42 CR51 CR65 CR69 CR84 IM30 IO09 IO40"},{"stopId":736370,"stopName":"Angélica Gamarra","stopTypeGroup":"bus","stopLat":-12.0063369,"stopLon":-77.0826209,"routeNames":"018p 1103 1502-(Lima-Callao) 1503 1504 1506 1513 1514 1518 1604 1611 1615 1618 1703-(Lima-Callao) 1704 1901-(Lima-Callao) 2502 2505 2613 2804-(Lima-Callao) 7103 8104 CR17 CR62 IM47 IO38b IO44b IO45 IPC06 OM25 OM32 OM47-(Callao-Lima) SH24a"},{"stopId":1003230,"stopName":"Santa Rosa","stopTypeGroup":"bus","stopLat":-12.0062387,"stopLon":-77.0762988,"routeNames":"1208 1501-(Lima-Callao) 2702 3205 CR15 CR27 CR28 CR34 CR42 CR51 CR65 CR69 CR84 IM30 IO09 IO40"},{"stopId":1003283,"stopName":"Mercado Conzac","stopTypeGroup":"bus","stopLat":-12.0060303,"stopLon":-77.0718383,"routeNames":"1208 1501-(Lima-Callao) 2702 3205 CR15 CR27 CR28 CR34 CR42 CR51 CR65 CR69 CR84 IM30 IO09 IO40"},{"stopId":1003227,"stopName":"Mercado Conzac","stopTypeGroup":"bus","stopLat":-12.0058257,"stopLon":-77.0714523,"routeNames":"1208 1501-(Lima-Callao) 2702 CR15 CR27 CR28 CR34 CR42 CR51 CR65 CR69 CR84 IM30 IO09 IO40"},{"stopId":1030126,"stopName":"Calle 20","stopTypeGroup":"bus","stopLat":-12.0056435,"stopLon":-77.1038633,"routeNames":"1174-(Lima-Callao) 1278-(Lima-Callao) 1491 4210-(Lima-Callao) 4905-(Lima-Callao) CR13 CR14 CR24 CR25 CR44-(Lima-Callao) CR75 ICR14 IM22 IO04 IO07 IO30b IO89 OM18 OM21 OM33 OM34 UCL02-(Lima-Callao) UCL03-(Lima-Callao) UCL04-(Lima-Calla"},{"stopId":1030064,"stopName":"Calle 20","stopTypeGroup":"bus","stopLat":-12.0055426,"stopLon":-77.1040708,"routeNames":"1174-(Lima-Callao) 1278-(Lima-Callao) 1491 4210-(Lima-Callao) 4905-(Lima-Callao) CR14 CR24 CR25 CR44-(Lima-Callao) CR75 ICR14 IM22 IO04 IO07 IO30b IO89 OM18 OM21 OM33 OM34 UCL02-(Lima-Callao) UCL03-(Lima-Callao) UCL04-(Lima-Callao)"},{"stopId":2050509,"stopName":"Terminal Terrestre Plaza Norte","stopTypeGroup":"bus","stopLat":-12.005518333805604,"stopLon":-77.05676436424257},{"stopId":1003285,"stopName":"El Trébol","stopTypeGroup":"bus","stopLat":-12.005238,"stopLon":-77.0664739,"routeNames":"1208 1501-(Lima-Callao) 2702 CR15 CR27 CR28 CR34 CR42 CR51 CR65 CR69 CR84 IM30 IO09 IO40"},{"stopId":1003221,"stopName":"El Trébol","stopTypeGroup":"bus","stopLat":-12.0050839,"stopLon":-77.0664878,"routeNames":"1208 1501-(Lima-Callao) 2702 CR15 CR27 CR28 CR34 CR42 CR51 CR65 CR69 CR84 IM30 IO09 IO40"},{"stopId":975919,"stopName":"Terminal Terrestre Plaza Norte","stopTypeGroup":"bus","stopLat":-12.0050739,"stopLon":-77.055539,"routeNames":"Arequipa-Lima-(CIVA) Arequipa-Lima-(Cruz-del-Sur) Lima-Celendín-(Turismo-del-Norte) Lima-Chimbote-(Emtrafesa-Ave-Fénix) Lima-Chulucanas Lima-Ferreñafe Lima-Paita-(Cavassa) Lima-Trujillo Lima-Yanahuanca-(Cruzero-Express)"},{"stopId":2059471,"stopName":"El Trébol (Auxiliar)","stopTypeGroup":"bus","stopLat":-12.00499887187199,"stopLon":-77.06650882959367},{"stopId":931389,"stopName":"Calle 2","stopTypeGroup":"bus","stopLat":-12.0048853,"stopLon":-77.1084182,"routeNames":"IM04 IM24 IM40"},{"stopId":931409,"stopName":"Calle 2","stopTypeGroup":"bus","stopLat":-12.0048474,"stopLon":-77.1087947,"routeNames":"IM04 IM24 IM40"},{"stopId":1003286,"stopName":"Pilas","stopTypeGroup":"bus","stopLat":-12.0047395,"stopLon":-77.0632016,"routeNames":"1208 1501-(Lima-Callao) 2702 CR15 CR27 CR28 CR34 CR42 CR51 CR65 CR69 CR84 IM30 IO09 IO40"},{"stopId":1181063,"stopName":"Pilas","stopTypeGroup":"bus","stopLat":-12.0046054,"stopLon":-77.0633858,"routeNames":"1208 2702 CR27 CR28 CR34 CR42 CR51 CR65 CR69 CR84 IM30 IO09 IO40"},{"stopId":1057144,"stopName":"Pilas","stopTypeGroup":"bus","stopLat":-12.004231,"stopLon":-77.0606541,"routeNames":"1404 1602 2510 CR42"},{"stopId":1030127,"stopName":"Calle 5","stopTypeGroup":"bus","stopLat":-12.0041226,"stopLon":-77.1045744,"routeNames":"1174-(Lima-Callao) 1278-(Lima-Callao) 1491 4210-(Lima-Callao) 4905-(Lima-Callao) CR13 CR14 CR24 CR25 CR44-(Lima-Callao) CR75 ICR14 IM22 IO04 IO07 IO30b IO89 OM18 OM21 OM33 OM34 UCL02-(Lima-Callao) UCL03-(Lima-Callao) UCL04-(Lima-Calla"},{"stopId":1057128,"stopName":"Pilas","stopTypeGroup":"bus","stopLat":-12.0040943,"stopLon":-77.0606408,"routeNames":"1404 1602 2510 CR42"},{"stopId":1030063,"stopName":"Calle 5","stopTypeGroup":"bus","stopLat":-12.0040038,"stopLon":-77.1048424,"routeNames":"1174-(Lima-Callao) 1278-(Lima-Callao) 1491 4210-(Lima-Callao) 4905-(Lima-Callao) CR14 CR24 CR25 CR44-(Lima-Callao) CR75 ICR14 IM22 IO04 IO07 IO30b IO89 OM18 OM21 OM33 OM34 UCL02-(Lima-Callao) UCL03-(Lima-Callao) UCL04-(Lima-Callao)"},{"stopId":1017580,"stopName":"Triángulo","stopTypeGroup":"bus","stopLat":-12.003827,"stopLon":-77.0543466,"routeNames":"1103 1201 1206 1208 1403 1508 1610 2203 2205 2209 2407 2409 2411 2611 2803 CR12 CR28 CR43 CR53 CR62 IM08 IM47 IO19 IO35b IO38b IO45 IPC06 NH26b NM09 SH112a"},{"stopId":1057145,"stopName":"Parque Los Vencedores","stopTypeGroup":"bus","stopLat":-12.003806,"stopLon":-77.0577895,"routeNames":"1404 1602 2510 CR42"},{"stopId":737528,"stopName":"Pilas","stopTypeGroup":"bus","stopLat":-12.0037815,"stopLon":-77.0622012,"routeNames":"1031 1213 1217 1308 1411 1412 1501-(Lima-Callao) 1505 1607 1608 1612 1701 1702 1706 1801-(Lima-Callao) 1802 1804 2204 2408 2414 2511-(Lima-Callao) 2513 2603 2604 2805 4204 4212 7101 8102 8105 8107 8108 8109 8110 8111 8112 8209 8211 8212 9307-(C"},{"stopId":761254,"stopName":"Antonio de Zela","stopTypeGroup":"bus","stopLat":-12.0037658,"stopLon":-77.0900479,"routeNames":"2203 2406 2702 2703 7204 8201 8214 IM18"},{"stopId":1017589,"stopName":"Triángulo","stopTypeGroup":"bus","stopLat":-12.0037098,"stopLon":-77.0546706,"routeNames":"1103 1201 1206 1208 1403 1508 1610 2203 2205 2209 2407 2409 2411 2611 2803 CR12 CR28 CR43 CR53 CR62 IM08 IM47 IO19 IO35b IO38b IO45 IPC06 NH26b NM09 SH112a"},{"stopId":1057127,"stopName":"Calle Cahuide","stopTypeGroup":"bus","stopLat":-12.0036718,"stopLon":-77.0580097,"routeNames":"1404 1602 2510 CR42"},{"stopId":2059472,"stopName":"Pachacútec","stopTypeGroup":"bus","stopLat":-12.003537551869272,"stopLon":-77.06622719764711},{"stopId":2059470,"stopName":"Pachacútec","stopTypeGroup":"bus","stopLat":-12.00339063236414,"stopLon":-77.06638813018799},{"stopId":737718,"stopName":"Pilas","stopTypeGroup":"bus","stopLat":-12.0031807,"stopLon":-77.0618337,"routeNames":"1031 1213 1217 1308 1411 1412 1505 1607 1608 1612 1701 1702 1706 1801-(Lima-Callao) 1802 1804 2204 2408 2414 2511-(Lima-Callao) 2513 2603 2604 2805 4204 4212 7101 8102 8105 8107 8108 8109 8110 8111 8112 8209 8211 8212 9307-(Callao-Lima) 9401-(L"},{"stopId":931390,"stopName":"Colectora","stopTypeGroup":"bus","stopLat":-12.0030278,"stopLon":-77.1093516,"routeNames":"IM04 IM24 IM40"},{"stopId":931408,"stopName":"Colectora","stopTypeGroup":"bus","stopLat":-12.0028132,"stopLon":-77.1097743,"routeNames":"ICR14 IM04 IM22 IM24 IM40 UCL02-(Lima-Callao) UCL03-(Lima-Callao) UCL04-(Lima-Callao)"},{"stopId":737427,"stopName":"Palacio","stopTypeGroup":"bus","stopLat":-12.0027872,"stopLon":-77.0832056,"routeNames":"018p 1103 1502-(Lima-Callao) 1503 1504 1506 1513 1514 1518 1604 1611 1615 1618 1703-(Lima-Callao) 1704 1901-(Lima-Callao) 2502 2505 2613 2804-(Lima-Callao) 7103 8104 CR17 CR62 IM47 IO38b IO44b IO45 IPC06 OM25 OM32 OM47-(Callao-Lima) SH24a"},{"stopId":1195629,"stopName":"Bertello","stopTypeGroup":"bus","stopLat":-12.0026718,"stopLon":-77.1093726,"routeNames":"ICR14 IM22 UCL02-(Lima-Callao) UCL03-(Lima-Callao) UCL04-(Lima-Callao)"},{"stopId":1195055,"stopName":"Colinas","stopTypeGroup":"bus","stopLat":-12.0024706,"stopLon":-77.1008877,"routeNames":"2404-(Lima-Callao) 2701-(Lima-Callao) CR07 IM57 IO27 IO35b OM23 UCL01-(Lima-Callao)"},{"stopId":815579,"stopName":"Los Jazmines","stopTypeGroup":"bus","stopLat":-12.0023281,"stopLon":-77.0547286,"routeNames":"A B D"},{"stopId":1194978,"stopName":"Calle 4","stopTypeGroup":"bus","stopLat":-12.0022835,"stopLon":-77.1011402,"routeNames":"2404-(Lima-Callao) 2701-(Lima-Callao) CR07 IM57 IO27 IO35b OM23 UCL01-(Lima-Callao)"},{"stopId":823671,"stopName":"Los Jazmines","stopTypeGroup":"bus","stopLat":-12.0016538,"stopLon":-77.0546991,"routeNames":"1103 1201 1206 1208 1403 1508 1610 2203 2205 2209 2407 2409 2411 2611 2803 CR12 CR28 CR43 CR53 CR62 IM08 IM47 IO19 IO35b IO38b IO45 IPC06 NH26b NM09 SH112a"},{"stopId":823578,"stopName":"Los Jazmines","stopTypeGroup":"bus","stopLat":-12.0014912,"stopLon":-77.0549941,"routeNames":"1103 1201 1206 1208 1403 1508 1610 2203 2205 2209 2407 2409 2411 2611 2803 CR12 CR28 CR43 CR53 CR62 IM08 IM47 IO19 IO35b IO38b IO45 IPC06 NH26b NM09 SH112a"},{"stopId":1195623,"stopName":"Pacasmayo","stopTypeGroup":"bus","stopLat":-12.00134004534846,"stopLon":-77.10632042883604,"routeNames":"ICR14 IM22 UCL02-(Lima-Callao) UCL03-(Lima-Callao) UCL04-(Lima-Callao)"},{"stopId":1030128,"stopName":"Alamo","stopTypeGroup":"bus","stopLat":-12.0013176,"stopLon":-77.1060205,"routeNames":"1174-(Lima-Callao) 1278-(Lima-Callao) 1491 4210-(Lima-Callao) 4905-(Lima-Callao) CR13 CR14 CR24 CR25 CR44-(Lima-Callao) CR75 ICR14 IM22 IO04 IO07 IO30b IO89 OM18 OM21 OM33 OM34 UCL02-(Lima-Callao) UCL03-(Lima-Callao) UCL04-(Lima-Calla"},{"stopId":736368,"stopName":"Meyer","stopTypeGroup":"bus","stopLat":-12.0012341,"stopLon":-77.0838064,"routeNames":"018p 1103 1502-(Lima-Callao) 1503 1504 1506 1513 1514 1518 1604 1611 1615 1618 1703-(Lima-Callao) 1704 1901-(Lima-Callao) 2502 2505 2613 2804-(Lima-Callao) 7103 8104 CR17 CR62 IM47 IO38b IO44b IO45 IPC06 OM25 OM32 OM47-(Callao-Lima) SH24a"},{"stopId":931391,"stopName":"Calle 15","stopTypeGroup":"bus","stopLat":-12.0011182,"stopLon":-77.110349,"routeNames":"ICR14 IM04 IM22 IM24 IM40 UCL02-(Lima-Callao) UCL03-(Lima-Callao) UCL04-(Lima-Callao)"},{"stopId":1068563,"stopName":"Canta Callao","stopTypeGroup":"bus","stopLat":-12.0011169,"stopLon":-77.1165054,"routeNames":"2511-(Lima-Callao) 9305-(Lima-Callao) CR16 CR19 CR28 CR32 CR35 CR41 CR49 CR56 CR57 CR58 CR61 ICR05 ICR10 IM06 IM12-(Lima-Callao) IM19 IM20 IM26 IM30 IM31 IO03 IO06 IO14-(Lima-Callao) IO28b IO32b IO37b-(Callao-Lima) IO55 IO71 IO75b OM10 OM22"},{"stopId":931407,"stopName":"Calle 15","stopTypeGroup":"bus","stopLat":-12.001101,"stopLon":-77.1106665,"routeNames":"ICR14 IM04 IM22 IM24 IM40 UCL02-(Lima-Callao) UCL03-(Lima-Callao) UCL04-(Lima-Callao)"},{"stopId":761255,"stopName":"Las Vaquitas","stopTypeGroup":"bus","stopLat":-12.001095,"stopLon":-77.0909545,"routeNames":"2203 2406 2702 2703 7204 8201 8214 IM18"},{"stopId":1030062,"stopName":"Álamo","stopTypeGroup":"bus","stopLat":-12.0010635,"stopLon":-77.1063059,"routeNames":"1174-(Lima-Callao) 1278-(Lima-Callao) 1491 4210-(Lima-Callao) 4905-(Lima-Callao) CR14 CR24 CR25 CR44-(Lima-Callao) CR75 IO04 IO07 IO30b IO89 OM18 OM21 OM33 OM34"},{"stopId":1068562,"stopName":"Canta Callao","stopTypeGroup":"bus","stopLat":-12.0010024,"stopLon":-77.1169929,"routeNames":"1491 9305-(Lima-Callao) CR16 CR19 CR24 CR28 CR32 CR35 CR41 CR44-(Lima-Callao) CR56 CR57 CR58 CR61 ICR10 ICR15 IM06 IM12-(Lima-Callao) IM19 IM20 IM30 IM31 IO03 IO06 IO14-(Lima-Callao) IO28b IO32b IO37b-(Callao-Lima) IO55 IO71 IO75b OM10 OM23"},{"stopId":761266,"stopName":"Las Vaquitas","stopTypeGroup":"bus","stopLat":-12.0009717,"stopLon":-77.0911878,"routeNames":"2203 2406 2502 2702 2703 7204 8201 IM18"},{"stopId":1308436,"stopName":"Las Vaquitas","stopTypeGroup":"bus","stopLat":-12.0008615,"stopLon":-77.0909679,"routeNames":"2502 8214"},{"stopId":1068598,"stopName":"Faucett","stopTypeGroup":"bus","stopLat":-12.0005324,"stopLon":-77.1165325,"routeNames":"1491 2511-(Lima-Callao) CR13 CR24 CR44-(Lima-Callao) CR49 ICR05 ICR15 IM26 IO45 OM22 OM23 OM34"},{"stopId":1057146,"stopName":"Isidro Bonifaz","stopTypeGroup":"bus","stopLat":-12.0003032,"stopLon":-77.0579237,"routeNames":"1404 1602 2510 CR42"},{"stopId":2059469,"stopName":"Manco Cápac","stopTypeGroup":"bus","stopLat":-12.00018461893381,"stopLon":-77.06563711166383},{"stopId":1057126,"stopName":"Isidro Bonifaz","stopTypeGroup":"bus","stopLat":-12.0001617,"stopLon":-77.0581168,"routeNames":"1404 1602 2510 CR42"},{"stopId":869936,"stopName":"Nísperos","stopTypeGroup":"bus","stopLat":-11.9997229,"stopLon":-77.0966327,"routeNames":"AN17"},{"stopId":869935,"stopName":"Nísperos","stopTypeGroup":"bus","stopLat":-11.9996651,"stopLon":-77.0968419,"routeNames":"AN17"},{"stopId":1195057,"stopName":"Santa Rosa","stopTypeGroup":"bus","stopLat":-11.999578,"stopLon":-77.1022659,"routeNames":"2404-(Lima-Callao) 2701-(Lima-Callao) CR07 IM57 IO27 IO35b OM23 UCL01-(Lima-Callao)"},{"stopId":1194975,"stopName":"Santa Rosa","stopTypeGroup":"bus","stopLat":-11.9995029,"stopLon":-77.1025594,"routeNames":"2404-(Lima-Callao) 2701-(Lima-Callao) CR07 IM57 IO27 IO35b OM23 UCL01-(Lima-Callao)"},{"stopId":1030129,"stopName":"Chicmabamba","stopTypeGroup":"bus","stopLat":-11.9994852,"stopLon":-77.1069555,"routeNames":"1174-(Lima-Callao) 1278-(Lima-Callao) 1491 4210-(Lima-Callao) 4905-(Lima-Callao) CR13 CR24 CR25 CR44-(Lima-Callao) IO04 IO07 IO30b IO89 OM18 OM21 OM33 OM34"},{"stopId":1030061,"stopName":"Chicmabamba","stopTypeGroup":"bus","stopLat":-11.9993548,"stopLon":-77.1071783,"routeNames":"1174-(Lima-Callao) 1278-(Lima-Callao) 1491 4210-(Lima-Callao) 4905-(Lima-Callao) CR24 CR25 CR44-(Lima-Callao) IO04 IO07 IO30b IO89 OM18 OM21 OM33 OM34"},{"stopId":1030059,"stopName":"Open Plaza Canta Callao - Parte Posterior","stopTypeGroup":"bus","stopLat":-11.999315,"stopLon":-77.112759,"routeNames":"CR25"},{"stopId":1329544,"stopName":"Dominicos","stopTypeGroup":"bus","stopLat":-11.9992506,"stopLon":-77.1023405},{"stopId":1068600,"stopName":"Paradero Deposito","stopTypeGroup":"bus","stopLat":-11.9989861,"stopLon":-77.121046,"routeNames":"1491 9305-(Lima-Callao) CR16 CR19 CR24 CR28 CR32 CR35 CR41 CR44-(Lima-Callao) CR56 CR57 CR58 CR61 ICR10 ICR15 IM06 IM12-(Lima-Callao) IM19 IM20 IM30 IM31 IO03 IO06 IO14-(Lima-Callao) IO28b IO32b IO37b-(Callao-Lima) IO55 IO71 IO75b OM10 OM23"},{"stopId":1068558,"stopName":"Paradero Depósito","stopTypeGroup":"bus","stopLat":-11.9989373,"stopLon":-77.121641,"routeNames":"1491 9305-(Lima-Callao) CR16 CR19 CR24 CR28 CR32 CR35 CR41 CR44-(Lima-Callao) CR56 CR57 CR58 CR61 ICR10 ICR15 IM06 IM12-(Lima-Callao) IM19 IM20 IM30 IM31 IO03 IO06 IO14-(Lima-Callao) IO28b IO32b IO37b-(Callao-Lima) IO55 IO71 IO75b OM10 OM23"},{"stopId":815578,"stopName":"Independencia","stopTypeGroup":"bus","stopLat":-11.99876,"stopLon":-77.0552006,"routeNames":"A B D EX6 EX8"},{"stopId":931406,"stopName":"Open Plaza","stopTypeGroup":"bus","stopLat":-11.9987188,"stopLon":-77.111911,"routeNames":"CR25 ICR14 IM04 IM22 IM24 IM40 UCL02-(Lima-Callao) UCL03-(Lima-Callao) UCL04-(Lima-Callao)"},{"stopId":737428,"stopName":"Juan Pichert","stopTypeGroup":"bus","stopLat":-11.9986,"stopLon":-77.0841497,"routeNames":"018p 1103 1502-(Lima-Callao) 1503 1504 1506 1513 1514 1518 1604 1611 1615 1618 1703-(Lima-Callao) 1704 1901-(Lima-Callao) 2502 2505 2613 2804-(Lima-Callao) 7103 8104 CR17 CR62 IM47 IO38b IO44b IO45 IPC06 OM25 OM32 OM47-(Callao-Lima) SH24a"},{"stopId":761256,"stopName":"Abtao","stopTypeGroup":"bus","stopLat":-11.9985727,"stopLon":-77.0926569,"routeNames":"2203 2406 2502 2702 2703 7204 8201 IM18"},{"stopId":736367,"stopName":"Juan Pichert","stopTypeGroup":"bus","stopLat":-11.9985606,"stopLon":-77.0844287,"routeNames":"018p 1103 1502-(Lima-Callao) 1503 1504 1506 1513 1514 1518 1604 1611 1615 1618 1703-(Lima-Callao) 1704 1901-(Lima-Callao) 2502 2505 2613 2804-(Lima-Callao) 7103 8104 CR17 CR62 IM47 IO38b IO44b IO45 IPC06 OM25 OM32 OM47-(Callao-Lima) SH24a"},{"stopId":761265,"stopName":"Abtao","stopTypeGroup":"bus","stopLat":-11.998506,"stopLon":-77.0929383,"routeNames":"2203 2406 2502 2702 2703 7204 8201 IM18"},{"stopId":931392,"stopName":"Open Plaza","stopTypeGroup":"bus","stopLat":-11.9984632,"stopLon":-77.1117303,"routeNames":"CR25 ICR14 IM04 IM22 IM24 IM40 UCL02-(Lima-Callao) UCL03-(Lima-Callao) UCL04-(Lima-Callao)"},{"stopId":1308435,"stopName":"María Parado de Bellido","stopTypeGroup":"bus","stopLat":-11.9982484,"stopLon":-77.0892915,"routeNames":"2502 8214"},{"stopId":737527,"stopName":"Senati","stopTypeGroup":"bus","stopLat":-11.9982117,"stopLon":-77.0628852,"routeNames":"1031 1213 1217 1308 1411 1412 1501-(Lima-Callao) 1505 1607 1608 1612 1701 1702 1706 1801-(Lima-Callao) 1802 1804 2204 2408 2414 2511-(Lima-Callao) 2513 2603 2604 2805 4204 4212 7101 8102 8105 8107 8108 8109 8110 8111 8112 8209 8211 8212 9307-(C"},{"stopId":737719,"stopName":"Senati","stopTypeGroup":"bus","stopLat":-11.9981854,"stopLon":-77.0625955,"routeNames":"1031 1213 1217 1308 1411 1412 1501-(Lima-Callao) 1505 1607 1608 1612 1701 1702 1706 1801-(Lima-Callao) 1802 1804 2204 2408 2414 2511-(Lima-Callao) 2513 2603 2604 2805 4204 4212 7101 8102 8105 8107 8108 8109 8110 8111 8112 8209 8211 8212 9307-(C"},{"stopId":823675,"stopName":"Los Pinos","stopTypeGroup":"bus","stopLat":-11.9978444,"stopLon":-77.0551631,"routeNames":"1103 1201 1206 1208 1403 1508 1610 2203 2205 2209 2407 2409 2411 2611 2803 CR12 CR28 CR43 CR53 CR62 IM08 IM47 IO19 IO35b IO38b IO45 IPC06 NH26b NM09 SH112a"},{"stopId":869934,"stopName":"Coopip","stopTypeGroup":"bus","stopLat":-11.9976817,"stopLon":-77.0979363,"routeNames":"AN17"},{"stopId":823577,"stopName":"Los Pinos","stopTypeGroup":"bus","stopLat":-11.9976555,"stopLon":-77.0554179,"routeNames":"1103 1201 1206 1208 1403 1508 1610 2203 2205 2209 2407 2409 2411 2611 CR12 CR28 CR43 CR53 CR62 IM08 IM47 IO19 IO35b IO38b IO45 IPC06 NH26b NM09 SH112a"},{"stopId":869937,"stopName":"Coopip","stopTypeGroup":"bus","stopLat":-11.9976345,"stopLon":-77.0977968,"routeNames":"AN17"},{"stopId":2059468,"stopName":"El Buen Pastor","stopTypeGroup":"bus","stopLat":-11.997566258891094,"stopLon":-77.06477880477907},{"stopId":1195058,"stopName":"Urubamba","stopTypeGroup":"bus","stopLat":-11.9972134,"stopLon":-77.1034429,"routeNames":"2404-(Lima-Callao) 2701-(Lima-Callao) CR07 IM57 IO27 IO35b OM23 UCL01-(Lima-Callao)"},{"stopId":1068564,"stopName":"Bertello","stopTypeGroup":"bus","stopLat":-11.9971853,"stopLon":-77.1129129,"routeNames":"1491 2208 2511-(Lima-Callao) CR24 CR44-(Lima-Callao) CR49 ICR05 ICR15 IM26 IO45 OM22 OM23 OM34 UCL01-(Lima-Callao)"},{"stopId":1532325,"stopName":"Virgo","stopTypeGroup":"bus","stopLat":-11.9971675,"stopLon":-77.0746708,"routeNames":"2505"},{"stopId":1194973,"stopName":"Urubamba","stopTypeGroup":"bus","stopLat":-11.9971377,"stopLon":-77.1035964,"routeNames":"2404-(Lima-Callao) 2701-(Lima-Callao) CR07 IM57 IO27 IO35b OM23 UCL01-(Lima-Callao)"},{"stopId":931393,"stopName":"Canta Callao","stopTypeGroup":"bus","stopLat":-11.9970448,"stopLon":-77.1124728,"routeNames":"CR25 ICR14 IM04 IM22 IM24 IM40 UCL02-(Lima-Callao) UCL03-(Lima-Callao) UCL04-(Lima-Callao)"},{"stopId":1030130,"stopName":"Salermo","stopTypeGroup":"bus","stopLat":-11.9969333,"stopLon":-77.1082823,"routeNames":"1174-(Lima-Callao) 1278-(Lima-Callao) 1491 4210-(Lima-Callao) 4905-(Lima-Callao) CR13 CR24 CR25 CR44-(Lima-Callao) IO04 IO07 IO30b IO89 OM18 OM21 OM33 OM34"},{"stopId":1030060,"stopName":"Salermo","stopTypeGroup":"bus","stopLat":-11.9968208,"stopLon":-77.1084844,"routeNames":"1174-(Lima-Callao) 1278-(Lima-Callao) 1491 4210-(Lima-Callao) 4905-(Lima-Callao) CR24 CR25 CR44-(Lima-Callao) IO04 IO07 IO30b IO89 OM18 OM21 OM33 OM34"},{"stopId":1479593,"stopName":"Casma","stopTypeGroup":"bus","stopLat":-11.996754,"stopLon":-77.1007569},{"stopId":1068602,"stopName":"Óvalo 200 Millas","stopTypeGroup":"bus","stopLat":-11.9967284,"stopLon":-77.1252176,"routeNames":"1491 9305-(Lima-Callao) CR16 CR19 CR24 CR28 CR32 CR35 CR41 CR56 CR57 CR58 CR61 CR66 ICR10 ICR15 IM06 IM12-(Lima-Callao) IM19 IM20 IM30 IM31 IO03 IO06 IO14-(Lima-Callao) IO28b IO32b IO37b-(Callao-Lima) IO55 IO71 IO75b OM10 OM23 OM34 OM42-(Call"},{"stopId":829872,"stopName":"Canta Callao","stopTypeGroup":"bus","stopLat":-11.996687,"stopLon":-77.1129819,"routeNames":"1174-(Lima-Callao) AN14 ICR14 IM04 IM24 IM40 OM33 UCL02-(Lima-Callao) UCL03-(Lima-Callao) UCL04-(Lima-Callao)"},{"stopId":1308434,"stopName":"Daniel Alcides Carrión","stopTypeGroup":"bus","stopLat":-11.9966322,"stopLon":-77.0865422,"routeNames":"2502 8214 9405-(Lima-Callao)"},{"stopId":739152,"stopName":"Antúnez de Mayolo","stopTypeGroup":"bus","stopLat":-11.9966296,"stopLon":-77.0845574,"routeNames":"018p 1103 1502-(Lima-Callao) 1503 1504 1506 1513 1518 1604 1611 1615 1618 1703-(Lima-Callao) 1704 1901-(Lima-Callao) 2502 2505 2613 2804-(Lima-Callao) 7103 8104 CR17 CR62 IM47 IO38b IO44b IO45 IPC06 OM25 OM32 OM47-(Callao-Lima) SH24a"},{"stopId":1479594,"stopName":"Casma","stopTypeGroup":"bus","stopLat":-11.996543,"stopLon":-77.1008036},{"stopId":829870,"stopName":"Bertello","stopTypeGroup":"bus","stopLat":-11.9965273,"stopLon":-77.1125919,"routeNames":"1174-(Lima-Callao) 1491 2208 2511-(Lima-Callao) AN14 CR13 CR24 CR25 CR44-(Lima-Callao) CR49 ICR05 ICR15 IM22 IM26 IO45 OM22 OM23 OM33 OM34 UCL01-(Lima-Callao)"},{"stopId":1308433,"stopName":"Daniel Alcides Carrión","stopTypeGroup":"bus","stopLat":-11.9964329,"stopLon":-77.086494,"routeNames":"2502 8214 9405-(Lima-Callao)"},{"stopId":737430,"stopName":"Río Santa","stopTypeGroup":"bus","stopLat":-11.9963069,"stopLon":-77.0852172,"routeNames":"2502 8214 9405-(Lima-Callao) AN17"},{"stopId":869929,"stopName":"Universitaria","stopTypeGroup":"bus","stopLat":-11.9959501,"stopLon":-77.0838654,"routeNames":"1502-(Lima-Callao) 1618 1901-(Lima-Callao) 2205 2414 2505 2613 7103 8104 9405-(Lima-Callao) AN17 CR17 CR28 CR62 IM47 IO38b IPC06 OM25 OM47-(Callao-Lima)"},{"stopId":1068025,"stopName":"Óvalo 200 Millas","stopTypeGroup":"bus","stopLat":-11.9958569,"stopLon":-77.1261944,"routeNames":"9305-(Lima-Callao) CR16 CR19 CR24 CR28 CR32 CR35 CR41 CR56 CR57 CR58 CR61 CR66 ICR10 ICR15 IM06 IM12-(Lima-Callao) IM19 IM20 IM30 IM31 IO03 IO06 IO14-(Lima-Callao) IO28b IO32b IO37b-(Callao-Lima) IO55 IO71 IO75b OM10 OM23 OM34 OM42-(Callao-"},{"stopId":761257,"stopName":"Elías Aguirre","stopTypeGroup":"bus","stopLat":-11.995611,"stopLon":-77.0930818,"routeNames":"2203 2406 2502 2702 2703 7204 8201 IM18"},{"stopId":761264,"stopName":"Elías Aguirre","stopTypeGroup":"bus","stopLat":-11.9955054,"stopLon":-77.0932131,"routeNames":"2203 2406 2502 2702 2703 7204 8201 IM18"},{"stopId":1532324,"stopName":"Géminis","stopTypeGroup":"bus","stopLat":-11.9954149,"stopLon":-77.0749256,"routeNames":"2505"},{"stopId":1057147,"stopName":"Pacífico","stopTypeGroup":"bus","stopLat":-11.9953728,"stopLon":-77.0586824,"routeNames":"1404 1602 2510 CR42"},{"stopId":739104,"stopName":"Antúnez de Mayolo","stopTypeGroup":"bus","stopLat":-11.9953309,"stopLon":-77.0843992,"routeNames":"018p 1103 1503 1504 1506 1513 1514 1518 1604 1611 1615 1703-(Lima-Callao) 1704 2205 2414 2804-(Lima-Callao) 8214 CR28 IO44b IO45 OM32 SH24a"},{"stopId":2025633,"stopName":"Industrial","stopTypeGroup":"bus","stopLat":-11.99522073241103,"stopLon":-77.0585346221924},{"stopId":1057125,"stopName":"Pacífico","stopTypeGroup":"bus","stopLat":-11.9951996,"stopLon":-77.058901,"routeNames":"1404 1602 2510 CR42"},{"stopId":737432,"stopName":"Mercado de Covida","stopTypeGroup":"bus","stopLat":-11.9951315,"stopLon":-77.0770311,"routeNames":"1502-(Lima-Callao) 1618 1901-(Lima-Callao) 2205 2414 2505 2613 7103 8104 9405-(Lima-Callao) AN17 CR17 CR28 CR62 IM47 IO38b IPC06 OM25 OM47-(Callao-Lima)"},{"stopId":1197945,"stopName":"La Esperanza","stopTypeGroup":"bus","stopLat":-11.9950808,"stopLon":-77.1134521,"routeNames":"1174-(Lima-Callao) IM24 IM40 OM33 UCL03-(Lima-Callao) UCL04-(Lima-Callao)"},{"stopId":736364,"stopName":"Mercado de Covida","stopTypeGroup":"bus","stopLat":-11.9949321,"stopLon":-77.0768434,"routeNames":"1502-(Lima-Callao) 1618 1901-(Lima-Callao) 2205 2414 2505 2613 7103 8104 9405-(Lima-Callao) AN17 CR17 CR28 CR62 IM47 IO38b IPC06 OM25 OM47-(Callao-Lima)"},{"stopId":815577,"stopName":"Pacífico","stopTypeGroup":"bus","stopLat":-11.9948875,"stopLon":-77.0559865,"routeNames":"A B D EX11"},{"stopId":1197944,"stopName":"La Esperanza","stopTypeGroup":"bus","stopLat":-11.9948551,"stopLon":-77.1138759,"routeNames":"1174-(Lima-Callao) IM24 IM40 OM33 UCL03-(Lima-Callao) UCL04-(Lima-Callao)"},{"stopId":1479595,"stopName":"Alcides Vigo","stopTypeGroup":"bus","stopLat":-11.9948067,"stopLon":-77.0996384,"routeNames":"2702"},{"stopId":1195059,"stopName":"Veterinaria","stopTypeGroup":"bus","stopLat":-11.9947517,"stopLon":-77.104909,"routeNames":"2404-(Lima-Callao) 2701-(Lima-Callao) CR07 IM57 IO27 IO35b OM23 UCL01-(Lima-Callao)"},{"stopId":1194970,"stopName":"Veterinaria","stopTypeGroup":"bus","stopLat":-11.9947462,"stopLon":-77.1049914,"routeNames":"2404-(Lima-Callao) 2701-(Lima-Callao) CR07 IM57 IO27 IO35b OM23 UCL01-(Lima-Callao)"},{"stopId":869938,"stopName":"Santa Rosa","stopTypeGroup":"bus","stopLat":-11.9947327,"stopLon":-77.0994329,"routeNames":"AN17"},{"stopId":869930,"stopName":"San Francisco","stopTypeGroup":"bus","stopLat":-11.9945543,"stopLon":-77.0893693,"routeNames":"9405-(Lima-Callao) AN17"},{"stopId":869941,"stopName":"San Francisco","stopTypeGroup":"bus","stopLat":-11.9945228,"stopLon":-77.0896268,"routeNames":"9405-(Lima-Callao) AN17"},{"stopId":869933,"stopName":"Alcides Vigo","stopTypeGroup":"bus","stopLat":-11.9944126,"stopLon":-77.0995671,"routeNames":"2702 AN17"},{"stopId":829873,"stopName":"Pacasmayo","stopTypeGroup":"bus","stopLat":-11.9943602,"stopLon":-77.1103066,"routeNames":"1174-(Lima-Callao) 1491 2208 2511-(Lima-Callao) AN14 CR24 CR25 CR44-(Lima-Callao) CR49 ICR05 ICR15 IM22 IM26 IO45 OM22 OM23 OM33 OM34 UCL01-(Lima-Callao)"},{"stopId":1030131,"stopName":"Canta Callao","stopTypeGroup":"bus","stopLat":-11.9943537,"stopLon":-77.1099624,"routeNames":"1174-(Lima-Callao) 1278-(Lima-Callao) 1491 4210-(Lima-Callao) 4905-(Lima-Callao) CR13 CR24 CR25 CR44-(Lima-Callao) IO04 IO07 IO30b IO89 OM18 OM21 OM33 OM34"},{"stopId":737526,"stopName":"Mega Plaza","stopTypeGroup":"bus","stopLat":-11.9942815,"stopLon":-77.0637488,"routeNames":"1031 1213 1217 1308 1411 1412 1501-(Lima-Callao) 1505 1607 1608 1612 1701 1702 1706 1801-(Lima-Callao) 1802 1804 2204 2408 2414 2511-(Lima-Callao) 2513 2603 2604 2805 4204 4212 7101 8102 8105 8107 8108 8109 8110 8111 8112 8209 8211 8212 9307-(C"},{"stopId":737720,"stopName":"Mega Plaza","stopTypeGroup":"bus","stopLat":-11.9942605,"stopLon":-77.0632392,"routeNames":"1031 1213 1217 1308 1411 1412 1501-(Lima-Callao) 1505 1607 1608 1612 1701 1702 1706 1801-(Lima-Callao) 1802 1804 2204 2408 2414 2511-(Lima-Callao) 2513 2603 2604 2805 4204 4212 7101 8102 8105 8107 8108 8109 8110 8111 8112 8209 8211 8212 9307-(C"},{"stopId":761258,"stopName":"Parque","stopTypeGroup":"bus","stopLat":-11.9942237,"stopLon":-77.0931646,"routeNames":"2203 2406 2502 2702 2703 7204 8201 IM18"},{"stopId":823575,"stopName":"Pacífico","stopTypeGroup":"bus","stopLat":-11.9942237,"stopLon":-77.0565605,"routeNames":"1103 1201 1206 1208 1403 1508 1610 2203 2205 2209 2407 2409 2411 2611 CR12 CR28 CR43 CR53 CR62 IM08 IM47 IO19 IO35b IO38b IO45 IPC06 NH26b NM09 SH112a"},{"stopId":823673,"stopName":"Pacífico","stopTypeGroup":"bus","stopLat":-11.9942185,"stopLon":-77.0562547,"routeNames":"1103 1201 1206 1208 1403 1508 1610 2203 2205 2209 2407 2409 2411 2611 CR12 CR28 CR43 CR53 CR62 IM08 IM47 IO19 IO35b IO38b IO45 IPC06 NH26b NM09 SH112a"},{"stopId":737435,"stopName":"Plaza Vea (Los Olivos)","stopTypeGroup":"bus","stopLat":-11.9941765,"stopLon":-77.0721281,"routeNames":"1502-(Lima-Callao) 1618 1901-(Lima-Callao) 2205 2414 2613 7103 8104 9405-(Lima-Callao) AN17 CR17 CR28 CR62 IM47 IO38b IPC06 OM25 OM47-(Callao-Lima)"},{"stopId":1077408,"stopName":"Santa Beatriz","stopTypeGroup":"bus","stopLat":-11.9940529,"stopLon":-77.1256892,"routeNames":"9305-(Lima-Callao) CR16 CR19 CR24 CR28 CR32 CR35 CR41 CR56 CR57 CR58 CR61 CR66 ICR10 ICR15 IM06 IM12-(Lima-Callao) IM19 IM20 IM30 IM31 IO03 IO06 IO14-(Lima-Callao) IO28b IO32b IO37b-(Callao-Lima) IO55 IO71 IO75b OM10 OM23 OM34 OM42-(Callao-"},{"stopId":761263,"stopName":"Parque","stopTypeGroup":"bus","stopLat":-11.9940506,"stopLon":-77.0932961,"routeNames":"2203 2406 2502 2702 2703 7204 8201 IM18"},{"stopId":829869,"stopName":"Pacasmayo","stopTypeGroup":"bus","stopLat":-11.9940034,"stopLon":-77.1102476,"routeNames":"2208 2511-(Lima-Callao) 4210-(Lima-Callao) 4905-(Lima-Callao) AN14 CR13 CR49 ICR05 ICR15 IM22 IM26 IO27 IO45 IO89 OM21 OM22 OM23 UCL01-(Lima-Callao)"},{"stopId":1847263,"stopName":"Canta Callao","stopTypeGroup":"bus","stopLat":-11.993940391675384,"stopLon":-77.11052119731903,"routeNames":"IO04 IO07 IO27 IO30b OM18"},{"stopId":736363,"stopName":"Plaza Vea (Los Olivos)","stopTypeGroup":"bus","stopLat":-11.9938879,"stopLon":-77.072069,"routeNames":"1502-(Lima-Callao) 1618 1901-(Lima-Callao) 2205 2414 2613 7103 8104 9405-(Lima-Callao) AN17 CR17 CR28 CR62 IM47 IO38b IPC06 OM25 OM47-(Callao-Lima)"},{"stopId":2059473,"stopName":"Santa Cruz","stopTypeGroup":"bus","stopLat":-11.9935311011417,"stopLon":-77.06629157066347},{"stopId":1057148,"stopName":"Megaplaza","stopTypeGroup":"bus","stopLat":-11.9932413,"stopLon":-77.0590257,"routeNames":"1404 1602 2510 CR42"},{"stopId":1195060,"stopName":"Primaveras","stopTypeGroup":"bus","stopLat":-11.993215,"stopLon":-77.1054262,"routeNames":"2404-(Lima-Callao) 2701-(Lima-Callao) CR07 IM57 IO27 IO35b OM23 UCL01-(Lima-Callao)"},{"stopId":829871,"stopName":"Los Pinos","stopTypeGroup":"bus","stopLat":-11.993148,"stopLon":-77.1140885,"routeNames":"1031 1174-(Lima-Callao) AN14 IM24 IM40 OM33"},{"stopId":1194966,"stopName":"Primaveras","stopTypeGroup":"bus","stopLat":-11.9931035,"stopLon":-77.1055783,"routeNames":"2404-(Lima-Callao) 2701-(Lima-Callao) CR07 IM57 IO27 IO35b OM23 UCL01-(Lima-Callao)"},{"stopId":1851660,"stopName":"Calle D","stopTypeGroup":"bus","stopLat":-11.993087702362638,"stopLon":-77.11211979389192,"routeNames":"IO27"},{"stopId":1057124,"stopName":"Megaplaza","stopTypeGroup":"bus","stopLat":-11.9930708,"stopLon":-77.0592441,"routeNames":"1404 1602 2510 CR42"},{"stopId":931404,"stopName":"Los Pinos","stopTypeGroup":"bus","stopLat":-11.9929616,"stopLon":-77.1142303,"routeNames":"1031 1174-(Lima-Callao) IM24 IM40 OM33"},{"stopId":1851659,"stopName":"Bertello","stopTypeGroup":"bus","stopLat":-11.992675786867418,"stopLon":-77.11397856473924,"routeNames":"IO27"},{"stopId":761259,"stopName":"Daniel Alcides Carrión","stopTypeGroup":"bus","stopLat":-11.9925131,"stopLon":-77.0932692,"routeNames":"2203 2406 2502 2702 2703 7204 8201 IM18"},{"stopId":869931,"stopName":"12 de Octubre","stopTypeGroup":"bus","stopLat":-11.9922927,"stopLon":-77.0931727,"routeNames":"9405-(Lima-Callao) AN17"},{"stopId":1077357,"stopName":"Santa Beatriz","stopTypeGroup":"bus","stopLat":-11.992252,"stopLon":-77.1257556,"routeNames":"9305-(Lima-Callao) CR16 CR19 CR24 CR28 CR32 CR35 CR41 CR56 CR57 CR58 CR61 CR66 ICR10 ICR15 IM06 IM12-(Lima-Callao) IM19 IM20 IM30 IM31 IO03 IO06 IO14-(Lima-Callao) IO28b IO32b IO37b-(Callao-Lima) IO55 IO71 IO75b OM10 OM23 OM34 OM42-(Callao-"},{"stopId":869940,"stopName":"12 de Octubre","stopTypeGroup":"bus","stopLat":-11.992235,"stopLon":-77.0935374,"routeNames":"2406 7204 9405-(Lima-Callao) AN17"},{"stopId":761262,"stopName":"Daniel Alcides Carrión","stopTypeGroup":"bus","stopLat":-11.9920041,"stopLon":-77.0933819,"routeNames":"2203 2502 2702 2703 8201 IM18"},{"stopId":869953,"stopName":"Conococha","stopTypeGroup":"bus","stopLat":-11.991789,"stopLon":-77.0752072,"routeNames":"1031 2209 2513 AN18 CR71 IM21"},{"stopId":739153,"stopName":"Izaguirre","stopTypeGroup":"bus","stopLat":-11.9916867,"stopLon":-77.0818591,"routeNames":"018p 1103 1503 1504 1506 1513 1514 1518 1604 1611 1615 1703-(Lima-Callao) 1704 2205 2414 2804-(Lima-Callao) 8214 CR28 IO44b IO45 OM32 SH24a"},{"stopId":869944,"stopName":"El Amargón","stopTypeGroup":"bus","stopLat":-11.9916053,"stopLon":-77.0750195,"routeNames":"1031 2209 2513 AN18 CR71 IM21"},{"stopId":737436,"stopName":"Izaguirre","stopTypeGroup":"bus","stopLat":-11.9915266,"stopLon":-77.0715326,"routeNames":"1502-(Lima-Callao) 1618 1901-(Lima-Callao) 2205 2414 2613 7103 8104 9405-(Lima-Callao) CR17 CR28 CR62 IM47 IO38b IPC06 OM25 OM47-(Callao-Lima)"},{"stopId":2059474,"stopName":"Fitzcarrald","stopTypeGroup":"bus","stopLat":-11.991440036607445,"stopLon":-77.0678660273552},{"stopId":869951,"stopName":"Universitaria","stopTypeGroup":"bus","stopLat":-11.9913797,"stopLon":-77.0832431,"routeNames":"1031 2209 2513 AN18 CR71 IM21 IO45"},{"stopId":955753,"stopName":"Universitaria","stopTypeGroup":"bus","stopLat":-11.9912932,"stopLon":-77.0815079,"routeNames":"1031 2209 2513 CR71 IM21"},{"stopId":869954,"stopName":"Mayolo","stopTypeGroup":"bus","stopLat":-11.9912905,"stopLon":-77.0718545,"routeNames":"1031 2209 2513 AN18 CR71 IM21"},{"stopId":2065165,"stopName":"América Express Los Olivos","stopTypeGroup":"bus","stopLat":-11.991146184332438,"stopLon":-77.07968384027483},{"stopId":869950,"stopName":"San Francisco","stopTypeGroup":"bus","stopLat":-11.9911121,"stopLon":-77.0880228,"routeNames":"1031 2209 2513 AN18 CR71 IM21 IO45"},{"stopId":814993,"stopName":"Las Palmeras","stopTypeGroup":"bus","stopLat":-11.9910556,"stopLon":-77.0714763,"routeNames":"1031 2204 2205 2209 2409 2411 2414 2513 2603 2604 2611 4204 8212 9405-(Lima-Callao) AN18 CR28 CR71 IM21"},{"stopId":739103,"stopName":"Izaguirre","stopTypeGroup":"bus","stopLat":-11.9910439,"stopLon":-77.0829159,"routeNames":"018p 1103 1503 1504 1506 1513 1514 1518 1604 1611 1615 1703-(Lima-Callao) 1704 2205 2414 2804-(Lima-Callao) 8214 CR28 IO44b OM32 SH24a"},{"stopId":761260,"stopName":"Izaguirre","stopTypeGroup":"bus","stopLat":-11.990994,"stopLon":-77.0929527,"routeNames":"2406 2702 2703 7204 8201 9405-(Lima-Callao) IM18"},{"stopId":869946,"stopName":"San Francisco","stopTypeGroup":"bus","stopLat":-11.9909861,"stopLon":-77.0878512,"routeNames":"1031 2209 2513 AN18 CR71 IM21 IO45"},{"stopId":829874,"stopName":"Dominicos","stopTypeGroup":"bus","stopLat":-11.9909442,"stopLon":-77.1071899,"routeNames":"2208 2511-(Lima-Callao) 4210-(Lima-Callao) 4905-(Lima-Callao) AN14 CR13 CR49 ICR05 ICR15 IM22 IM26 IO27 IO45 IO89 OM21 OM22 OM23 UCL01-(Lima-Callao)"},{"stopId":736362,"stopName":"Izaguirre","stopTypeGroup":"bus","stopLat":-11.9908655,"stopLon":-77.0718116,"routeNames":"1502-(Lima-Callao) 1618 1901-(Lima-Callao) 2204 2409 2411 2603 2604 2611 2613 4204 7103 8104 8212 CR17 CR62 IM47 IO38b IPC06 OM25 OM47-(Callao-Lima)"},{"stopId":814961,"stopName":"José Santos Chocano","stopTypeGroup":"bus","stopLat":-11.9908293,"stopLon":-77.0688303,"routeNames":"1031 2204 2205 2209 2409 2411 2414 2513 2603 2604 2611 4204 8212 9405-(Lima-Callao) AN18 CR28 CR71 IM21"},{"stopId":1195061,"stopName":"Canta Callao","stopTypeGroup":"bus","stopLat":-11.9908281,"stopLon":-77.1067829,"routeNames":"2404-(Lima-Callao) 2701-(Lima-Callao) CR07 IM57 IO27 IO35b OM23 UCL01-(Lima-Callao)"},{"stopId":761261,"stopName":"12 de Octubre","stopTypeGroup":"bus","stopLat":-11.9907026,"stopLon":-77.0931859,"routeNames":"1031 2203 2209 2513 2702 2703 8201 AN18 CR71 IM18 IM21 IO45"},{"stopId":869932,"stopName":"Santa Rosa","stopTypeGroup":"bus","stopLat":-11.9906818,"stopLon":-77.0960426,"routeNames":"2203 AN18"},{"stopId":814992,"stopName":"José Santos Chocano","stopTypeGroup":"bus","stopLat":-11.9906253,"stopLon":-77.0686921,"routeNames":"1031 2204 2205 2209 2409 2411 2414 2513 2603 2604 2611 4204 8212 9405-(Lima-Callao) AN18 CR28 CR71 IM21"},{"stopId":737721,"stopName":"Izaguirre","stopTypeGroup":"bus","stopLat":-11.9906241,"stopLon":-77.0637006,"routeNames":"1031 1213 1217 1308 1411 1412 1501-(Lima-Callao) 1505 1607 1608 1612 1701 1702 1706 1801-(Lima-Callao) 1802 1804 2204 2408 2414 2511-(Lima-Callao) 2513 2603 2604 2805 4204 4212 7101 8102 8105 8107 8108 8109 8110 8111 8112 8209 8211 8212 9307-(C"},{"stopId":869947,"stopName":"12 de Octubre","stopTypeGroup":"bus","stopLat":-11.9906188,"stopLon":-77.092765,"routeNames":"1031 2209 2513 AN18 CR71 IM21 IO45"},{"stopId":829868,"stopName":"Dominicos","stopTypeGroup":"bus","stopLat":-11.9904981,"stopLon":-77.1070236,"routeNames":"2208 2404-(Lima-Callao) 2511-(Lima-Callao) 2701-(Lima-Callao) 4210-(Lima-Callao) 4905-(Lima-Callao) AN14 CR07 CR13 CR49 ICR05 ICR15 IM22 IM26 IM57 IO35b IO45 IO89 OM21 OM22 OM23"},{"stopId":869939,"stopName":"Puente Camote","stopTypeGroup":"bus","stopLat":-11.9904719,"stopLon":-77.0971584,"routeNames":"2702 AN17"},{"stopId":814962,"stopName":"Panamericana","stopTypeGroup":"bus","stopLat":-11.9904206,"stopLon":-77.0659563,"routeNames":"1031 2204 2205 2209 2409 2411 2414 2513 2603 2604 2611 4204 8212 9405-(Lima-Callao) AN18 CR28 CR71 IM21"},{"stopId":869949,"stopName":"Puente Camote","stopTypeGroup":"bus","stopLat":-11.9901472,"stopLon":-77.0973746,"routeNames":"1031 2209 2406 2513 2703 7204 8201 9405-(Lima-Callao) CR71 IM18 IM21 IO45"},{"stopId":955754,"stopName":"Puente Camote","stopTypeGroup":"bus","stopLat":-11.9901225,"stopLon":-77.0966212,"routeNames":"1031 2209 2406 2513 2702 2703 7204 8201 9405-(Lima-Callao) AN17 CR71 IM18 IM21 IO45"},{"stopId":815575,"stopName":"Izaguirre","stopTypeGroup":"bus","stopLat":-11.9898606,"stopLon":-77.0570219,"routeNames":"A B D EX5 EX6 EX8"},{"stopId":817686,"stopName":"Plaza Vea (Izaguirre)","stopTypeGroup":"bus","stopLat":-11.9897268,"stopLon":-77.0624506,"routeNames":"1501-(Lima-Callao) 1612 1702 1706 2205 2209 2408 2409 2411 2611 CR15 CR28 CR34 CR51 CR65 CR69 CR84 IO09 IO40 OM39"},{"stopId":1057149,"stopName":"Izaguirre","stopTypeGroup":"bus","stopLat":-11.9895944,"stopLon":-77.0596212,"routeNames":"1404 1602 2408 2510 CR42"},{"stopId":951007,"stopName":"Paradero 73","stopTypeGroup":"bus","stopLat":-11.9895443,"stopLon":-77.1021025,"routeNames":"1031 2209 2406 2513 7204 8201 9405-(Lima-Callao) CR71 IM18 IM21 IO45"},{"stopId":955755,"stopName":"Paradero 73","stopTypeGroup":"bus","stopLat":-11.9894912,"stopLon":-77.1016008,"routeNames":"1031 2209 2406 2513 7204 8201 9405-(Lima-Callao) CR71 IM18 IM21 IO45"},{"stopId":817747,"stopName":"Industrial","stopTypeGroup":"bus","stopLat":-11.9894906,"stopLon":-77.0598972,"routeNames":"1501-(Lima-Callao) 1602 1612 1702 1706 2205 2209 2408 2409 2411 2510 2611 CR15 CR28 CR34 CR51 CR65 CR69 CR84 IO09 IO40 OM39"},{"stopId":737525,"stopName":"Izaguirre","stopTypeGroup":"bus","stopLat":-11.9894382,"stopLon":-77.0646125,"routeNames":"1213 1217 1308 1411 1412 1505 1607 1608 1701 1801-(Lima-Callao) 1802 1804 2511-(Lima-Callao) 2805 4212 7101 8102 8105 8107 8108 8109 8110 8111 8112 8209 8211 9307-(Callao-Lima) 9401-(Lima-Callao) 9601-(Lima-Callao) 9602-(Lima-Callao) 9801"},{"stopId":817685,"stopName":"Industrial","stopTypeGroup":"bus","stopLat":-11.9892807,"stopLon":-77.0595431,"routeNames":"1404 1501-(Lima-Callao) 1612 1702 1706 2205 2209 2409 2411 2611 CR15 CR28 CR34 CR42 CR51 CR65 CR69 CR84 IO09 IO40 OM39"},{"stopId":737438,"stopName":"Acacias","stopTypeGroup":"bus","stopLat":-11.9892755,"stopLon":-77.0718867,"routeNames":"1502-(Lima-Callao) 1618 1901-(Lima-Callao) 2204 2409 2411 2603 2604 2611 2613 4204 7103 8104 8212 AN17 CR17 CR62 IM47 IO38b IPC06 OM25 OM47-(Callao-Lima)"},{"stopId":1077410,"stopName":"Terminal Pesquero","stopTypeGroup":"bus","stopLat":-11.9892144,"stopLon":-77.1253709,"routeNames":"9305-(Lima-Callao) CR16 CR19 CR24 CR28 CR32 CR35 CR41 CR56 CR57 CR58 CR61 CR66 ICR10 ICR15 IM06 IM12-(Lima-Callao) IM19 IM20 IM30 IM31 IO03 IO06 IO14-(Lima-Callao) IO28b IO32b IO37b-(Callao-Lima) IO55 IO71 IO75b OM10 OM23 OM34 OM42-(Callao-"},{"stopId":829875,"stopName":"Izaguirre","stopTypeGroup":"bus","stopLat":-11.9892125,"stopLon":-77.1054304,"routeNames":"2208 2404-(Lima-Callao) 2511-(Lima-Callao) 2701-(Lima-Callao) 4210-(Lima-Callao) 4905-(Lima-Callao) AN14 CR07 CR13 CR49 ICR05 ICR15 IM22 IM26 IM57 IO35b IO45 IO89 OM21 OM22 OM23"},{"stopId":736361,"stopName":"Telefónica","stopTypeGroup":"bus","stopLat":-11.9891181,"stopLon":-77.0720851,"routeNames":"1502-(Lima-Callao) 1618 1901-(Lima-Callao) 2204 2409 2411 2603 2604 2611 2613 4204 7103 8104 8212 AN17 CR17 CR62 IM47 IO38b IPC06 OM25 OM47-(Callao-Lima)"},{"stopId":1197116,"stopName":"San Lázaro","stopTypeGroup":"bus","stopLat":-11.9891135,"stopLon":-77.061163,"routeNames":"1602 2510"},{"stopId":817748,"stopName":"Túpac Amaru","stopTypeGroup":"bus","stopLat":-11.9890918,"stopLon":-77.0573223,"routeNames":"1404 1501-(Lima-Callao) 1612 1702 1706 2205 2209 2409 2411 2611 CR15 CR28 CR34 CR42 CR51 CR65 CR69 CR84 IO09 IO40 OM39"},{"stopId":823674,"stopName":"Izaguirre","stopTypeGroup":"bus","stopLat":-11.9890866,"stopLon":-77.0568019,"routeNames":"1103 1201 1206 1208 1403 1508 1610 2203 2205 2209 2407 2409 2411 2611 CR12 CR28 CR43 CR53 CR62 IM08 IM47 IO19 IO35b IO38b IO45 IPC06 NH26b NM09 SH112a"},{"stopId":955756,"stopName":"Canta Callao","stopTypeGroup":"bus","stopLat":-11.9890806,"stopLon":-77.1047121,"routeNames":"1031 2209 2406 2513 7204 8201 9405-(Lima-Callao) CR71 IM18 IM21 IO45"},{"stopId":951006,"stopName":"Canta Callao","stopTypeGroup":"bus","stopLat":-11.9889592,"stopLon":-77.1057622,"routeNames":"1031 2404-(Lima-Callao) 2406 2513 7204 9405-(Lima-Callao) CR07 CR71 IM21"},{"stopId":823576,"stopName":"Izaguirre","stopTypeGroup":"bus","stopLat":-11.9888137,"stopLon":-77.0571157,"routeNames":"1103 1201 1206 1208 1403 1404 1501-(Lima-Callao) 1508 1610 1612 1702 1706 2203 2407 CR12 CR15 CR34 CR42 CR43 CR51 CR53 CR62 CR65 CR69 CR84 IM08 IM47 IO09 IO19 IO35b IO38b IO40 IO45 IPC06 NH26b NM09 OM39 SH112a"},{"stopId":739154,"stopName":"Los Olivos","stopTypeGroup":"bus","stopLat":-11.9887822,"stopLon":-77.0808989,"routeNames":"018p 1103 1503 1504 1506 1513 1514 1518 1604 1611 1615 1703-(Lima-Callao) 1704 2205 2414 2804-(Lima-Callao) 8214 CR28 IO44b OM32 SH24a"},{"stopId":951005,"stopName":"Saco Oliveros","stopTypeGroup":"bus","stopLat":-11.98875,"stopLon":-77.1094481,"routeNames":"1031 2404-(Lima-Callao) 2406 2513 9405-(Lima-Callao) CR07 CR71 IM21"},{"stopId":2014286,"stopName":"Calle Alegría","stopTypeGroup":"bus","stopLat":-11.98874812790966,"stopLon":-77.11641132831575,"routeNames":"1174-(Lima-Callao)"},{"stopId":1077356,"stopName":"Terminal Pesquero","stopTypeGroup":"bus","stopLat":-11.988646,"stopLon":-77.1255841,"routeNames":"9305-(Lima-Callao) CR16 CR19 CR24 CR28 CR32 CR35 CR41 CR56 CR57 CR58 CR61 CR66 ICR10 ICR15 IM06 IM12-(Lima-Callao) IM19 IM20 IM30 IM31 IO03 IO06 IO14-(Lima-Callao) IO28b IO32b IO37b-(Callao-Lima) IO55 IO71 IO75b OM10 OM23 OM34 OM42-(Callao-"},{"stopId":829867,"stopName":"Izaguirre","stopTypeGroup":"bus","stopLat":-11.9885855,"stopLon":-77.1051997,"routeNames":"2208 2209 2511-(Lima-Callao) 2701-(Lima-Callao) 4210-(Lima-Callao) 4905-(Lima-Callao) 8201 AN14 CR13 CR49 ICR05 ICR15 IM18 IM22 IM26 IM57 IO35b IO89 OM21 OM22 OM23"},{"stopId":814960,"stopName":"Jade","stopTypeGroup":"bus","stopLat":-11.9885211,"stopLon":-77.0813307,"routeNames":"2804-(Lima-Callao) AN16 CR28"},{"stopId":739102,"stopName":"Los Olivos","stopTypeGroup":"bus","stopLat":-11.9884516,"stopLon":-77.0810062,"routeNames":"018p 1103 1503 1504 1506 1513 1514 1518 1604 1611 1615 1703-(Lima-Callao) 1704 2205 2414 8214 IO44b OM32 SH24a"},{"stopId":2000617,"stopName":"Saco Oliveros","stopTypeGroup":"bus","stopLat":-11.988425411906103,"stopLon":-77.1093785762787,"routeNames":"1031"},{"stopId":931394,"stopName":"Izaguirre","stopTypeGroup":"bus","stopLat":-11.9882351,"stopLon":-77.1143117,"routeNames":"1031 1174-(Lima-Callao) IM24 IM40 OM33"},{"stopId":1471583,"stopName":"Bertello","stopTypeGroup":"bus","stopLat":-11.9881079,"stopLon":-77.1142092,"routeNames":"2404-(Lima-Callao) 2406 2513 9405-(Lima-Callao) IM21"},{"stopId":1468584,"stopName":"Bertello","stopTypeGroup":"bus","stopLat":-11.9879558,"stopLon":-77.1146008,"routeNames":"1174-(Lima-Callao) 2404-(Lima-Callao) 2406 2513 OM33"},{"stopId":1337469,"stopName":"Mercado Sarita Colonia","stopTypeGroup":"bus","stopLat":-11.9879059,"stopLon":-77.1116209,"routeNames":"CR71"},{"stopId":2000618,"stopName":"Bertello","stopTypeGroup":"bus","stopLat":-11.987853442756405,"stopLon":-77.11408317089082,"routeNames":"1031"},{"stopId":814959,"stopName":"Calle 9","stopTypeGroup":"bus","stopLat":-11.9878494,"stopLon":-77.0838037,"routeNames":"2804-(Lima-Callao) AN16 CR28"},{"stopId":951004,"stopName":"Izaguirre","stopTypeGroup":"bus","stopLat":-11.9878387,"stopLon":-77.1126399,"routeNames":"CR71"},{"stopId":931403,"stopName":"Izaguirre","stopTypeGroup":"bus","stopLat":-11.9877605,"stopLon":-77.1146807,"routeNames":"9405-(Lima-Callao) CR07 IM21 IM24 IM40"},{"stopId":1049055,"stopName":"Túpac Amaru","stopTypeGroup":"bus","stopLat":-11.9876961,"stopLon":-77.0568249,"routeNames":"CR53 IM08"},{"stopId":1450536,"stopName":"Toronjas","stopTypeGroup":"bus","stopLat":-11.9875675,"stopLon":-77.0614019,"routeNames":"1602 2510"},{"stopId":814958,"stopName":"Kodak","stopTypeGroup":"bus","stopLat":-11.9871358,"stopLon":-77.0864484,"routeNames":"2804-(Lima-Callao) AN16 CR28"},{"stopId":737439,"stopName":"Los Amarantos","stopTypeGroup":"bus","stopLat":-11.9869299,"stopLon":-77.0722246,"routeNames":"1502-(Lima-Callao) 1618 1901-(Lima-Callao) 2204 2409 2411 2603 2604 2611 2613 4204 7103 8104 8212 AN17 CR17 CR62 IM47 IO38b IPC06 OM25 OM47-(Callao-Lima)"},{"stopId":736360,"stopName":"Los Amarantos","stopTypeGroup":"bus","stopLat":-11.9867515,"stopLon":-77.0724392,"routeNames":"1502-(Lima-Callao) 1618 1901-(Lima-Callao) 2204 2409 2411 2603 2604 2611 2613 4204 7103 8104 8212 AN17 CR17 CR62 IM47 IO38b IPC06 OM25 OM47-(Callao-Lima)"},{"stopId":1057150,"stopName":"Isaac Newton","stopTypeGroup":"bus","stopLat":-11.986646,"stopLon":-77.0615461,"routeNames":"1602 2510"},{"stopId":1019295,"stopName":"Calle 2","stopTypeGroup":"bus","stopLat":-11.986533,"stopLon":-77.1019974,"routeNames":"2208 2209 2511-(Lima-Callao) 2701-(Lima-Callao) 4210-(Lima-Callao) 8201 CR13 CR49 ICR05 ICR15 IM18 IM26 IM57 IO35b IO89 OM21 OM22 OM23"},{"stopId":814957,"stopName":"Avenida B","stopTypeGroup":"bus","stopLat":-11.9861965,"stopLon":-77.0900694,"routeNames":"2804-(Lima-Callao) AN16 CR28"},{"stopId":931395,"stopName":"Viñas del Mar","stopTypeGroup":"bus","stopLat":-11.9858655,"stopLon":-77.1158329,"routeNames":"9405-(Lima-Callao) CR07 IM21 IM24 IM40"},{"stopId":1336421,"stopName":"Sinchi Roca","stopTypeGroup":"bus","stopLat":-11.9858227,"stopLon":-77.0570621,"routeNames":"CR53 IM08"},{"stopId":1019307,"stopName":"Calle 2","stopTypeGroup":"bus","stopLat":-11.9858007,"stopLon":-77.102053,"routeNames":"2208 2209 2511-(Lima-Callao) 2701-(Lima-Callao) 4210-(Lima-Callao) 8201 CR13 CR49 ICR05 ICR15 IM18 IM26 IM57 IO35b IO89 OM21 OM22 OM23"},{"stopId":931402,"stopName":"Viñas del Mar","stopTypeGroup":"bus","stopLat":-11.9857252,"stopLon":-77.1160138,"routeNames":"9405-(Lima-Callao) CR07 IM21 IM24 IM40"},{"stopId":1309686,"stopName":"Lloque Yupanqui","stopTypeGroup":"bus","stopLat":-11.9856338,"stopLon":-77.0572579},{"stopId":814956,"stopName":"Santa Rosa","stopTypeGroup":"bus","stopLat":-11.9852152,"stopLon":-77.0938942,"routeNames":"2804-(Lima-Callao) AN16 CR28"},{"stopId":1057122,"stopName":"Tunas","stopTypeGroup":"bus","stopLat":-11.9851852,"stopLon":-77.0609113,"routeNames":"1602 2510"},{"stopId":955758,"stopName":"San Antonio","stopTypeGroup":"bus","stopLat":-11.9843048,"stopLon":-77.110922,"routeNames":"CR71"},{"stopId":869922,"stopName":"Galeano","stopTypeGroup":"bus","stopLat":-11.9842773,"stopLon":-77.0678553,"routeNames":"AN15 AN17 CR17"},{"stopId":1997231,"stopName":"San Antonio","stopTypeGroup":"bus","stopLat":-11.984190712490985,"stopLon":-77.11097985506058},{"stopId":1334117,"stopName":"Calle 2","stopTypeGroup":"bus","stopLat":-11.9841645,"stopLon":-77.0983601,"routeNames":"AN16"},{"stopId":869908,"stopName":"Galeano","stopTypeGroup":"bus","stopLat":-11.9841566,"stopLon":-77.0675603,"routeNames":"AN15 AN17 CR17"},{"stopId":951003,"stopName":"San Antonio","stopTypeGroup":"bus","stopLat":-11.9841287,"stopLon":-77.1114796,"routeNames":"CR71"},{"stopId":737442,"stopName":"Las Palmeras","stopTypeGroup":"bus","stopLat":-11.9840333,"stopLon":-77.0721066,"routeNames":"1502-(Lima-Callao) 1618 1901-(Lima-Callao) 2204 2409 2411 2603 2604 2611 2613 4204 7103 8104 8212 AN17 CR17 CR62 IM47 IO38b IPC06 OM25 OM47-(Callao-Lima)"},{"stopId":829876,"stopName":"Los Olivos","stopTypeGroup":"bus","stopLat":-11.9839572,"stopLon":-77.0991245,"routeNames":"2208 2209 2511-(Lima-Callao) 2701-(Lima-Callao) 4210-(Lima-Callao) 8201 AN14 CR13 CR49 ICR05 ICR15 IM18 IM26 IM57 IO35b IO89 OM21 OM22 OM23"},{"stopId":814994,"stopName":"Canta Callao","stopTypeGroup":"bus","stopLat":-11.9838666,"stopLon":-77.0988992,"routeNames":"2804-(Lima-Callao) CR28"},{"stopId":869921,"stopName":"Las Palmeras","stopTypeGroup":"bus","stopLat":-11.9838496,"stopLon":-77.0724821,"routeNames":"AN15"},{"stopId":1057151,"stopName":"Albaricoques","stopTypeGroup":"bus","stopLat":-11.9836964,"stopLon":-77.0611534,"routeNames":"1602 2510"},{"stopId":739155,"stopName":"Los Alisos","stopTypeGroup":"bus","stopLat":-11.983666,"stopLon":-77.0783481,"routeNames":"018p 1103 1503 1504 1506 1513 1514 1518 1604 1611 1615 1703-(Lima-Callao) 1704 2205 2414 8214 IO44b OM32 SH24a"},{"stopId":1301593,"stopName":"Canta Callao","stopTypeGroup":"bus","stopLat":-11.9836581,"stopLon":-77.0998701,"routeNames":"CR28"},{"stopId":869923,"stopName":"Maracuyá","stopTypeGroup":"bus","stopLat":-11.9835925,"stopLon":-77.0612758,"routeNames":"AN15 CR17"},{"stopId":869920,"stopName":"El Naranjal","stopTypeGroup":"bus","stopLat":-11.983582,"stopLon":-77.0754164,"routeNames":"AN15"},{"stopId":829866,"stopName":"Los Olivos","stopTypeGroup":"bus","stopLat":-11.9835663,"stopLon":-77.0995805,"routeNames":"2208 2209 2511-(Lima-Callao) 2701-(Lima-Callao) 2804-(Lima-Callao) 4210-(Lima-Callao) 8201 AN14 CR13 CR49 ICR05 ICR15 IM18 IM26 IM57 IO35b IO89 OM21 OM22 OM23"},{"stopId":869907,"stopName":"Maracuyá","stopTypeGroup":"bus","stopLat":-11.9834797,"stopLon":-77.0611149,"routeNames":"1602 2510 AN15 CR17"},{"stopId":736359,"stopName":"Los Alisos","stopTypeGroup":"bus","stopLat":-11.9834561,"stopLon":-77.0723587,"routeNames":"1502-(Lima-Callao) 1618 1901-(Lima-Callao) 2204 2409 2411 2603 2604 2611 2613 4204 7103 8104 8212 CR62 IM47 IO38b IPC06 OM25 OM47-(Callao-Lima)"},{"stopId":869909,"stopName":"El Naranjal","stopTypeGroup":"bus","stopLat":-11.9834429,"stopLon":-77.0752662,"routeNames":"AN15"},{"stopId":869919,"stopName":"Universitaria","stopTypeGroup":"bus","stopLat":-11.9832829,"stopLon":-77.0787531,"routeNames":"2205 2414 AN15"},{"stopId":1057152,"stopName":"Túpac Amaru","stopTypeGroup":"bus","stopLat":-11.9832652,"stopLon":-77.0589453,"routeNames":"1602 2510 CR17"},{"stopId":1032114,"stopName":"Alisos","stopTypeGroup":"bus","stopLat":-11.98325,"stopLon":-77.0581368,"routeNames":"1103 1201 1206 1208 1403 1404 1501-(Lima-Callao) 1508 1610 1612 1702 1706 2203 2407 CR12 CR15 CR34 CR42 CR43 CR51 CR53 CR62 CR65 CR69 CR84 IM08 IM47 IO09 IO19 IO35b IO38b IO40 IO45 IPC06 NH26b NM09 OM39 SH112a"},{"stopId":869910,"stopName":"Universitaria","stopTypeGroup":"bus","stopLat":-11.9831779,"stopLon":-77.0781147,"routeNames":"AN15"},{"stopId":1309679,"stopName":"República de Colombia","stopTypeGroup":"bus","stopLat":-11.9830992,"stopLon":-77.0557559,"routeNames":"CR53 IM08"},{"stopId":1309687,"stopName":"Alisos","stopTypeGroup":"bus","stopLat":-11.9830048,"stopLon":-77.0578802},{"stopId":815565,"stopName":"Estación Naranjal","stopTypeGroup":"bus","stopLat":-11.9829654,"stopLon":-77.058548,"routeNames":"AN15 AN16 AN17 AN18"},{"stopId":1057121,"stopName":"Alisos","stopTypeGroup":"bus","stopLat":-11.9829567,"stopLon":-77.058905,"routeNames":"1103 1201 1206 1208 1403 1404 1501-(Lima-Callao) 1508 1602 1610 1612 1702 1706 2203 2407 2510 CR12 CR15 CR17 CR34 CR42 CR43 CR51 CR62 CR65 CR69 CR84 IM47 IO09 IO19 IO35b IO38b IO40 IO45 IPC06 NH26b NM09 OM39 SH112a"}]