[{"stopId":761261,"stopName":"12 de Octubre","stopTypeGroup":"bus","stopLat":-11.9907026,"stopLon":-77.0931859,"routeNames":"1031 2203 2209 2513 2702 2703 8201 AN18 CR71 IM18 IM21 IO45"},{"stopId":869932,"stopName":"Santa Rosa","stopTypeGroup":"bus","stopLat":-11.9906818,"stopLon":-77.0960426,"routeNames":"2203 AN18"},{"stopId":814992,"stopName":"José Santos Chocano","stopTypeGroup":"bus","stopLat":-11.9906253,"stopLon":-77.0686921,"routeNames":"1031 2204 2205 2209 2409 2411 2414 2513 2603 2604 2611 4204 8212 9405-(Lima-Callao) AN18 CR28 CR71 IM21"},{"stopId":737721,"stopName":"Izaguirre","stopTypeGroup":"bus","stopLat":-11.9906241,"stopLon":-77.0637006,"routeNames":"1031 1213 1217 1308 1411 1412 1501-(Lima-Callao) 1505 1607 1608 1612 1701 1702 1706 1801-(Lima-Callao) 1802 1804 2204 2408 2414 2511-(Lima-Callao) 2513 2603 2604 2805 4204 4212 7101 8102 8105 8107 8108 8109 8110 8111 8112 8209 8211 8212 9307-(C"},{"stopId":869947,"stopName":"12 de Octubre","stopTypeGroup":"bus","stopLat":-11.9906188,"stopLon":-77.092765,"routeNames":"1031 2209 2513 AN18 CR71 IM21 IO45"},{"stopId":829868,"stopName":"Dominicos","stopTypeGroup":"bus","stopLat":-11.9904981,"stopLon":-77.1070236,"routeNames":"2208 2404-(Lima-Callao) 2511-(Lima-Callao) 2701-(Lima-Callao) 4210-(Lima-Callao) 4905-(Lima-Callao) AN14 CR07 CR13 CR49 ICR05 ICR15 IM22 IM26 IM57 IO35b IO45 IO89 OM21 OM22 OM23"},{"stopId":869939,"stopName":"Puente Camote","stopTypeGroup":"bus","stopLat":-11.9904719,"stopLon":-77.0971584,"routeNames":"2702 AN17"},{"stopId":814962,"stopName":"Panamericana","stopTypeGroup":"bus","stopLat":-11.9904206,"stopLon":-77.0659563,"routeNames":"1031 2204 2205 2209 2409 2411 2414 2513 2603 2604 2611 4204 8212 9405-(Lima-Callao) AN18 CR28 CR71 IM21"},{"stopId":869949,"stopName":"Puente Camote","stopTypeGroup":"bus","stopLat":-11.9901472,"stopLon":-77.0973746,"routeNames":"1031 2209 2406 2513 2703 7204 8201 9405-(Lima-Callao) CR71 IM18 IM21 IO45"},{"stopId":955754,"stopName":"Puente Camote","stopTypeGroup":"bus","stopLat":-11.9901225,"stopLon":-77.0966212,"routeNames":"1031 2209 2406 2513 2702 2703 7204 8201 9405-(Lima-Callao) AN17 CR71 IM18 IM21 IO45"},{"stopId":815575,"stopName":"Izaguirre","stopTypeGroup":"bus","stopLat":-11.9898606,"stopLon":-77.0570219,"routeNames":"A B D EX5 EX6 EX8"},{"stopId":817686,"stopName":"Plaza Vea (Izaguirre)","stopTypeGroup":"bus","stopLat":-11.9897268,"stopLon":-77.0624506,"routeNames":"1501-(Lima-Callao) 1612 1702 1706 2205 2209 2408 2409 2411 2611 CR15 CR28 CR34 CR51 CR65 CR69 CR84 IO09 IO40 OM39"},{"stopId":1057149,"stopName":"Izaguirre","stopTypeGroup":"bus","stopLat":-11.9895944,"stopLon":-77.0596212,"routeNames":"1404 1602 2408 2510 CR42"},{"stopId":951007,"stopName":"Paradero 73","stopTypeGroup":"bus","stopLat":-11.9895443,"stopLon":-77.1021025,"routeNames":"1031 2209 2406 2513 7204 8201 9405-(Lima-Callao) CR71 IM18 IM21 IO45"},{"stopId":955755,"stopName":"Paradero 73","stopTypeGroup":"bus","stopLat":-11.9894912,"stopLon":-77.1016008,"routeNames":"1031 2209 2406 2513 7204 8201 9405-(Lima-Callao) CR71 IM18 IM21 IO45"},{"stopId":817747,"stopName":"Industrial","stopTypeGroup":"bus","stopLat":-11.9894906,"stopLon":-77.0598972,"routeNames":"1501-(Lima-Callao) 1602 1612 1702 1706 2205 2209 2408 2409 2411 2510 2611 CR15 CR28 CR34 CR51 CR65 CR69 CR84 IO09 IO40 OM39"},{"stopId":737525,"stopName":"Izaguirre","stopTypeGroup":"bus","stopLat":-11.9894382,"stopLon":-77.0646125,"routeNames":"1213 1217 1308 1411 1412 1505 1607 1608 1701 1801-(Lima-Callao) 1802 1804 2511-(Lima-Callao) 2805 4212 7101 8102 8105 8107 8108 8109 8110 8111 8112 8209 8211 9307-(Callao-Lima) 9401-(Lima-Callao) 9601-(Lima-Callao) 9602-(Lima-Callao) 9801"},{"stopId":817685,"stopName":"Industrial","stopTypeGroup":"bus","stopLat":-11.9892807,"stopLon":-77.0595431,"routeNames":"1404 1501-(Lima-Callao) 1612 1702 1706 2205 2209 2409 2411 2611 CR15 CR28 CR34 CR42 CR51 CR65 CR69 CR84 IO09 IO40 OM39"},{"stopId":737438,"stopName":"Acacias","stopTypeGroup":"bus","stopLat":-11.9892755,"stopLon":-77.0718867,"routeNames":"1502-(Lima-Callao) 1618 1901-(Lima-Callao) 2204 2409 2411 2603 2604 2611 2613 4204 7103 8104 8212 AN17 CR17 CR62 IM47 IO38b IPC06 OM25 OM47-(Callao-Lima)"},{"stopId":1077410,"stopName":"Terminal Pesquero","stopTypeGroup":"bus","stopLat":-11.9892144,"stopLon":-77.1253709,"routeNames":"9305-(Lima-Callao) CR16 CR19 CR24 CR28 CR32 CR35 CR41 CR56 CR57 CR58 CR61 CR66 ICR10 ICR15 IM06 IM12-(Lima-Callao) IM19 IM20 IM30 IM31 IO03 IO06 IO14-(Lima-Callao) IO28b IO32b IO37b-(Callao-Lima) IO55 IO71 IO75b OM10 OM23 OM34 OM42-(Callao-"},{"stopId":829875,"stopName":"Izaguirre","stopTypeGroup":"bus","stopLat":-11.9892125,"stopLon":-77.1054304,"routeNames":"2208 2404-(Lima-Callao) 2511-(Lima-Callao) 2701-(Lima-Callao) 4210-(Lima-Callao) 4905-(Lima-Callao) AN14 CR07 CR13 CR49 ICR05 ICR15 IM22 IM26 IM57 IO35b IO45 IO89 OM21 OM22 OM23"},{"stopId":736361,"stopName":"Telefónica","stopTypeGroup":"bus","stopLat":-11.9891181,"stopLon":-77.0720851,"routeNames":"1502-(Lima-Callao) 1618 1901-(Lima-Callao) 2204 2409 2411 2603 2604 2611 2613 4204 7103 8104 8212 AN17 CR17 CR62 IM47 IO38b IPC06 OM25 OM47-(Callao-Lima)"},{"stopId":1197116,"stopName":"San Lázaro","stopTypeGroup":"bus","stopLat":-11.9891135,"stopLon":-77.061163,"routeNames":"1602 2510"},{"stopId":817748,"stopName":"Túpac Amaru","stopTypeGroup":"bus","stopLat":-11.9890918,"stopLon":-77.0573223,"routeNames":"1404 1501-(Lima-Callao) 1612 1702 1706 2205 2209 2409 2411 2611 CR15 CR28 CR34 CR42 CR51 CR65 CR69 CR84 IO09 IO40 OM39"},{"stopId":823674,"stopName":"Izaguirre","stopTypeGroup":"bus","stopLat":-11.9890866,"stopLon":-77.0568019,"routeNames":"1103 1201 1206 1208 1403 1508 1610 2203 2205 2209 2407 2409 2411 2611 CR12 CR28 CR43 CR53 CR62 IM08 IM47 IO19 IO35b IO38b IO45 IPC06 NH26b NM09 SH112a"},{"stopId":955756,"stopName":"Canta Callao","stopTypeGroup":"bus","stopLat":-11.9890806,"stopLon":-77.1047121,"routeNames":"1031 2209 2406 2513 7204 8201 9405-(Lima-Callao) CR71 IM18 IM21 IO45"},{"stopId":951006,"stopName":"Canta Callao","stopTypeGroup":"bus","stopLat":-11.9889592,"stopLon":-77.1057622,"routeNames":"1031 2404-(Lima-Callao) 2406 2513 7204 9405-(Lima-Callao) CR07 CR71 IM21"},{"stopId":823576,"stopName":"Izaguirre","stopTypeGroup":"bus","stopLat":-11.9888137,"stopLon":-77.0571157,"routeNames":"1103 1201 1206 1208 1403 1404 1501-(Lima-Callao) 1508 1610 1612 1702 1706 2203 2407 CR12 CR15 CR34 CR42 CR43 CR51 CR53 CR62 CR65 CR69 CR84 IM08 IM47 IO09 IO19 IO35b IO38b IO40 IO45 IPC06 NH26b NM09 OM39 SH112a"},{"stopId":739154,"stopName":"Los Olivos","stopTypeGroup":"bus","stopLat":-11.9887822,"stopLon":-77.0808989,"routeNames":"018p 1103 1503 1504 1506 1513 1514 1518 1604 1611 1615 1703-(Lima-Callao) 1704 2205 2414 2804-(Lima-Callao) 8214 CR28 IO44b OM32 SH24a"},{"stopId":951005,"stopName":"Saco Oliveros","stopTypeGroup":"bus","stopLat":-11.98875,"stopLon":-77.1094481,"routeNames":"1031 2404-(Lima-Callao) 2406 2513 9405-(Lima-Callao) CR07 CR71 IM21"},{"stopId":2014286,"stopName":"Calle Alegría","stopTypeGroup":"bus","stopLat":-11.98874812790966,"stopLon":-77.11641132831575,"routeNames":"1174-(Lima-Callao)"},{"stopId":1077356,"stopName":"Terminal Pesquero","stopTypeGroup":"bus","stopLat":-11.988646,"stopLon":-77.1255841,"routeNames":"9305-(Lima-Callao) CR16 CR19 CR24 CR28 CR32 CR35 CR41 CR56 CR57 CR58 CR61 CR66 ICR10 ICR15 IM06 IM12-(Lima-Callao) IM19 IM20 IM30 IM31 IO03 IO06 IO14-(Lima-Callao) IO28b IO32b IO37b-(Callao-Lima) IO55 IO71 IO75b OM10 OM23 OM34 OM42-(Callao-"},{"stopId":829867,"stopName":"Izaguirre","stopTypeGroup":"bus","stopLat":-11.9885855,"stopLon":-77.1051997,"routeNames":"2208 2209 2511-(Lima-Callao) 2701-(Lima-Callao) 4210-(Lima-Callao) 4905-(Lima-Callao) 8201 AN14 CR13 CR49 ICR05 ICR15 IM18 IM22 IM26 IM57 IO35b IO89 OM21 OM22 OM23"},{"stopId":814960,"stopName":"Jade","stopTypeGroup":"bus","stopLat":-11.9885211,"stopLon":-77.0813307,"routeNames":"2804-(Lima-Callao) AN16 CR28"},{"stopId":739102,"stopName":"Los Olivos","stopTypeGroup":"bus","stopLat":-11.9884516,"stopLon":-77.0810062,"routeNames":"018p 1103 1503 1504 1506 1513 1514 1518 1604 1611 1615 1703-(Lima-Callao) 1704 2205 2414 8214 IO44b OM32 SH24a"},{"stopId":2000617,"stopName":"Saco Oliveros","stopTypeGroup":"bus","stopLat":-11.988425411906103,"stopLon":-77.1093785762787,"routeNames":"1031"},{"stopId":931394,"stopName":"Izaguirre","stopTypeGroup":"bus","stopLat":-11.9882351,"stopLon":-77.1143117,"routeNames":"1031 1174-(Lima-Callao) IM24 IM40 OM33"},{"stopId":1471583,"stopName":"Bertello","stopTypeGroup":"bus","stopLat":-11.9881079,"stopLon":-77.1142092,"routeNames":"2404-(Lima-Callao) 2406 2513 9405-(Lima-Callao) IM21"},{"stopId":1468584,"stopName":"Bertello","stopTypeGroup":"bus","stopLat":-11.9879558,"stopLon":-77.1146008,"routeNames":"1174-(Lima-Callao) 2404-(Lima-Callao) 2406 2513 OM33"},{"stopId":1337469,"stopName":"Mercado Sarita Colonia","stopTypeGroup":"bus","stopLat":-11.9879059,"stopLon":-77.1116209,"routeNames":"CR71"},{"stopId":2000618,"stopName":"Bertello","stopTypeGroup":"bus","stopLat":-11.987853442756405,"stopLon":-77.11408317089082,"routeNames":"1031"},{"stopId":814959,"stopName":"Calle 9","stopTypeGroup":"bus","stopLat":-11.9878494,"stopLon":-77.0838037,"routeNames":"2804-(Lima-Callao) AN16 CR28"},{"stopId":951004,"stopName":"Izaguirre","stopTypeGroup":"bus","stopLat":-11.9878387,"stopLon":-77.1126399,"routeNames":"CR71"},{"stopId":931403,"stopName":"Izaguirre","stopTypeGroup":"bus","stopLat":-11.9877605,"stopLon":-77.1146807,"routeNames":"9405-(Lima-Callao) CR07 IM21 IM24 IM40"},{"stopId":1049055,"stopName":"Túpac Amaru","stopTypeGroup":"bus","stopLat":-11.9876961,"stopLon":-77.0568249,"routeNames":"CR53 IM08"},{"stopId":1450536,"stopName":"Toronjas","stopTypeGroup":"bus","stopLat":-11.9875675,"stopLon":-77.0614019,"routeNames":"1602 2510"},{"stopId":814958,"stopName":"Kodak","stopTypeGroup":"bus","stopLat":-11.9871358,"stopLon":-77.0864484,"routeNames":"2804-(Lima-Callao) AN16 CR28"},{"stopId":737439,"stopName":"Los Amarantos","stopTypeGroup":"bus","stopLat":-11.9869299,"stopLon":-77.0722246,"routeNames":"1502-(Lima-Callao) 1618 1901-(Lima-Callao) 2204 2409 2411 2603 2604 2611 2613 4204 7103 8104 8212 AN17 CR17 CR62 IM47 IO38b IPC06 OM25 OM47-(Callao-Lima)"},{"stopId":736360,"stopName":"Los Amarantos","stopTypeGroup":"bus","stopLat":-11.9867515,"stopLon":-77.0724392,"routeNames":"1502-(Lima-Callao) 1618 1901-(Lima-Callao) 2204 2409 2411 2603 2604 2611 2613 4204 7103 8104 8212 AN17 CR17 CR62 IM47 IO38b IPC06 OM25 OM47-(Callao-Lima)"},{"stopId":1057150,"stopName":"Isaac Newton","stopTypeGroup":"bus","stopLat":-11.986646,"stopLon":-77.0615461,"routeNames":"1602 2510"},{"stopId":1019295,"stopName":"Calle 2","stopTypeGroup":"bus","stopLat":-11.986533,"stopLon":-77.1019974,"routeNames":"2208 2209 2511-(Lima-Callao) 2701-(Lima-Callao) 4210-(Lima-Callao) 8201 CR13 CR49 ICR05 ICR15 IM18 IM26 IM57 IO35b IO89 OM21 OM22 OM23"},{"stopId":814957,"stopName":"Avenida B","stopTypeGroup":"bus","stopLat":-11.9861965,"stopLon":-77.0900694,"routeNames":"2804-(Lima-Callao) AN16 CR28"},{"stopId":931395,"stopName":"Viñas del Mar","stopTypeGroup":"bus","stopLat":-11.9858655,"stopLon":-77.1158329,"routeNames":"9405-(Lima-Callao) CR07 IM21 IM24 IM40"},{"stopId":1336421,"stopName":"Sinchi Roca","stopTypeGroup":"bus","stopLat":-11.9858227,"stopLon":-77.0570621,"routeNames":"CR53 IM08"},{"stopId":1019307,"stopName":"Calle 2","stopTypeGroup":"bus","stopLat":-11.9858007,"stopLon":-77.102053,"routeNames":"2208 2209 2511-(Lima-Callao) 2701-(Lima-Callao) 4210-(Lima-Callao) 8201 CR13 CR49 ICR05 ICR15 IM18 IM26 IM57 IO35b IO89 OM21 OM22 OM23"},{"stopId":931402,"stopName":"Viñas del Mar","stopTypeGroup":"bus","stopLat":-11.9857252,"stopLon":-77.1160138,"routeNames":"9405-(Lima-Callao) CR07 IM21 IM24 IM40"},{"stopId":1309686,"stopName":"Lloque Yupanqui","stopTypeGroup":"bus","stopLat":-11.9856338,"stopLon":-77.0572579},{"stopId":814956,"stopName":"Santa Rosa","stopTypeGroup":"bus","stopLat":-11.9852152,"stopLon":-77.0938942,"routeNames":"2804-(Lima-Callao) AN16 CR28"},{"stopId":1057122,"stopName":"Tunas","stopTypeGroup":"bus","stopLat":-11.9851852,"stopLon":-77.0609113,"routeNames":"1602 2510"},{"stopId":955758,"stopName":"San Antonio","stopTypeGroup":"bus","stopLat":-11.9843048,"stopLon":-77.110922,"routeNames":"CR71"},{"stopId":869922,"stopName":"Galeano","stopTypeGroup":"bus","stopLat":-11.9842773,"stopLon":-77.0678553,"routeNames":"AN15 AN17 CR17"},{"stopId":1997231,"stopName":"San Antonio","stopTypeGroup":"bus","stopLat":-11.984190712490985,"stopLon":-77.11097985506058},{"stopId":1334117,"stopName":"Calle 2","stopTypeGroup":"bus","stopLat":-11.9841645,"stopLon":-77.0983601,"routeNames":"AN16"},{"stopId":869908,"stopName":"Galeano","stopTypeGroup":"bus","stopLat":-11.9841566,"stopLon":-77.0675603,"routeNames":"AN15 AN17 CR17"},{"stopId":951003,"stopName":"San Antonio","stopTypeGroup":"bus","stopLat":-11.9841287,"stopLon":-77.1114796,"routeNames":"CR71"},{"stopId":737442,"stopName":"Las Palmeras","stopTypeGroup":"bus","stopLat":-11.9840333,"stopLon":-77.0721066,"routeNames":"1502-(Lima-Callao) 1618 1901-(Lima-Callao) 2204 2409 2411 2603 2604 2611 2613 4204 7103 8104 8212 AN17 CR17 CR62 IM47 IO38b IPC06 OM25 OM47-(Callao-Lima)"},{"stopId":829876,"stopName":"Los Olivos","stopTypeGroup":"bus","stopLat":-11.9839572,"stopLon":-77.0991245,"routeNames":"2208 2209 2511-(Lima-Callao) 2701-(Lima-Callao) 4210-(Lima-Callao) 8201 AN14 CR13 CR49 ICR05 ICR15 IM18 IM26 IM57 IO35b IO89 OM21 OM22 OM23"},{"stopId":814994,"stopName":"Canta Callao","stopTypeGroup":"bus","stopLat":-11.9838666,"stopLon":-77.0988992,"routeNames":"2804-(Lima-Callao) CR28"},{"stopId":869921,"stopName":"Las Palmeras","stopTypeGroup":"bus","stopLat":-11.9838496,"stopLon":-77.0724821,"routeNames":"AN15"},{"stopId":1057151,"stopName":"Albaricoques","stopTypeGroup":"bus","stopLat":-11.9836964,"stopLon":-77.0611534,"routeNames":"1602 2510"},{"stopId":739155,"stopName":"Los Alisos","stopTypeGroup":"bus","stopLat":-11.983666,"stopLon":-77.0783481,"routeNames":"018p 1103 1503 1504 1506 1513 1514 1518 1604 1611 1615 1703-(Lima-Callao) 1704 2205 2414 8214 IO44b OM32 SH24a"},{"stopId":1301593,"stopName":"Canta Callao","stopTypeGroup":"bus","stopLat":-11.9836581,"stopLon":-77.0998701,"routeNames":"CR28"},{"stopId":869923,"stopName":"Maracuyá","stopTypeGroup":"bus","stopLat":-11.9835925,"stopLon":-77.0612758,"routeNames":"AN15 CR17"},{"stopId":869920,"stopName":"El Naranjal","stopTypeGroup":"bus","stopLat":-11.983582,"stopLon":-77.0754164,"routeNames":"AN15"},{"stopId":829866,"stopName":"Los Olivos","stopTypeGroup":"bus","stopLat":-11.9835663,"stopLon":-77.0995805,"routeNames":"2208 2209 2511-(Lima-Callao) 2701-(Lima-Callao) 2804-(Lima-Callao) 4210-(Lima-Callao) 8201 AN14 CR13 CR49 ICR05 ICR15 IM18 IM26 IM57 IO35b IO89 OM21 OM22 OM23"},{"stopId":869907,"stopName":"Maracuyá","stopTypeGroup":"bus","stopLat":-11.9834797,"stopLon":-77.0611149,"routeNames":"1602 2510 AN15 CR17"},{"stopId":736359,"stopName":"Los Alisos","stopTypeGroup":"bus","stopLat":-11.9834561,"stopLon":-77.0723587,"routeNames":"1502-(Lima-Callao) 1618 1901-(Lima-Callao) 2204 2409 2411 2603 2604 2611 2613 4204 7103 8104 8212 CR62 IM47 IO38b IPC06 OM25 OM47-(Callao-Lima)"},{"stopId":869909,"stopName":"El Naranjal","stopTypeGroup":"bus","stopLat":-11.9834429,"stopLon":-77.0752662,"routeNames":"AN15"},{"stopId":869919,"stopName":"Universitaria","stopTypeGroup":"bus","stopLat":-11.9832829,"stopLon":-77.0787531,"routeNames":"2205 2414 AN15"},{"stopId":1057152,"stopName":"Túpac Amaru","stopTypeGroup":"bus","stopLat":-11.9832652,"stopLon":-77.0589453,"routeNames":"1602 2510 CR17"},{"stopId":1032114,"stopName":"Alisos","stopTypeGroup":"bus","stopLat":-11.98325,"stopLon":-77.0581368,"routeNames":"1103 1201 1206 1208 1403 1404 1501-(Lima-Callao) 1508 1610 1612 1702 1706 2203 2407 CR12 CR15 CR34 CR42 CR43 CR51 CR53 CR62 CR65 CR69 CR84 IM08 IM47 IO09 IO19 IO35b IO38b IO40 IO45 IPC06 NH26b NM09 OM39 SH112a"},{"stopId":869910,"stopName":"Universitaria","stopTypeGroup":"bus","stopLat":-11.9831779,"stopLon":-77.0781147,"routeNames":"AN15"},{"stopId":1309679,"stopName":"República de Colombia","stopTypeGroup":"bus","stopLat":-11.9830992,"stopLon":-77.0557559,"routeNames":"CR53 IM08"},{"stopId":1309687,"stopName":"Alisos","stopTypeGroup":"bus","stopLat":-11.9830048,"stopLon":-77.0578802},{"stopId":815565,"stopName":"Estación Naranjal","stopTypeGroup":"bus","stopLat":-11.9829654,"stopLon":-77.058548,"routeNames":"AN15 AN16 AN17 AN18"},{"stopId":1057121,"stopName":"Alisos","stopTypeGroup":"bus","stopLat":-11.9829567,"stopLon":-77.058905,"routeNames":"1103 1201 1206 1208 1403 1404 1501-(Lima-Callao) 1508 1602 1610 1612 1702 1706 2203 2407 2510 CR12 CR15 CR17 CR34 CR42 CR43 CR51 CR62 CR65 CR69 CR84 IM47 IO09 IO19 IO35b IO38b IO40 IO45 IPC06 NH26b NM09 OM39 SH112a"},{"stopId":739100,"stopName":"Los Alisos","stopTypeGroup":"bus","stopLat":-11.9828972,"stopLon":-77.0784688,"routeNames":"018p 1103 1503 1504 1506 1513 1514 1518 1604 1611 1615 1703-(Lima-Callao) 1704 8214 IO44b OM32 SH24a"},{"stopId":869918,"stopName":"Avenida A","stopTypeGroup":"bus","stopLat":-11.9828683,"stopLon":-77.0828408,"routeNames":"2205 2414 AN15"},{"stopId":1077411,"stopName":"Zeta Gas","stopTypeGroup":"bus","stopLat":-11.982844,"stopLon":-77.1251349,"routeNames":"9305-(Lima-Callao) CR16 CR19 CR24 CR28 CR32 CR35 CR41 CR56 CR57 CR58 CR61 CR66 ICR10 ICR15 IM06 IM12-(Lima-Callao) IM19 IM20 IM31 IO03 IO06 IO14-(Lima-Callao) IO28b IO32b IO37b-(Callao-Lima) IO55 IO71 IO75b OM10 OM23 OM34 OM42-(Callao-Lima)"},{"stopId":869911,"stopName":"Los Girasoles","stopTypeGroup":"bus","stopLat":-11.9827818,"stopLon":-77.0825028,"routeNames":"2205 2414 AN15"},{"stopId":829213,"stopName":"Cahuide","stopTypeGroup":"bus","stopLat":-11.9826611,"stopLon":-77.0532158,"routeNames":"AN01"},{"stopId":829247,"stopName":"Indoamérica","stopTypeGroup":"bus","stopLat":-11.9826453,"stopLon":-77.0535296,"routeNames":"AN01"},{"stopId":869917,"stopName":"Huandoy","stopTypeGroup":"bus","stopLat":-11.9826112,"stopLon":-77.0861238,"routeNames":"AN15"},{"stopId":2059826,"stopName":"Yahuar Huaca","stopTypeGroup":"bus","stopLat":-11.982553487472673,"stopLon":-77.05638885498048},{"stopId":869912,"stopName":"Huandoy","stopTypeGroup":"bus","stopLat":-11.9824748,"stopLon":-77.0855981,"routeNames":"2205 2414 AN15"},{"stopId":1301594,"stopName":"Las Poncianas","stopTypeGroup":"bus","stopLat":-11.9824538,"stopLon":-77.101391,"routeNames":"CR28"},{"stopId":1040525,"stopName":"Los Alisos","stopTypeGroup":"bus","stopLat":-11.9823477,"stopLon":-77.0858704,"routeNames":"2205 2414"},{"stopId":955759,"stopName":"Santa Rosa","stopTypeGroup":"bus","stopLat":-11.9823414,"stopLon":-77.1101493,"routeNames":"CR71"},{"stopId":931397,"stopName":"Alameda Central","stopTypeGroup":"bus","stopLat":-11.9822898,"stopLon":-77.1146943,"routeNames":"9405-(Lima-Callao) CR07 IM21 IM24 IM40"},{"stopId":869916,"stopName":"El Rosario","stopTypeGroup":"bus","stopLat":-11.9822491,"stopLon":-77.0906889,"routeNames":"AN15"},{"stopId":815576,"stopName":"Naranjal","stopTypeGroup":"bus","stopLat":-11.9821573,"stopLon":-77.0589182,"routeNames":"A B D EX10 EX2 EX3 EX5 L SX SXN"},{"stopId":869913,"stopName":"Las Malvas","stopTypeGroup":"bus","stopLat":-11.9821547,"stopLon":-77.0897985,"routeNames":"AN15"},{"stopId":793292,"stopName":"Estación Naranjal","stopTypeGroup":"bus","stopLat":-11.9821389,"stopLon":-77.0587438,"routeNames":"AN01 AN02 AN03 AN05 AN06 AN07 AN08 AN12 AN13 AN14"},{"stopId":1077354,"stopName":"Zeta Gas","stopTypeGroup":"bus","stopLat":-11.9821049,"stopLon":-77.1253374,"routeNames":"9305-(Lima-Callao) CR16 CR19 CR24 CR28 CR32 CR35 CR41 CR56 CR57 CR58 CR61 CR66 ICR10 ICR15 IM06 IM12-(Lima-Callao) IM19 IM20 IM31 IO03 IO06 IO14-(Lima-Callao) IO28b IO32b IO37b-(Callao-Lima) IO55 IO71 IO75b OM10 OM23 OM34 OM42-(Callao-Lima)"},{"stopId":815594,"stopName":"Naranjal","stopTypeGroup":"bus","stopLat":-11.982097,"stopLon":-77.0585829,"routeNames":"A B D EX11 EX2 EX3 EX5 L SX SXN"},{"stopId":1997230,"stopName":"Santa Rosa","stopTypeGroup":"bus","stopLat":-11.982091704261945,"stopLon":-77.11014837026597},{"stopId":931401,"stopName":"Alameda Central","stopTypeGroup":"bus","stopLat":-11.9820859,"stopLon":-77.1147672,"routeNames":"9405-(Lima-Callao) CR07 IM21 IM24 IM40"},{"stopId":829221,"stopName":"Quipaypampa","stopTypeGroup":"bus","stopLat":-11.9820445,"stopLon":-77.0472747,"routeNames":"AN01"},{"stopId":737443,"stopName":"Posta Cueto","stopTypeGroup":"bus","stopLat":-11.9819605,"stopLon":-77.0722246,"routeNames":"1502-(Lima-Callao) 1618 1901-(Lima-Callao) 2204 2409 2411 2603 2604 2611 2613 4204 7103 8104 8212 CR62 IM47 IO38b IPC06 OM25 OM47-(Callao-Lima)"},{"stopId":951001,"stopName":"Santa Rosa","stopTypeGroup":"bus","stopLat":-11.9819477,"stopLon":-77.1106323,"routeNames":"CR71"},{"stopId":869915,"stopName":"Avenida C","stopTypeGroup":"bus","stopLat":-11.9819238,"stopLon":-77.0940793,"routeNames":"AN15"},{"stopId":829877,"stopName":"Los Alisos","stopTypeGroup":"bus","stopLat":-11.9817978,"stopLon":-77.096732,"routeNames":"2208 2209 2511-(Lima-Callao) 2701-(Lima-Callao) 2804-(Lima-Callao) 4210-(Lima-Callao) 8201 AN14 CR13 CR49 ICR05 ICR15 IM18 IM26 IM57 IO35b IO89 OM21 OM22 OM23"},{"stopId":736358,"stopName":"Posta Cueto","stopTypeGroup":"bus","stopLat":-11.9817821,"stopLon":-77.0723748,"routeNames":"1502-(Lima-Callao) 1618 1901-(Lima-Callao) 2204 2409 2411 2603 2604 2611 2613 4204 7103 8104 8212 CR62 IM47 IO38b IPC06 OM25 OM47-(Callao-Lima)"},{"stopId":869914,"stopName":"Avenida C","stopTypeGroup":"bus","stopLat":-11.9817506,"stopLon":-77.0943099,"routeNames":"AN15"},{"stopId":829245,"stopName":"Muquiyauyos","stopTypeGroup":"bus","stopLat":-11.9816771,"stopLon":-77.0500267,"routeNames":"AN01"},{"stopId":1049046,"stopName":"Antisuyo","stopTypeGroup":"bus","stopLat":-11.9816726,"stopLon":-77.0455825,"routeNames":"2407 2510 IM08 IO19 NM09"},{"stopId":1049109,"stopName":"Coricancha","stopTypeGroup":"bus","stopLat":-11.9816282,"stopLon":-77.0458088,"routeNames":"2407 2510 IM08 IO19 NM09"},{"stopId":829244,"stopName":"Huatanay","stopTypeGroup":"bus","stopLat":-11.9815827,"stopLon":-77.0472854,"routeNames":"AN01"},{"stopId":1301595,"stopName":"Libertad","stopTypeGroup":"bus","stopLat":-11.9815774,"stopLon":-77.1015546,"routeNames":"CR28"},{"stopId":829222,"stopName":"Písac","stopTypeGroup":"bus","stopLat":-11.9815512,"stopLon":-77.0491751,"routeNames":"AN01"},{"stopId":1484318,"stopName":"Canta Callao","stopTypeGroup":"bus","stopLat":-11.981441,"stopLon":-77.0981294,"routeNames":"2804-(Lima-Callao)"},{"stopId":1484319,"stopName":"Huascarán","stopTypeGroup":"bus","stopLat":-11.9812626,"stopLon":-77.1000767,"routeNames":"2804-(Lima-Callao)"},{"stopId":829865,"stopName":"Los Alisos","stopTypeGroup":"bus","stopLat":-11.9812626,"stopLon":-77.0970109,"routeNames":"2208 2209 2511-(Lima-Callao) 2701-(Lima-Callao) 4210-(Lima-Callao) 8201 AN14 CR13 CR49 ICR05 ICR15 IM18 IM26 IM57 IO35b IO89 OM21 OM22 OM23"},{"stopId":1484320,"stopName":"Huascarán","stopTypeGroup":"bus","stopLat":-11.981113,"stopLon":-77.0997575,"routeNames":"2804-(Lima-Callao)"},{"stopId":829211,"stopName":"Paracas","stopTypeGroup":"bus","stopLat":-11.9810632,"stopLon":-77.0541975,"routeNames":"AN01"},{"stopId":814951,"stopName":"San José","stopTypeGroup":"bus","stopLat":-11.9809332,"stopLon":-77.1033195,"routeNames":"2804-(Lima-Callao) CR28"},{"stopId":1309416,"stopName":"Tupac Inca Yupanqui","stopTypeGroup":"bus","stopLat":-11.9809267,"stopLon":-77.0563513,"routeNames":"2407 CR53 IM08"},{"stopId":1325408,"stopName":"San José","stopTypeGroup":"bus","stopLat":-11.9807956,"stopLon":-77.1029681,"routeNames":"2804-(Lima-Callao) CR28"},{"stopId":814950,"stopName":"Horizonte Azul","stopTypeGroup":"bus","stopLat":-11.9807285,"stopLon":-77.1052989,"routeNames":"2804-(Lima-Callao) CR28"},{"stopId":829249,"stopName":"Tiahuanaco","stopTypeGroup":"bus","stopLat":-11.9807195,"stopLon":-77.0541921,"routeNames":"AN01"},{"stopId":1040540,"stopName":"Los Olivos","stopTypeGroup":"bus","stopLat":-11.9807017,"stopLon":-77.0849307,"routeNames":"2205 2414"},{"stopId":1325409,"stopName":"Horizonte Azul","stopTypeGroup":"bus","stopLat":-11.9806066,"stopLon":-77.1050951,"routeNames":"2804-(Lima-Callao) CR28"},{"stopId":1040524,"stopName":"Los Olivos","stopTypeGroup":"bus","stopLat":-11.9804658,"stopLon":-77.0850373,"routeNames":"2205 2414"},{"stopId":817749,"stopName":"Chinchaysuyo","stopTypeGroup":"bus","stopLat":-11.980276,"stopLon":-77.058886,"routeNames":"1103 1201 1206 1208 1403 1404 1501-(Lima-Callao) 1508 1602 1610 1612 1702 1706 2203 2407 2510 CR12 CR15 CR17 CR34 CR42 CR43 CR51 CR53 CR62 CR65 CR69 CR84 IM08 IM47 IO09 IO19 IO35b IO38b IO40 IO45 IPC06 NH26b NM09 OM39 SH112a"},{"stopId":1309688,"stopName":"Chinchaysuyo","stopTypeGroup":"bus","stopLat":-11.9802288,"stopLon":-77.0586902},{"stopId":737445,"stopName":"Pariahuanca","stopTypeGroup":"bus","stopLat":-11.9801658,"stopLon":-77.0722246,"routeNames":"1502-(Lima-Callao) 1618 1901-(Lima-Callao) 2204 2409 2411 2603 2604 2611 2613 4204 7103 8104 8212 CR62 IM47 IO38b IPC06 OM25 OM47-(Callao-Lima)"},{"stopId":829251,"stopName":"Túpac Amaru","stopTypeGroup":"bus","stopLat":-11.9800084,"stopLon":-77.0588082,"routeNames":"2510 AN01 AN05 CR42 IO19 NM09"},{"stopId":829878,"stopName":"Jardines de Naranjal","stopTypeGroup":"bus","stopLat":-11.9800032,"stopLon":-77.0947337,"routeNames":"2208 2209 2511-(Lima-Callao) 2701-(Lima-Callao) 4210-(Lima-Callao) 8201 AN14 CR13 CR49 ICR05 ICR15 IM18 IM26 IM57 IO35b IO89 OM21 OM22 OM23"},{"stopId":736357,"stopName":"Pariahuanca","stopTypeGroup":"bus","stopLat":-11.979935,"stopLon":-77.0724231,"routeNames":"1502-(Lima-Callao) 1618 1901-(Lima-Callao) 2204 2409 2411 2603 2604 2611 2613 4204 7103 8104 8212 CR62 IM47 IO38b IPC06 OM25 OM47-(Callao-Lima)"},{"stopId":1057120,"stopName":"Chinchaysuyo","stopTypeGroup":"bus","stopLat":-11.9799173,"stopLon":-77.0595487,"routeNames":"1103 1201 1206 1208 1403 1404 1501-(Lima-Callao) 1508 1602 1612 1702 1706 2203 2407 2510 CR12 CR15 CR17 CR34 CR42 CR43 CR51 CR62 CR65 CR69 CR84 IM47 IO09 IO19 IO35b IO38b IO40 IO45 IPC06 NH26b NM09 OM39 SH112a"},{"stopId":2015389,"stopName":"Manuel Mujica Gallo","stopTypeGroup":"bus","stopLat":-11.979819509459151,"stopLon":-77.12122321128847},{"stopId":1337470,"stopName":"Los Alisos","stopTypeGroup":"bus","stopLat":-11.9796149,"stopLon":-77.1086222,"routeNames":"CR71"},{"stopId":2016312,"stopName":"DELCOM Perú","stopTypeGroup":"bus","stopLat":-11.979612229766767,"stopLon":-77.12149411439897},{"stopId":1049047,"stopName":"Ollantaytambo","stopTypeGroup":"bus","stopLat":-11.9796051,"stopLon":-77.0462853,"routeNames":"2407 2510 IM08 IO19 NM09"},{"stopId":931400,"stopName":"Sicilia","stopTypeGroup":"bus","stopLat":-11.9795279,"stopLon":-77.114932,"routeNames":"9405-(Lima-Callao) CR07 IM21 IM24 IM40"},{"stopId":931399,"stopName":"Sicilia","stopTypeGroup":"bus","stopLat":-11.9795212,"stopLon":-77.1148147,"routeNames":"9405-(Lima-Callao) CR07 IM21 IM24 IM40"},{"stopId":1049108,"stopName":"Ollantaytambo","stopTypeGroup":"bus","stopLat":-11.979482,"stopLon":-77.0464311,"routeNames":"2407 2510 IM08 IO19 NM09"},{"stopId":1160774,"stopName":"Pacasmayo","stopTypeGroup":"bus","stopLat":-11.9794484,"stopLon":-77.1087597,"routeNames":"2604 2804-(Lima-Callao) CR28"},{"stopId":829863,"stopName":"Jardines de Naranjal","stopTypeGroup":"bus","stopLat":-11.9793472,"stopLon":-77.0948946,"routeNames":"2208 2209 2511-(Lima-Callao) 2701-(Lima-Callao) 4210-(Lima-Callao) 8201 AN14 CR13 CR49 ICR05 ICR15 IM18 IM26 IM57 IO35b IO89 OM21 OM22 OM23"},{"stopId":951000,"stopName":"Los Alisos","stopTypeGroup":"bus","stopLat":-11.979215219733408,"stopLon":-77.10856312883605,"routeNames":"2604 2804-(Lima-Callao) CR28 CR71"},{"stopId":1040541,"stopName":"Pampas","stopTypeGroup":"bus","stopLat":-11.9788912,"stopLon":-77.0841207,"routeNames":"2205 2414"},{"stopId":737446,"stopName":"Naranjal","stopTypeGroup":"bus","stopLat":-11.9787595,"stopLon":-77.0722353,"routeNames":"1502-(Lima-Callao) 1618 1901-(Lima-Callao) 2204 2409 2411 2603 2604 2611 2613 4204 7103 8104 8212 CR62 IM47 IO38b IPC06 OM25 OM47-(Callao-Lima)"},{"stopId":1040523,"stopName":"Cipreses","stopTypeGroup":"bus","stopLat":-11.9786833,"stopLon":-77.0842166,"routeNames":"2205 2414"},{"stopId":829402,"stopName":"Calle 1","stopTypeGroup":"bus","stopLat":-11.9786755,"stopLon":-77.0540768,"routeNames":"2407 2510 AN05 CR42 CR53 IM08 IO19 NM09"},{"stopId":829386,"stopName":"Calle 3","stopTypeGroup":"bus","stopLat":-11.9786414,"stopLon":-77.0535564,"routeNames":"2407 2510 AN05 CR42 CR53 IM08 IO19 NM09"},{"stopId":829885,"stopName":"Las Palmeras","stopTypeGroup":"bus","stopLat":-11.9785758,"stopLon":-77.0725143,"routeNames":"2204 2208 2409 2411 2603 2604 2611 2805 4212 8212 AN02 AN14 ICR05"},{"stopId":739158,"stopName":"Naranjal","stopTypeGroup":"bus","stopLat":-11.9784236,"stopLon":-77.0768863,"routeNames":"018p 1103 1503 1504 1506 1513 1514 1518 1604 1611 1615 1703-(Lima-Callao) 1704 8214 IO44b OM32 SH24a"},{"stopId":829856,"stopName":"Las Palmeras","stopTypeGroup":"bus","stopLat":-11.9784053,"stopLon":-77.0721361,"routeNames":"1618 2208 2805 4212 AN02 AN14 CR62 ICR05 IM47 IO38b IPC06"},{"stopId":736356,"stopName":"Naranjal","stopTypeGroup":"bus","stopLat":-11.9783187,"stopLon":-77.0724177,"routeNames":"1502-(Lima-Callao) 1901-(Lima-Callao) 2613 4204 7103 8104 OM25 OM47-(Callao-Lima)"},{"stopId":1019296,"stopName":"Rivero y Ustariz","stopTypeGroup":"bus","stopLat":-11.9781865,"stopLon":-77.0927035,"routeNames":"2208 2209 2511-(Lima-Callao) 2701-(Lima-Callao) 4210-(Lima-Callao) 8201 CR13 CR49 ICR05 ICR15 IM18 IM26 IM57 IO35b IO89 OM21 OM22 OM23"},{"stopId":1926510,"stopName":"Terminal El 10","stopTypeGroup":"bus","stopLat":-11.978109578477119,"stopLon":-77.1074068844155,"routeNames":"OM32"},{"stopId":829886,"stopName":"Marcará","stopTypeGroup":"bus","stopLat":-11.9780721,"stopLon":-77.0691159,"routeNames":"1618 2208 2805 4212 AN02 AN14 CR62 ICR05 IM47 IO38b IPC06"},{"stopId":829857,"stopName":"Universitaria","stopTypeGroup":"bus","stopLat":-11.9780563,"stopLon":-77.0766234,"routeNames":"2204 2208 2409 2411 2603 2604 2611 2805 4212 8212 AN02 AN14 ICR05"},{"stopId":2015388,"stopName":"Calle 8","stopTypeGroup":"bus","stopLat":-11.978045819858435,"stopLon":-77.12136268615724},{"stopId":1077412,"stopName":"Carrillo","stopTypeGroup":"bus","stopLat":-11.9780148,"stopLon":-77.1249815,"routeNames":"9305-(Lima-Callao) CR16 CR19 CR24 CR28 CR32 CR35 CR41 CR56 CR57 CR58 CR61 CR66 ICR15 IM06 IM12-(Lima-Callao) IM19 IM20 IM31 IO03 IO06 IO14-(Lima-Callao) IO28b IO32b IO37b-(Callao-Lima) IO55 IO71 IO75b OM10 OM23 OM34 OM42-(Callao-Lima) OM75-"},{"stopId":1160789,"stopName":"200 Millas","stopTypeGroup":"bus","stopLat":-11.9779817,"stopLon":-77.1112379,"routeNames":"2604 2804-(Lima-Callao) CR28"},{"stopId":1160773,"stopName":"200 Millas","stopTypeGroup":"bus","stopLat":-11.9779712,"stopLon":-77.1115009,"routeNames":"2604 2804-(Lima-Callao) CR28"},{"stopId":829855,"stopName":"Marcará","stopTypeGroup":"bus","stopLat":-11.9779409,"stopLon":-77.0689791,"routeNames":"1618 2208 2805 4212 AN02 AN14 CR62 ICR05 IM47 IO38b IPC06"},{"stopId":1309647,"stopName":"Calle 9","stopTypeGroup":"bus","stopLat":-11.9778936,"stopLon":-77.1156871,"routeNames":"CR07 IM21 IM24 IM40"},{"stopId":1309646,"stopName":"Calle 9","stopTypeGroup":"bus","stopLat":-11.9778254,"stopLon":-77.1156228,"routeNames":"CR07 IM21 IM24 IM40"},{"stopId":829884,"stopName":"Universitaria","stopTypeGroup":"bus","stopLat":-11.9778228,"stopLon":-77.0782033,"routeNames":"2204 2208 2409 2411 2603 2604 2611 2805 4212 8212 8214 AN02 AN14 ICR05"},{"stopId":1160788,"stopName":"Terminal El 10","stopTypeGroup":"bus","stopLat":-11.9777939,"stopLon":-77.1072765,"routeNames":"2604 CR71 OM32"},{"stopId":829387,"stopName":"Río Sapi","stopTypeGroup":"bus","stopLat":-11.9777152,"stopLon":-77.0502466,"routeNames":"2407 2510 AN05 CR42 CR53 IM08 IO19 NM09"},{"stopId":1077353,"stopName":"Carrillo","stopTypeGroup":"bus","stopLat":-11.9777099,"stopLon":-77.1251389,"routeNames":"9305-(Lima-Callao) CR16 CR19 CR24 CR28 CR32 CR35 CR41 CR56 CR57 CR58 CR61 CR66 ICR15 IM06 IM12-(Lima-Callao) IM19 IM20 IM31 IO03 IO06 IO14-(Lima-Callao) IO28b IO32b IO37b-(Callao-Lima) IO55 IO71 IO75b OM10 OM23 OM34 OM42-(Callao-Lima) OM75-"},{"stopId":829401,"stopName":"Huamachuco","stopTypeGroup":"bus","stopLat":-11.9776155,"stopLon":-77.0502949,"routeNames":"2407 2510 AN05 CR42 CR53 IM08 IO19 NM09"},{"stopId":1019306,"stopName":"Rivero y Ustariz","stopTypeGroup":"bus","stopLat":-11.9775529,"stopLon":-77.0928579,"routeNames":"2208 2209 2511-(Lima-Callao) 2701-(Lima-Callao) 4210-(Lima-Callao) 8201 CR13 CR49 ICR05 ICR15 IM18 IM26 IM57 IO35b IO89 OM21 OM22 OM23"},{"stopId":739099,"stopName":"Naranjal","stopTypeGroup":"bus","stopLat":-11.9775211,"stopLon":-77.0775944,"routeNames":"018p 1103 1503 1504 1506 1513 1514 1518 1604 1611 1615 1703-(Lima-Callao) 1704 IO44b OM32 SH24a"},{"stopId":793456,"stopName":"Hospital de Los Olivos","stopTypeGroup":"bus","stopLat":-11.9773112,"stopLon":-77.0641565,"routeNames":"1618 2208 7101 8112 AN03 AN13 AN14 CR62 ICR05 IM47 IO38b IPC06"},{"stopId":793423,"stopName":"Hospital de Los Olivos","stopTypeGroup":"bus","stopLat":-11.9771852,"stopLon":-77.0641404,"routeNames":"1618 2208 7101 8112 AN03 AN13 AN14 CR62 ICR05 IM47 IO38b IPC06"},{"stopId":829388,"stopName":"Antisuyo","stopTypeGroup":"bus","stopLat":-11.9770628,"stopLon":-77.0479192,"routeNames":"2407 2510 AN05 CR42 CR53 IM08 IO19 NM09"},{"stopId":1049049,"stopName":"Chinchaysuyo","stopTypeGroup":"bus","stopLat":-11.9769951,"stopLon":-77.0473281,"routeNames":"2407 2510 IM08 IO19 NM09"},{"stopId":1040542,"stopName":"Naranjal","stopTypeGroup":"bus","stopLat":-11.9768905,"stopLon":-77.0832287,"routeNames":"2205 2414"},{"stopId":829400,"stopName":"Calle 17","stopTypeGroup":"bus","stopLat":-11.9767811,"stopLon":-77.0472962,"routeNames":"AN05 CR42 CR53"},{"stopId":793462,"stopName":"Unger","stopTypeGroup":"bus","stopLat":-11.9767759,"stopLon":-77.0606965,"routeNames":"1618 2208 7101 8112 AN03 AN14 CR62 ICR05 IM47 IO38b IPC06"},{"stopId":1926511,"stopName":"Residencial Pacasmayo","stopTypeGroup":"bus","stopLat":-11.97672577798559,"stopLon":-77.1061204969965,"routeNames":"OM32"},{"stopId":793458,"stopName":"Unger","stopTypeGroup":"bus","stopLat":-11.9766762,"stopLon":-77.0607045,"routeNames":"1618 2208 7101 8112 AN03 AN14 CR62 ICR05 IM47 IO38b IPC06"},{"stopId":829883,"stopName":"Huandoy","stopTypeGroup":"bus","stopLat":-11.9766106,"stopLon":-77.083443,"routeNames":"2204 2208 2603 2604 2611 2701-(Lima-Callao) 2805 4210-(Lima-Callao) 4212 8214 AN02 AN14 CR13 CR49 ICR05 ICR15 IM26 IM57 OM21"},{"stopId":829858,"stopName":"Huandoy","stopTypeGroup":"bus","stopLat":-11.9766053,"stopLon":-77.0829722,"routeNames":"2204 2208 2409 2411 2603 2604 2611 2805 4212 8212 8214 AN02 AN14 ICR05"},{"stopId":1595523,"stopName":"Residencial Pacasmayo","stopTypeGroup":"bus","stopLat":-11.9765712,"stopLon":-77.1061331,"routeNames":"2604 OM32"},{"stopId":817750,"stopName":"La Cincuenta","stopTypeGroup":"bus","stopLat":-11.9764663,"stopLon":-77.05935,"routeNames":"1103 1201 1206 1208 1403 1404 1501-(Lima-Callao) 1508 1602 1610 1612 1618 1702 1706 2203 2208 7101 8112 AN06 AN08 CR12 CR15 CR17 CR34 CR43 CR51 CR62 CR65 CR69 CR84 ICR05 IM47 IO09 IO35b IO38b IO40 IO45 IPC06 NH26b OM39 SH112a"},{"stopId":1319670,"stopName":"Mercado Nuevo Norte","stopTypeGroup":"bus","stopLat":-11.9764164,"stopLon":-77.1145874,"routeNames":"2804-(Lima-Callao) CR28"},{"stopId":1309649,"stopName":"Mercado Nuevo Norte","stopTypeGroup":"bus","stopLat":-11.9763981,"stopLon":-77.1143728,"routeNames":"2804-(Lima-Callao) CR28"},{"stopId":817683,"stopName":"La Cincuenta","stopTypeGroup":"bus","stopLat":-11.9763456,"stopLon":-77.0594949,"routeNames":"1103 1201 1206 1208 1403 1404 1501-(Lima-Callao) 1508 1602 1610 1612 1618 1702 1706 2203 2208 7101 8112 AN06 AN08 CR12 CR15 CR17 CR34 CR43 CR51 CR62 CR65 CR69 CR84 ICR05 IM47 IO09 IO35b IO38b IO40 IO45 IPC06 NH26b OM39 SH112a"},{"stopId":1040522,"stopName":"Naranjal","stopTypeGroup":"bus","stopLat":-11.9763198,"stopLon":-77.0831625,"routeNames":"2205 2409 2411 2414 2701-(Lima-Callao) 4210-(Lima-Callao) 8212 CR13 CR49 ICR15 IM26 IM57 OM21"},{"stopId":829879,"stopName":"Santo Domingo","stopTypeGroup":"bus","stopLat":-11.9758431,"stopLon":-77.0899835,"routeNames":"2208 2209 2511-(Lima-Callao) 2701-(Lima-Callao) 4210-(Lima-Callao) 8201 AN14 CR13 CR49 ICR05 ICR15 IM18 IM26 IM57 IO35b IO89 OM21 OM22 OM23"},{"stopId":1335056,"stopName":"Manuel Mujica Gallo","stopTypeGroup":"bus","stopLat":-11.975771,"stopLon":-77.1167895,"routeNames":"CR07 IM21 IM24 IM40"},{"stopId":1335055,"stopName":"Manuel Mujica Gallo","stopTypeGroup":"bus","stopLat":-11.9757211,"stopLon":-77.11698,"routeNames":"CR07 IM21 IM24 IM40"},{"stopId":829864,"stopName":"Portales del Naranjal","stopTypeGroup":"bus","stopLat":-11.9752777,"stopLon":-77.0862982,"routeNames":"2204 2208 2603 2604 2611 2701-(Lima-Callao) 2805 4210-(Lima-Callao) 4212 AN02 AN14 CR13 CR49 ICR05 ICR15 IM26 IM57 OM21"},{"stopId":829862,"stopName":"Santo Domingo","stopTypeGroup":"bus","stopLat":-11.9752383,"stopLon":-77.0901686,"routeNames":"2208 2209 2511-(Lima-Callao) 2701-(Lima-Callao) 4210-(Lima-Callao) 8201 AN14 CR13 CR49 ICR05 ICR15 IM18 IM26 IM57 IO35b IO89 OM21 OM22 OM23"},{"stopId":829881,"stopName":"Portales del Naranjal","stopTypeGroup":"bus","stopLat":-11.975118,"stopLon":-77.086645,"routeNames":"2204 2208 2603 2604 2611 2701-(Lima-Callao) 2805 4210-(Lima-Callao) 4212 8214 AN02 AN14 CR13 CR49 ICR05 ICR15 IM26 IM57 OM21"},{"stopId":1926512,"stopName":"Mercado Pacasmayo","stopTypeGroup":"bus","stopLat":-11.975097690979787,"stopLon":-77.10463777184486,"routeNames":"OM32"},{"stopId":1335735,"stopName":"Mercado","stopTypeGroup":"bus","stopLat":-11.974955,"stopLon":-77.1163094,"routeNames":"CR28"},{"stopId":1040549,"stopName":"Colcas Huallanca","stopTypeGroup":"bus","stopLat":-11.9749092,"stopLon":-77.0823671,"routeNames":"2205 2409 2411 2414 2701-(Lima-Callao) 4210-(Lima-Callao) 8212 8214 CR13 CR49 ICR15 IM26 IM57 OM21"},{"stopId":1926927,"stopName":"Mercado Pacasmayo","stopTypeGroup":"bus","stopLat":-11.974906552513328,"stopLon":-77.10460304559548,"routeNames":"OM32"},{"stopId":1258891,"stopName":"Mercado","stopTypeGroup":"bus","stopLat":-11.9748935,"stopLon":-77.1160862,"routeNames":"CR28"},{"stopId":736355,"stopName":"Río Urubamba","stopTypeGroup":"bus","stopLat":-11.9747818,"stopLon":-77.0725089,"routeNames":"1502-(Lima-Callao) 1901-(Lima-Callao) 2613 4204 7103 8104 OM25 OM47-(Callao-Lima)"},{"stopId":737449,"stopName":"Río Urubamba","stopTypeGroup":"bus","stopLat":-11.9746506,"stopLon":-77.072348,"routeNames":"1502-(Lima-Callao) 1901-(Lima-Callao) 2613 4204 7103 8104 OM25 OM47-(Callao-Lima)"},{"stopId":1041091,"stopName":"Colcas Huallanca","stopTypeGroup":"bus","stopLat":-11.9746115,"stopLon":-77.0824223,"routeNames":"2205 2409 2411 2414 2701-(Lima-Callao) 4210-(Lima-Callao) 8212 CR13 CR49 ICR15 IM26 IM57 OM21"},{"stopId":1019297,"stopName":"Óvalo Canta Callao","stopTypeGroup":"bus","stopLat":-11.9743542,"stopLon":-77.0882277,"routeNames":"2208 2209 2511-(Lima-Callao) 2701-(Lima-Callao) 4210-(Lima-Callao) 8201 CR13 CR49 ICR05 ICR15 IM18 IM26 IM57 IO35b IO89 OM21 OM22 OM23"},{"stopId":829399,"stopName":"Calle Marco","stopTypeGroup":"bus","stopLat":-11.9743305,"stopLon":-77.0474839,"routeNames":"AN05 CR42 CR53"},{"stopId":1319667,"stopName":"San Pío X","stopTypeGroup":"bus","stopLat":-11.974215,"stopLon":-77.1204937,"routeNames":"CR28"},{"stopId":1046709,"stopName":"Óvalo Canta Callao","stopTypeGroup":"bus","stopLat":-11.9742004,"stopLon":-77.087324,"routeNames":"2204 2208 2603 2604 2611 2701-(Lima-Callao) 2805 4210-(Lima-Callao) 4212 CR13 CR49 ICR05 ICR15 IM26 IM57 OM21"},{"stopId":1335054,"stopName":"Bertello","stopTypeGroup":"bus","stopLat":-11.9740392,"stopLon":-77.1180609,"routeNames":"CR07 IM40"},{"stopId":829389,"stopName":"José Gabriel Condorcanqui","stopTypeGroup":"bus","stopLat":-11.9740314,"stopLon":-77.0474517,"routeNames":"AN05 CR42 CR53"},{"stopId":1046721,"stopName":"Óvalo Canta Callao","stopTypeGroup":"bus","stopLat":-11.9737863,"stopLon":-77.0885268,"routeNames":"2204 2604 2611 OM23"},{"stopId":1319669,"stopName":"Los Alisos","stopTypeGroup":"bus","stopLat":-11.9737847,"stopLon":-77.1177739,"routeNames":"CR28 IM21"},{"stopId":1319665,"stopName":"San Nicolás","stopTypeGroup":"bus","stopLat":-11.9736562,"stopLon":-77.1175539,"routeNames":"CR28"},{"stopId":1717890,"stopName":"San Nicolás","stopTypeGroup":"bus","stopLat":-11.9735584,"stopLon":-77.1178423,"routeNames":"IM21"},{"stopId":1019305,"stopName":"Óvalo Canta Callao","stopTypeGroup":"bus","stopLat":-11.9733751,"stopLon":-77.0884357,"routeNames":"2603 4212"},{"stopId":1094349,"stopName":"Óvalo Canta Callao","stopTypeGroup":"bus","stopLat":-11.9731877,"stopLon":-77.0873805,"routeNames":"2204 2208 2209 2411 2511-(Lima-Callao) 2805 8201 8214 IM18 IO35b IO89 OM22"},{"stopId":1077413,"stopName":"Puente Oquendo","stopTypeGroup":"bus","stopLat":-11.9727022,"stopLon":-77.1249996,"routeNames":"9305-(Lima-Callao) CR16 CR19 CR24 CR28 CR32 CR35 CR41 CR56 CR57 CR58 CR61 CR66 ICR15 IM06 IM12-(Lima-Callao) IM19 IM20 IM31 IO03 IO06 IO14-(Lima-Callao) IO28b IO32b IO37b-(Callao-Lima) IO55 IO71 IO75b OM10 OM23 OM34 OM42-(Callao-Lima) OM75-"},{"stopId":1319664,"stopName":"San Miguel","stopTypeGroup":"bus","stopLat":-11.9725358,"stopLon":-77.1159554,"routeNames":"CR28"},{"stopId":1447664,"stopName":"El Olivar","stopTypeGroup":"bus","stopLat":-11.9724439,"stopLon":-77.102327,"routeNames":"2204 2604 2611 OM23 OM32"},{"stopId":737450,"stopName":"Marañón","stopTypeGroup":"bus","stopLat":-11.9723888,"stopLon":-77.0724446,"routeNames":"1502-(Lima-Callao) 1901-(Lima-Callao) 2613 4204 7103 8104 OM25 OM47-(Callao-Lima)"},{"stopId":739165,"stopName":"Marañón","stopTypeGroup":"bus","stopLat":-11.9723259,"stopLon":-77.0757759,"routeNames":"018p 1103 1503 1504 1506 1513 1514 1518 1604 1611 1615 1703-(Lima-Callao) 1704 IO44b OM32 SH24a"},{"stopId":1077351,"stopName":"Puente Oquendo","stopTypeGroup":"bus","stopLat":-11.9723187,"stopLon":-77.1251569,"routeNames":"9305-(Lima-Callao) CR16 CR19 CR24 CR28 CR32 CR35 CR41 CR56 CR57 CR58 CR61 CR66 ICR15 IM06 IM12-(Lima-Callao) IM19 IM20 IM31 IO03 IO06 IO14-(Lima-Callao) IO28b IO32b IO37b-(Callao-Lima) IO55 IO71 IO75b OM10 OM23 OM34 OM42-(Callao-Lima) OM75-"},{"stopId":813997,"stopName":"Las Palmeras","stopTypeGroup":"bus","stopLat":-11.9722023,"stopLon":-77.072745,"routeNames":"1901-(Lima-Callao) 4204"},{"stopId":1319668,"stopName":"Parque San Martín","stopTypeGroup":"bus","stopLat":-11.9721579,"stopLon":-77.1231812,"routeNames":"CR28"},{"stopId":1382947,"stopName":"Universitaria","stopTypeGroup":"bus","stopLat":-11.9719218,"stopLon":-77.0761648},{"stopId":2007427,"stopName":"Fundo Oquendo","stopTypeGroup":"bus","stopLat":-11.971921778360297,"stopLon":-77.12172746658327},{"stopId":737453,"stopName":"Universitaria","stopTypeGroup":"bus","stopLat":-11.9719165,"stopLon":-77.0753789,"routeNames":"1502-(Lima-Callao) 1901-(Lima-Callao) 2613 4204 7103 8104 OM25 OM47-(Callao-Lima)"},{"stopId":737471,"stopName":"Marañón","stopTypeGroup":"bus","stopLat":-11.971885,"stopLon":-77.0726216,"routeNames":"1502-(Lima-Callao) 2613 7103 8104 OM25 OM47-(Callao-Lima)"},{"stopId":1046711,"stopName":"San Jose","stopTypeGroup":"bus","stopLat":-11.9718543,"stopLon":-77.0941541,"routeNames":"2204 2604 2611 OM23"},{"stopId":1805164,"stopName":"San José","stopTypeGroup":"bus","stopLat":-11.9717906,"stopLon":-77.0942992,"routeNames":"2204 2604 2611 OM23"},{"stopId":739097,"stopName":"Marañón","stopTypeGroup":"bus","stopLat":-11.9716332,"stopLon":-77.0759422,"routeNames":"018p 1103 1503 1504 1506 1513 1514 1518 1604 1611 1615 1703-(Lima-Callao) 1704 1901-(Lima-Callao) 4204 IO44b OM32 SH24a"},{"stopId":737726,"stopName":"Marañón","stopTypeGroup":"bus","stopLat":-11.9714652,"stopLon":-77.0669246,"routeNames":"1213 1217 1308 1411 1412 1505 1607 1608 1701 1801-(Lima-Callao) 1802 1804 2511-(Lima-Callao) 8102 8105 8107 8108 8109 8110 8111 8209 8211 9307-(Callao-Lima) 9401-(Lima-Callao) 9601-(Lima-Callao) 9602-(Lima-Callao) 9801-(Lima-Callao) CR2"},{"stopId":1046717,"stopName":"Comisaría de Cerro Candela","stopTypeGroup":"bus","stopLat":-11.9714158,"stopLon":-77.1040191,"routeNames":"2204"},{"stopId":737522,"stopName":"Marañón","stopTypeGroup":"bus","stopLat":-11.9711241,"stopLon":-77.0670909,"routeNames":"1213 1217 1308 1411 1412 1505 1607 1608 1701 1801-(Lima-Callao) 1802 1804 2511-(Lima-Callao) 8102 8105 8107 8108 8109 8110 8111 8209 8211 9307-(Callao-Lima) 9401-(Lima-Callao) 9601-(Lima-Callao) 9602-(Lima-Callao) 9801-(Lima-Callao) AN0"},{"stopId":1926514,"stopName":"Calle 4","stopTypeGroup":"bus","stopLat":-11.971011556588554,"stopLon":-77.10016760228429,"routeNames":"OM32"},{"stopId":1046715,"stopName":"Calle 4","stopTypeGroup":"bus","stopLat":-11.9709415,"stopLon":-77.1002235,"routeNames":"2204 2604 2611 OM23 OM32"},{"stopId":1319663,"stopName":"Iglesia San Nicolás","stopTypeGroup":"bus","stopLat":-11.97093,"stopLon":-77.1153867,"routeNames":"CR28"},{"stopId":1301608,"stopName":"Canta Callao","stopTypeGroup":"bus","stopLat":-11.9707856,"stopLon":-77.0859602,"routeNames":"2204 2208 2209 2411 2805 8201 8214 IM18"},{"stopId":1467612,"stopName":"Canta Callao","stopTypeGroup":"bus","stopLat":-11.9707725,"stopLon":-77.0858958,"routeNames":"2208 2411 2805 8214"},{"stopId":1301609,"stopName":"Llata","stopTypeGroup":"bus","stopLat":-11.9706571,"stopLon":-77.0885003,"routeNames":"2209 8201"},{"stopId":1325325,"stopName":"Cerro Candela","stopTypeGroup":"bus","stopLat":-11.9705941,"stopLon":-77.1040034,"routeNames":"2204 2611"},{"stopId":817751,"stopName":"La Merced","stopTypeGroup":"bus","stopLat":-11.9705259,"stopLon":-77.057451,"routeNames":"1103 1201 1206 1208 1403 1404 1501-(Lima-Callao) 1508 1602 1610 1612 1618 1702 1706 2203 2208 7101 8112 AN06 AN07 CR12 CR15 CR17 CR34 CR43 CR51 CR62 CR65 CR69 CR84 ICR05 IM47 IO09 IO35b IO38b IO40 IO45 IPC06 NH26b OM39 SH112a"},{"stopId":1717887,"stopName":"Buena Vista","stopTypeGroup":"bus","stopLat":-11.9704843,"stopLon":-77.1193936,"routeNames":"IM21"},{"stopId":817682,"stopName":"La Merced","stopTypeGroup":"bus","stopLat":-11.9704262,"stopLon":-77.0575798,"routeNames":"1103 1201 1206 1208 1403 1404 1501-(Lima-Callao) 1508 1602 1610 1612 1618 1702 1706 2203 2208 7101 8112 AN06 AN07 CR12 CR15 CR17 CR34 CR43 CR51 CR62 CR65 CR69 CR84 ICR05 IM47 IO09 IO35b IO38b IO40 IO45 IPC06 NH26b OM39 SH112a"},{"stopId":1717892,"stopName":"Buena Vista","stopTypeGroup":"bus","stopLat":-11.9704191,"stopLon":-77.1196203,"routeNames":"IM21"},{"stopId":1040543,"stopName":"Marañón","stopTypeGroup":"bus","stopLat":-11.9701506,"stopLon":-77.0801915,"routeNames":"2205 2409 2411 2414 2701-(Lima-Callao) 4210-(Lima-Callao) 8212 8214 CR13 CR49 ICR15 IM26 IM57 OM21"},{"stopId":1677442,"stopName":"Real","stopTypeGroup":"bus","stopLat":-11.9700378,"stopLon":-77.0906836,"routeNames":"2204 2603"},{"stopId":1382963,"stopName":"Huandoy","stopTypeGroup":"bus","stopLat":-11.9699801,"stopLon":-77.0799011},{"stopId":1305069,"stopName":"Huandoy","stopTypeGroup":"bus","stopLat":-11.9699014,"stopLon":-77.0804375,"routeNames":"2411"},{"stopId":1040521,"stopName":"Marañón","stopTypeGroup":"bus","stopLat":-11.9696925,"stopLon":-77.0801738,"routeNames":"2205 2409 2414 2701-(Lima-Callao) 4210-(Lima-Callao) 8212 CR13 CR49 ICR15 IM26 IM57 OM21"},{"stopId":1301598,"stopName":"Terminal Sol de Oro","stopTypeGroup":"bus","stopLat":-11.9693976,"stopLon":-77.1067017,"routeNames":"2611 2805"},{"stopId":1325329,"stopName":"Terminal Sol de Oro","stopTypeGroup":"bus","stopLat":-11.9693215,"stopLon":-77.1067125,"routeNames":"2611 2805"},{"stopId":1388329,"stopName":"Santa Rosa","stopTypeGroup":"bus","stopLat":-11.9692559,"stopLon":-77.0922339,"routeNames":"4212 AN02"},{"stopId":1388335,"stopName":"Santa Rosa","stopTypeGroup":"bus","stopLat":-11.9691667,"stopLon":-77.0919871,"routeNames":"4212 AN02"},{"stopId":737470,"stopName":"Sologuren","stopTypeGroup":"bus","stopLat":-11.9690775,"stopLon":-77.0721549,"routeNames":"1502-(Lima-Callao) 2613 7103 8104 OM25 OM47-(Callao-Lima)"},{"stopId":1077414,"stopName":"Envasadora","stopTypeGroup":"bus","stopLat":-11.9689972,"stopLon":-77.1254072,"routeNames":"9305-(Lima-Callao) CR16 CR19 CR24 CR32 CR35 CR41 CR56 CR57 CR58 CR61 CR66 ICR15 IM06 IM12-(Lima-Callao) IM19 IM20 IM31 IO03 IO06 IO14-(Lima-Callao) IO28b IO32b IO37b-(Callao-Lima) IO55 IO71 IO75b OM10 OM23 OM34 OM42-(Callao-Lima) OM75-(Call"},{"stopId":1077350,"stopName":"Envasadora","stopTypeGroup":"bus","stopLat":-11.9687869,"stopLon":-77.1257363,"routeNames":"9305-(Lima-Callao) CR16 CR19 CR24 CR32 CR35 CR41 CR56 CR57 CR58 CR61 CR66 ICR15 IM06 IM12-(Lima-Callao) IM19 IM20 IM31 IO03 IO06 IO14-(Lima-Callao) IO28b IO32b IO37b-(Callao-Lima) IO55 IO71 IO75b OM10 OM23 OM34 OM42-(Callao-Lima) OM75-(Call"},{"stopId":1677444,"stopName":"Tantamayo","stopTypeGroup":"bus","stopLat":-11.9685816,"stopLon":-77.0890018,"routeNames":"2204 2603"},{"stopId":1019302,"stopName":"Tantamayo","stopTypeGroup":"bus","stopLat":-11.9685082,"stopLon":-77.088824,"routeNames":"2208 2209 2411 2805 8201 8214 IM18"},{"stopId":1046712,"stopName":"Pacasmayo","stopTypeGroup":"bus","stopLat":-11.968487482445303,"stopLon":-77.09676523558197},{"stopId":1926519,"stopName":"Mercado Virgen de La Puerta","stopTypeGroup":"bus","stopLat":-11.968485537202335,"stopLon":-77.09697309134755,"routeNames":"OM32"},{"stopId":1305068,"stopName":"Marañón","stopTypeGroup":"bus","stopLat":-11.9684792,"stopLon":-77.0837313,"routeNames":"2208 2411 2511-(Lima-Callao) 2805 IM18 IO89 OM22"},{"stopId":1019300,"stopName":"Jircán","stopTypeGroup":"bus","stopLat":-11.9684357,"stopLon":-77.0889914,"routeNames":"2204 2208 2209 2411 2603 2805 8201 8214 IM18"},{"stopId":1305075,"stopName":"Canta Callao","stopTypeGroup":"bus","stopLat":-11.9683166,"stopLon":-77.0832753,"routeNames":"2411 8214"},{"stopId":1046718,"stopName":"Mercado Virgen de la Puerta","stopTypeGroup":"bus","stopLat":-11.968290474106267,"stopLon":-77.09692042698364,"routeNames":"2204 2604 2611 OM23 OM32"},{"stopId":737454,"stopName":"Colegio Monserrat","stopTypeGroup":"bus","stopLat":-11.9682588,"stopLon":-77.0748693,"routeNames":"018p 1103 1502-(Lima-Callao) 1503 1504 1506 1513 1514 1518 1604 1611 1615 1703-(Lima-Callao) 1704 1901-(Lima-Callao) 2613 4204 7103 8104 IO44b OM25 OM32 OM47-(Callao-Lima) SH24a"},{"stopId":1325324,"stopName":"Algarrobos","stopTypeGroup":"bus","stopLat":-11.9679755,"stopLon":-77.1088797,"routeNames":"2611 2805"},{"stopId":739096,"stopName":"Colegio Monserrat","stopTypeGroup":"bus","stopLat":-11.9679597,"stopLon":-77.0750195,"routeNames":"018p 1103 1503 1504 1506 1513 1514 1518 1604 1611 1615 1703-(Lima-Callao) 1704 1901-(Lima-Callao) 4204 IO44b OM32 SH24a"},{"stopId":1325330,"stopName":"Algarrobos","stopTypeGroup":"bus","stopLat":-11.9679072,"stopLon":-77.1088099,"routeNames":"2611 2805"},{"stopId":1324397,"stopName":"Marañón","stopTypeGroup":"bus","stopLat":-11.967902,"stopLon":-77.0838225,"routeNames":"2208 2511-(Lima-Callao) IO89 OM22"},{"stopId":737469,"stopName":"Biondell","stopTypeGroup":"bus","stopLat":-11.9669994,"stopLon":-77.0701325,"routeNames":"1502-(Lima-Callao) 2613 7103 8104 OM25 OM47-(Callao-Lima)"},{"stopId":1040544,"stopName":"Calle 11","stopTypeGroup":"bus","stopLat":-11.9669231,"stopLon":-77.0787534,"routeNames":"2205 2409 2414 2701-(Lima-Callao) 4210-(Lima-Callao) 8212 CR13 CR49 ICR15 IM26 IM57 OM21"},{"stopId":1040520,"stopName":"Calle 11","stopTypeGroup":"bus","stopLat":-11.9667132,"stopLon":-77.0788201,"routeNames":"2205 2409 2414 2701-(Lima-Callao) 4210-(Lima-Callao) 8212 CR13 CR49 ICR15 IM26 IM57 OM21"},{"stopId":1926530,"stopName":"Naranjal","stopTypeGroup":"bus","stopLat":-11.966713085152659,"stopLon":-77.09478923679627,"routeNames":"OM32"},{"stopId":1388337,"stopName":"Pacasmayo","stopTypeGroup":"bus","stopLat":-11.9666373,"stopLon":-77.0943153,"routeNames":"4212 AN02"},{"stopId":1309374,"stopName":"Nogales","stopTypeGroup":"bus","stopLat":-11.9666268,"stopLon":-77.1102905,"routeNames":"2805 8211"},{"stopId":737724,"stopName":"Tres Postes","stopTypeGroup":"bus","stopLat":-11.966611,"stopLon":-77.067681,"routeNames":"1213 1217 1308 1411 1412 1505 1607 1608 1701 1801-(Lima-Callao) 1802 1804 2511-(Lima-Callao) 8102 8105 8107 8108 8109 8110 8111 8209 8211 9307-(Callao-Lima) 9401-(Lima-Callao) 9601-(Lima-Callao) 9602-(Lima-Callao) 9801-(Lima-Callao) AN0"},{"stopId":1387955,"stopName":"Pacasmayo","stopTypeGroup":"bus","stopLat":-11.9665061,"stopLon":-77.094841,"routeNames":"4212 AN02"},{"stopId":1309375,"stopName":"Nogales","stopTypeGroup":"bus","stopLat":-11.9664798,"stopLon":-77.1102369,"routeNames":"2805 8211"},{"stopId":1926924,"stopName":"Naranjal","stopTypeGroup":"bus","stopLat":-11.966338651658447,"stopLon":-77.09442365171981,"routeNames":"OM32"},{"stopId":817752,"stopName":"Politécnico","stopTypeGroup":"bus","stopLat":-11.9663093,"stopLon":-77.0559892,"routeNames":"1103 1201 1206 1208 1403 1404 1501-(Lima-Callao) 1508 1602 1610 1612 1618 1702 1706 2203 2208 7101 8112 AN06 AN07 AN08 CR12 CR15 CR17 CR34 CR43 CR51 CR62 CR65 CR69 CR84 ICR05 IM47 IO09 IO35b IO38b IO40 IO45 IPC06 NH26b OM39 SH112a"},{"stopId":1301596,"stopName":"El Sol de Naranjal","stopTypeGroup":"bus","stopLat":-11.9661649,"stopLon":-77.1042502,"routeNames":"2204 2805"},{"stopId":737468,"stopName":"Tres Postes","stopTypeGroup":"bus","stopLat":-11.9661335,"stopLon":-77.0679009,"routeNames":"1213 1217 1308 1411 1412 1502-(Lima-Callao) 1505 1607 1608 1701 1801-(Lima-Callao) 1802 1804 2511-(Lima-Callao) 2613 7103 8102 8104 8105 8107 8108 8109 8110 8111 8209 8211 9307-(Callao-Lima) 9401-(Lima-Callao) 9601-(Lima-Callao) 9602-(Lim"},{"stopId":1467261,"stopName":"Paramonga","stopTypeGroup":"bus","stopLat":-11.9659786,"stopLon":-77.1043226,"routeNames":"2209 8201"},{"stopId":1301597,"stopName":"El Sol de Naranjal","stopTypeGroup":"bus","stopLat":-11.9659235,"stopLon":-77.1041805,"routeNames":"2204 2209 2805 8201"},{"stopId":817681,"stopName":"Politécnico","stopTypeGroup":"bus","stopLat":-11.9658789,"stopLon":-77.055847,"routeNames":"1103 1201 1206 1208 1403 1404 1501-(Lima-Callao) 1508 1602 1610 1612 1618 1702 1706 2203 2208 7101 8112 AN06 AN07 AN08 CR12 CR15 CR17 CR34 CR43 CR51 CR62 CR65 CR69 CR84 ICR05 IM47 IO09 IO35b IO38b IO40 IO45 IPC06 NH26b OM39 SH112a"},{"stopId":737456,"stopName":"Colegio Humboldt","stopTypeGroup":"bus","stopLat":-11.9657189,"stopLon":-77.0736945,"routeNames":"018p 1103 1502-(Lima-Callao) 1503 1504 1506 1513 1514 1518 1604 1611 1615 1703-(Lima-Callao) 1704 1901-(Lima-Callao) 2613 4204 7103 8104 IO44b OM25 OM32 OM47-(Callao-Lima) SH24a"}]