[{"stopId":982246,"stopName":"Olaya","stopTypeGroup":"bus","stopLat":-12.1673339,"stopLon":-77.025741,"routeNames":"7707 8613"},{"stopId":827134,"stopName":"Huaylas","stopTypeGroup":"bus","stopLat":-12.1671874,"stopLon":-77.0257527,"routeNames":"1053 1055 3702 7103 7501 7606 7607 7610 7701 8308 8525 8716 8717 8727 8728"},{"stopId":991692,"stopName":"Pedro Silva","stopTypeGroup":"bus","stopLat":-12.1671635,"stopLon":-76.9689878,"routeNames":"3701 7504 8201 8605 8617 IO06 IO50 OM33"},{"stopId":1304233,"stopName":"Pedro Miotta","stopTypeGroup":"bus","stopLat":-12.167072,"stopLon":-76.9783956,"routeNames":"7702 7703 7705 7706 7708 7709 7805 8525 8613 8708 8712 8716 8717 8722 8724 8728"},{"stopId":1502264,"stopName":"Artemisa","stopTypeGroup":"bus","stopLat":-12.1670065,"stopLon":-76.9981887,"routeNames":"1376 2702 2703 7403 7601 7707 8706 8707 8726 8727 IO03 IO07 IO89"},{"stopId":1019618,"stopName":"Pedro Silva","stopTypeGroup":"bus","stopLat":-12.1669801,"stopLon":-76.9691142,"routeNames":"3701 7504 8201 8605 8617 IO06 IO50 OM33"},{"stopId":1331497,"stopName":"Alipio Ponce Vázquez","stopTypeGroup":"bus","stopLat":-12.1668465,"stopLon":-76.9780898,"routeNames":"1054 3705 8613 8723"},{"stopId":814988,"stopName":"Buenaventura","stopTypeGroup":"bus","stopLat":-12.1666656,"stopLon":-76.9608363,"routeNames":"2804-(Lima-Callao) 7612 7801 7802 7803 7804 7807 7811 8306 8520 8621 9801-(Lima-Callao) IM22 OM19 OM21 OM36 OM37"},{"stopId":984421,"stopName":"Vista Alegre","stopTypeGroup":"bus","stopLat":-12.1666487,"stopLon":-76.9903781,"routeNames":"1703-(Lima-Callao) 4703 7505 7614 AS08"},{"stopId":1308956,"stopName":"Barrio Nuevo","stopTypeGroup":"bus","stopLat":-12.1665791,"stopLon":-77.0245725,"routeNames":"8716 8717 8727 8728"},{"stopId":1304232,"stopName":"Pedro Miotta","stopTypeGroup":"bus","stopLat":-12.1665581,"stopLon":-76.9780469,"routeNames":"7702 7703 7705 7706 7708 7709 7805 8525 8708 8712 8716 8717 8722 8723 8724 8728"},{"stopId":1309715,"stopName":"Calle Los Ficus","stopTypeGroup":"bus","stopLat":-12.1665266,"stopLon":-76.9842267,"routeNames":"8709"},{"stopId":814965,"stopName":"Buenaventura","stopTypeGroup":"bus","stopLat":-12.1664953,"stopLon":-76.9609041,"routeNames":"2804-(Lima-Callao) 7612 7801 7802 7803 7804 7807 7811 8306 8520 8621 9801-(Lima-Callao) IM22 OM19 OM21 OM36 OM37"},{"stopId":827044,"stopName":"Ferrocarril","stopTypeGroup":"bus","stopLat":-12.1664532,"stopLon":-77.0238215,"routeNames":"1053 1055 3702 7103 7501 7606 7610 7701 8308 8525"},{"stopId":984429,"stopName":"Guardia Civil Sur","stopTypeGroup":"bus","stopLat":-12.1663083,"stopLon":-76.9907968,"routeNames":"1376 1703-(Lima-Callao) 2702 2703 4703 7403 7505 7601 7614 7707 8706 8707 8726 8727 AS08 IO03 IO07 IO89"},{"stopId":827133,"stopName":"Barrionuevo","stopTypeGroup":"bus","stopLat":-12.166212,"stopLon":-77.0247173,"routeNames":"1053 1055 3702 7103 7501 7606 7607 7610 7701 8308 8525"},{"stopId":739286,"stopName":"Los Álamos","stopTypeGroup":"bus","stopLat":-12.1661176,"stopLon":-76.9807023,"routeNames":"1058 1801-(Lima-Callao) 8107 8108 8109 8111 8112 8212 8214 8406 8503 8504 8505 8508 8510 8511 8513 8611 8612 8618 8619 SH24"},{"stopId":739362,"stopName":"Los Álamos","stopTypeGroup":"bus","stopLat":-12.1659184,"stopLon":-76.9805682,"routeNames":"1058 1801-(Lima-Callao) 8107 8108 8109 8111 8112 8212 8214 8406 8503 8504 8505 8508 8510 8511 8513 8611 8612 8618 8619 SH24"},{"stopId":1022558,"stopName":"Unión","stopTypeGroup":"bus","stopLat":-12.1656302,"stopLon":-76.9477787,"routeNames":"8604 8616 IO30b"},{"stopId":1304426,"stopName":"Las Rosas","stopTypeGroup":"bus","stopLat":-12.1655513,"stopLon":-76.9571579,"routeNames":"7709"},{"stopId":1548018,"stopName":"Transvesa","stopTypeGroup":"bus","stopLat":-12.1654752,"stopLon":-76.9813943,"routeNames":"1054 3705 7101 8702"},{"stopId":1205195,"stopName":"Vista Alegre","stopTypeGroup":"bus","stopLat":-12.1654558,"stopLon":-76.9920895,"routeNames":"1376 1703-(Lima-Callao) 2702 2703 4703 7403 7505 7601 7614 7707 8706 8707 8726 8727 IO03 IO07 IO89"},{"stopId":736454,"stopName":"San José","stopTypeGroup":"bus","stopLat":-12.1653625,"stopLon":-76.9512784,"routeNames":"1061 3813 3814 8104 8105 8302 8604 8616 IO30b NH25 NH27p"},{"stopId":982251,"stopName":"Playa Pescadores","stopTypeGroup":"bus","stopLat":-12.1653548,"stopLon":-77.027302,"routeNames":"AS10"},{"stopId":1304287,"stopName":"Paradero CT","stopTypeGroup":"bus","stopLat":-12.165331,"stopLon":-76.9728005,"routeNames":"7702 7703 7705 7706 7708 7709 7805 8525 8708 8712 8716 8717 8722 8723 8724 8728"},{"stopId":737329,"stopName":"San José","stopTypeGroup":"bus","stopLat":-12.165331,"stopLon":-76.9509405,"routeNames":"1061 3813 3814 8104 8105 8302 8604 8616 IO30b NH25 NH27p"},{"stopId":991694,"stopName":"Paradero CT","stopTypeGroup":"bus","stopLat":-12.1651468,"stopLon":-76.9725227,"routeNames":"3701 7504 7804 7811 8201 8605 8617 IO06 IO50 OM19 OM21 OM33 OM36 OM37"},{"stopId":1019616,"stopName":"Paradero CT","stopTypeGroup":"bus","stopLat":-12.1651059,"stopLon":-76.9727412,"routeNames":"3701 7504 7702 7703 7705 7706 7708 7709 7804 7805 7811 8201 8525 8605 8617 8708 8712 8716 8717 8722 8723 8724 8728 IO06 IO50 OM19 OM21 OM33 OM36 OM37"},{"stopId":1309714,"stopName":"Mercado 18 de Enero","stopTypeGroup":"bus","stopLat":-12.1649666,"stopLon":-76.9840229,"routeNames":"8709"},{"stopId":991693,"stopName":"Vargas Machuca","stopTypeGroup":"bus","stopLat":-12.1648313,"stopLon":-76.9691742,"routeNames":"3701 7504 8201 8605 8617 IO06 IO50 OM33"},{"stopId":1019617,"stopName":"Canevaro","stopTypeGroup":"bus","stopLat":-12.1646989,"stopLon":-76.9694237,"routeNames":"3701 7504 7804 7811 8201 8605 8617 IO06 IO50 OM19 OM21 OM33 OM36 OM37"},{"stopId":1502261,"stopName":"Apolo","stopTypeGroup":"bus","stopLat":-12.1646687,"stopLon":-76.9933189,"routeNames":"1376 2702 2703 7403 7601 7707 8706 8707 8726 8727 IO03 IO07 IO89"},{"stopId":1022546,"stopName":"Unión ","stopTypeGroup":"bus","stopLat":-12.1646206,"stopLon":-76.9481585,"routeNames":"8604 8616 IO30b"},{"stopId":827045,"stopName":"Bajada Agua Dulce","stopTypeGroup":"bus","stopLat":-12.1645969,"stopLon":-77.0218527,"routeNames":"1053 1055 3702 7103 7501 7606 7610 7701 8308 8525"},{"stopId":1022559,"stopName":"Los Marianistas","stopTypeGroup":"bus","stopLat":-12.1645185,"stopLon":-76.9460728,"routeNames":"8604 8616 IO30b"},{"stopId":1193679,"stopName":"Machuca","stopTypeGroup":"bus","stopLat":-12.164473,"stopLon":-76.9692657,"routeNames":"7804 7811 OM19 OM21 OM36 OM37"},{"stopId":1330472,"stopName":"Bajada Agua Dulce","stopTypeGroup":"bus","stopLat":-12.1644081,"stopLon":-77.0215201,"routeNames":"7607"},{"stopId":737581,"stopName":"Lirios","stopTypeGroup":"bus","stopLat":-12.1643189,"stopLon":-76.9539928,"routeNames":"1060 1110 1376 1417 1802 1804 2805 3805 3810 7403 8110 8211 8404 8506 8507 8515 8614 8626 8701 8702 8703 8704 8711 8714 8715 8716 8717 8718 8720 8722 8724 8728 8729 8803 IM06 IO28b"},{"stopId":737667,"stopName":"Lirios","stopTypeGroup":"bus","stopLat":-12.164298,"stopLon":-76.9536763,"routeNames":"1060 1110 1376 1417 1802 1804 2805 3805 3810 7403 8110 8211 8404 8506 8507 8515 8614 8626 8701 8702 8703 8704 8711 8714 8715 8716 8717 8718 8720 8722 8724 8728 8729 8803 IM06 IO28b"},{"stopId":823586,"stopName":"José Olaya","stopTypeGroup":"bus","stopLat":-12.1642298,"stopLon":-76.9816142,"routeNames":"1054 3705 7101 8701 8702"},{"stopId":984422,"stopName":"Parque Villa Alegre","stopTypeGroup":"bus","stopLat":-12.1637164,"stopLon":-76.9907485,"routeNames":"1376 1703-(Lima-Callao) 2702 2703 4703 7403 7505 7601 7614 7707 8706 8707 8726 8727 AS08 IO03 IO07 IO89"},{"stopId":814989,"stopName":"Billinghurst","stopTypeGroup":"bus","stopLat":-12.1636866,"stopLon":-76.9601748,"routeNames":"2804-(Lima-Callao) 7612 7801 7802 7803 7807 8306 8520 8621 9801-(Lima-Callao) IM22"},{"stopId":1652783,"stopName":"Miguel Iglesias","stopTypeGroup":"bus","stopLat":-12.1635586,"stopLon":-76.960339,"routeNames":"8525"},{"stopId":827132,"stopName":"Bajada Agua Dulce","stopTypeGroup":"bus","stopLat":-12.163493,"stopLon":-77.0228103,"routeNames":"1053 1055 3702 7103 7501 7606 7607 7610 8308 8525"},{"stopId":1304427,"stopName":"Miguel Iglesias","stopTypeGroup":"bus","stopLat":-12.1634432,"stopLon":-76.9599903,"routeNames":"7709"},{"stopId":1022545,"stopName":"Cooperativa San Francisco","stopTypeGroup":"bus","stopLat":-12.1634145,"stopLon":-76.9464633,"routeNames":"8604 8616 IO30b"},{"stopId":814964,"stopName":"Billinghurst","stopTypeGroup":"bus","stopLat":-12.163409,"stopLon":-76.960199,"routeNames":"2804-(Lima-Callao) 7612 7709 7801 7802 7803 7807 8306 8520 8525 8621 9801-(Lima-Callao) IM22"},{"stopId":1022560,"stopName":"Plaza de Armas de Villa María del Triunfo","stopTypeGroup":"bus","stopLat":-12.1634068,"stopLon":-76.944442,"routeNames":"8604 8616 IO30b"},{"stopId":1502263,"stopName":"Parque Sagitario","stopTypeGroup":"bus","stopLat":-12.1631406,"stopLon":-76.9960128,"routeNames":"1376 2702 2703 7403 7601 7707 8706 8707 8726 8727 IO03 IO07 IO89"},{"stopId":1193675,"stopName":"Tomas Guzman","stopTypeGroup":"bus","stopLat":-12.1630094,"stopLon":-76.9652211,"routeNames":"7804 7811 OM19 OM21 OM36 OM37"},{"stopId":1193677,"stopName":"Tomas Guzman","stopTypeGroup":"bus","stopLat":-12.1630076,"stopLon":-76.9649953,"routeNames":"7804 7811 OM19 OM21 OM36 OM37"},{"stopId":1309713,"stopName":"Calle 9","stopTypeGroup":"bus","stopLat":-12.1629503,"stopLon":-76.9837868,"routeNames":"8702 8709"},{"stopId":984428,"stopName":"Parque Villa Alegre","stopTypeGroup":"bus","stopLat":-12.1629404,"stopLon":-76.9908364,"routeNames":"1376 1703-(Lima-Callao) 2702 2703 4703 7403 7505 7601 7614 7707 8706 8707 8726 8727 AS08 IO03 IO07 IO89"},{"stopId":1318891,"stopName":"Geranios","stopTypeGroup":"bus","stopLat":-12.1626042,"stopLon":-76.982258,"routeNames":"8701 8702"},{"stopId":1022544,"stopName":"Plaza de Armas de Villa María del Triunfo","stopTypeGroup":"bus","stopLat":-12.1623342,"stopLon":-76.944854,"routeNames":"8604 8616 IO30b"},{"stopId":1022561,"stopName":"Salaverry","stopTypeGroup":"bus","stopLat":-12.1622585,"stopLon":-76.9427909,"routeNames":"8604 8616 IO30b"},{"stopId":991696,"stopName":"Daniel Timorán","stopTypeGroup":"bus","stopLat":-12.1620849,"stopLon":-76.9730148,"routeNames":"3701 7504 7702 7703 7705 7706 7708 7709 7804 7805 7811 8525 8605 8617 8708 8712 8716 8717 8722 8723 8724 8728 IO06 IO50 OM19 OM21 OM33 OM36 OM37"},{"stopId":827131,"stopName":"Explanada","stopTypeGroup":"bus","stopLat":-12.1619434,"stopLon":-77.0236686,"routeNames":"1053 1055 3702 7103 7501 7606 7607 7610 8308 8525"},{"stopId":1301582,"stopName":"Explanada","stopTypeGroup":"bus","stopLat":-12.1619434,"stopLon":-77.0235425,"routeNames":"1053 1055 7103 7501 7606 7607 8308 8525"},{"stopId":1019615,"stopName":"Daniel Timorán","stopTypeGroup":"bus","stopLat":-12.161905,"stopLon":-76.9731307,"routeNames":"3701 7504 7702 7703 7705 7706 7708 7709 7804 7805 7811 8525 8605 8617 8708 8712 8716 8717 8722 8723 8724 8728 IO06 IO50 OM19 OM21 OM33 OM36 OM37"},{"stopId":823585,"stopName":"Amauta","stopTypeGroup":"bus","stopLat":-12.1618764,"stopLon":-76.9821636,"routeNames":"1054 3705 7101 8701"},{"stopId":1193674,"stopName":"Suarez","stopTypeGroup":"bus","stopLat":-12.1618295,"stopLon":-76.9685095,"routeNames":"7804 7811 OM19 OM21 OM36 OM37"},{"stopId":739285,"stopName":"Amauta","stopTypeGroup":"bus","stopLat":-12.161828,"stopLon":-76.9819254,"routeNames":"1058 1801-(Lima-Callao) 8107 8108 8109 8111 8112 8212 8214 8406 8503 8504 8505 8508 8510 8511 8513 8611 8612 8618 8619 SH24"},{"stopId":739363,"stopName":"Amauta","stopTypeGroup":"bus","stopLat":-12.1618171,"stopLon":-76.9817661,"routeNames":"1058 1801-(Lima-Callao) 8107 8108 8109 8111 8112 8212 8214 8406 8503 8504 8505 8508 8510 8511 8513 8611 8612 8618 8619 SH24"},{"stopId":1652782,"stopName":"Tomás Guzmán","stopTypeGroup":"bus","stopLat":-12.161794,"stopLon":-76.9647378,"routeNames":"8525"},{"stopId":1652780,"stopName":"Tomás Guzmán","stopTypeGroup":"bus","stopLat":-12.1617861,"stopLon":-76.9644991,"routeNames":"8525"},{"stopId":1193678,"stopName":"Canevaro","stopTypeGroup":"bus","stopLat":-12.1616522,"stopLon":-76.9682442,"routeNames":"7804 7811 OM19 OM21 OM36 OM37"},{"stopId":823660,"stopName":"Óvalo Horacio Zeballos","stopTypeGroup":"bus","stopLat":-12.1615658,"stopLon":-76.9794577,"routeNames":"1054 3705 7101 8201"},{"stopId":814963,"stopName":"María Auxiliadora","stopTypeGroup":"bus","stopLat":-12.1612047,"stopLon":-76.9594438,"routeNames":"2804-(Lima-Callao) 7612 7709 7801 7802 7803 7807 8306 8520 8525 8621 9801-(Lima-Callao) IM22"},{"stopId":1022543,"stopName":"Salaverry","stopTypeGroup":"bus","stopLat":-12.1611969,"stopLon":-76.943107,"routeNames":"8604 8616 IO30b"},{"stopId":738101,"stopName":"María Auxiliadora","stopTypeGroup":"metro","stopLat":-12.1611096,"stopLon":-76.956321,"routeNames":"Línea-1"},{"stopId":1486027,"stopName":"Óvalo Horacio Zeballos","stopTypeGroup":"bus","stopLat":-12.1610939,"stopLon":-76.9798386,"routeNames":"8201"},{"stopId":1022562,"stopName":"Chocano","stopTypeGroup":"bus","stopLat":-12.1610779,"stopLon":-76.9410926,"routeNames":"8604 8616 IO30b"},{"stopId":2038821,"stopName":"Ovalo Horacio Zevallos","stopTypeGroup":"bus","stopLat":-12.161041443707862,"stopLon":-76.97925120592119},{"stopId":814990,"stopName":"María Auxiliadora","stopTypeGroup":"bus","stopLat":-12.1607341,"stopLon":-76.9591324,"routeNames":"2804-(Lima-Callao) 7612 7709 7801 7802 7803 7807 8306 8520 8525 8621 9801-(Lima-Callao) IM22"},{"stopId":2038820,"stopName":"Joaquín Torrico","stopTypeGroup":"bus","stopLat":-12.16069795905894,"stopLon":-76.97669506072998},{"stopId":1196279,"stopName":"Hurtado","stopTypeGroup":"bus","stopLat":-12.1606954,"stopLon":-76.9849681,"routeNames":"8701 8702 8709"},{"stopId":737671,"stopName":"María Auxiliadora","stopTypeGroup":"bus","stopLat":-12.1606586,"stopLon":-76.9565248,"routeNames":"1060 1110 1376 1417 1802 1804 2805 3805 3810 7403 8110 8211 8404 8506 8507 8515 8614 8626 8701 8702 8703 8704 8711 8714 8715 8716 8717 8718 8720 8722 8724 8728 8729 8803 IM06 IO28b"},{"stopId":1304483,"stopName":"Estación María Auxiliadora","stopTypeGroup":"bus","stopLat":-12.1606429,"stopLon":-76.9563317,"routeNames":"8726"},{"stopId":737579,"stopName":"María Auxiliadora","stopTypeGroup":"bus","stopLat":-12.1605537,"stopLon":-76.9569218,"routeNames":"1060 1110 1376 1417 1802 1804 2805 3805 3810 7403 8110 8211 8404 8506 8507 8515 8614 8626 8701 8702 8703 8704 8711 8714 8715 8716 8717 8718 8720 8722 8724 8728 8729 8803 IM06 IO28b"},{"stopId":1652781,"stopName":"Canevaro","stopTypeGroup":"bus","stopLat":-12.1604358,"stopLon":-76.9678384,"routeNames":"8525"},{"stopId":1387644,"stopName":"Canevaro","stopTypeGroup":"bus","stopLat":-12.1604017,"stopLon":-76.9681656,"routeNames":"8525"},{"stopId":982249,"stopName":"Playa Agua Dulce","stopTypeGroup":"bus","stopLat":-12.1603058,"stopLon":-77.0256483,"routeNames":"AS10"},{"stopId":2039853,"stopName":"San Juan","stopTypeGroup":"bus","stopLat":-12.160244348880799,"stopLon":-76.97363197803499},{"stopId":1893494,"stopName":"Elías Aguirre","stopTypeGroup":"bus","stopLat":-12.160173847103849,"stopLon":-76.93616160580468,"routeNames":"8604"},{"stopId":984423,"stopName":"Alcides Vigo","stopTypeGroup":"bus","stopLat":-12.1601076,"stopLon":-76.9889971,"routeNames":"1376 1703-(Lima-Callao) 2702 2703 4703 7403 7505 7601 7614 7707 8706 8707 8726 8727 AS08 IO03 IO07 IO89"},{"stopId":1022542,"stopName":"Chocano","stopTypeGroup":"bus","stopLat":-12.1601027,"stopLon":-76.9414852,"routeNames":"8604 8616 IO30b"},{"stopId":1022563,"stopName":"Ricardo Palma","stopTypeGroup":"bus","stopLat":-12.1599766,"stopLon":-76.9394404,"routeNames":"8604 8616 IO30b"},{"stopId":984427,"stopName":"Alcides Vigo","stopTypeGroup":"bus","stopLat":-12.1598354,"stopLon":-76.9890469,"routeNames":"1376 1703-(Lima-Callao) 2702 2703 4703 7403 7505 7601 7614 7707 8706 8707 8726 8727 AS08 IO03 IO07 IO89"},{"stopId":1304482,"stopName":"Nicolás de Piérola","stopTypeGroup":"bus","stopLat":-12.1598353,"stopLon":-76.9554412,"routeNames":"8726"},{"stopId":826057,"stopName":"Escuela Militar","stopTypeGroup":"bus","stopLat":-12.1597593,"stopLon":-77.0189667,"routeNames":"C"},{"stopId":1325407,"stopName":"Los Héroes","stopTypeGroup":"bus","stopLat":-12.1596911,"stopLon":-76.9586787,"routeNames":"2804-(Lima-Callao) 7612 7709 7801 7802 7803 7807 8306 8520 8525 8621 9801-(Lima-Callao) IM22"},{"stopId":736453,"stopName":"Entrada de San Gabriel","stopTypeGroup":"bus","stopLat":-12.1595626,"stopLon":-76.9563049,"routeNames":"1057 1059 1061 1099 1491 2803 3809 3813 3814 3816 7805 8104 8105 8209 8302 8502 8523 8525 8604 8616 8706 8707 8708 8709 8712 8726 8727 9802-(Lima-Callao) IO30b NH25"},{"stopId":737330,"stopName":"Entrada de San Gabriel","stopTypeGroup":"bus","stopLat":-12.1595574,"stopLon":-76.9560206,"routeNames":"1061 3813 3814 8104 8105 8302 8604 8616 IO30b NH25 NH27p"},{"stopId":737672,"stopName":"Miguel Iglesias","stopTypeGroup":"bus","stopLat":-12.1594525,"stopLon":-76.9581234,"routeNames":"1060 1110 1376 1417 1802 1804 2805 3805 3810 7403 8110 8211 8404 8506 8507 8515 8614 8626 8701 8702 8703 8704 8711 8714 8715 8716 8717 8718 8720 8722 8724 8726 8728 8729 8803 IM06 IO28b"},{"stopId":737578,"stopName":"Miguel Iglesias","stopTypeGroup":"bus","stopLat":-12.1593686,"stopLon":-76.9589227,"routeNames":"1057 1060 1099 1110 1376 1417 1802 1804 2803 2804-(Lima-Callao) 2805 3805 3810 7403 7612 7709 7801 7802 7803 7805 7807 8110 8209 8211 8306 8404 8506 8507 8515 8520 8523 8614 8621 8626 8701 8702 8703 8704 8706 8707 8708 8709 8711 8712 8714 8715 8716"},{"stopId":1325403,"stopName":"Los Héroes","stopTypeGroup":"bus","stopLat":-12.1591011,"stopLon":-76.9586706,"routeNames":"1057 1099 2803 7805 8209 8523 8525 8706 8707 8708 8709 8712 8727"},{"stopId":1387623,"stopName":"José María Seguín","stopTypeGroup":"bus","stopLat":-12.1590382,"stopLon":-76.9712743,"routeNames":"8525"},{"stopId":1387643,"stopName":"José María Seguin","stopTypeGroup":"bus","stopLat":-12.1589963,"stopLon":-76.9716042,"routeNames":"8525"},{"stopId":1022541,"stopName":"Ricardo Palma","stopTypeGroup":"bus","stopLat":-12.158928,"stopLon":-76.93979,"routeNames":"8604 8616 IO30b"},{"stopId":739284,"stopName":"Sedapal","stopTypeGroup":"bus","stopLat":-12.1588861,"stopLon":-76.9827944,"routeNames":"1054 1058 1801-(Lima-Callao) 3705 7101 8107 8108 8109 8111 8112 8212 8214 8406 8503 8504 8505 8508 8510 8511 8513 8611 8612 8618 8619 SH24"},{"stopId":739364,"stopName":"Sedapal","stopTypeGroup":"bus","stopLat":-12.1588704,"stopLon":-76.9825959,"routeNames":"1058 1801-(Lima-Callao) 8107 8108 8109 8111 8112 8212 8214 8406 8503 8504 8505 8508 8510 8511 8513 8611 8612 8618 8619 SH24"},{"stopId":1022564,"stopName":"Jirón San Antonio","stopTypeGroup":"bus","stopLat":-12.1588649,"stopLon":-76.9378633,"routeNames":"8604 8616 IO30b"},{"stopId":1558483,"stopName":"Pizarro","stopTypeGroup":"bus","stopLat":-12.1588389,"stopLon":-76.9848973,"routeNames":"8701 8702 8709"},{"stopId":991697,"stopName":"Billinghurst","stopTypeGroup":"bus","stopLat":-12.1586366,"stopLon":-76.9732388,"routeNames":"3701 7504 7702 7703 7705 7706 7708 7709 7804 7805 7811 8525 8605 8617 8708 8712 8716 8717 8722 8723 8724 8728 IO06 IO50 OM19 OM21 OM33 OM36 OM37"},{"stopId":1304469,"stopName":"Santo Toribio","stopTypeGroup":"bus","stopLat":-12.1585662,"stopLon":-76.9578016,"routeNames":"1057 1099 2803 7805 8209 8523 8525 8706 8707 8708 8709 8712 8726 8727"},{"stopId":1387624,"stopName":"San Juan","stopTypeGroup":"bus","stopLat":-12.158464,"stopLon":-76.9731411,"routeNames":"8525"},{"stopId":1019614,"stopName":"Billinghurst","stopTypeGroup":"bus","stopLat":-12.1583516,"stopLon":-76.9733074,"routeNames":"3701 7504 7702 7703 7705 7706 7708 7709 7804 7805 7811 8605 8617 8708 8712 8716 8717 8722 8723 8724 8728 IO06 IO50 OM19 OM21 OM33 OM36 OM37"},{"stopId":737331,"stopName":"San Eugenio","stopTypeGroup":"bus","stopLat":-12.1583198,"stopLon":-76.9574958,"routeNames":"1061 3813 3814 8104 8105 8302 8604 8616 IO30b NH25 NH27p"},{"stopId":1486026,"stopName":"Sullana","stopTypeGroup":"bus","stopLat":-12.1582831,"stopLon":-76.9806111,"routeNames":"8201"},{"stopId":823662,"stopName":"Sullana","stopTypeGroup":"bus","stopLat":-12.1582044,"stopLon":-76.9802248,"routeNames":"1054 3705 7101 8201"},{"stopId":736452,"stopName":"Santo Toribio","stopTypeGroup":"bus","stopLat":-12.1580733,"stopLon":-76.9580805,"routeNames":"1059 1061 1491 2803 3809 3813 3814 3816 8104 8105 8209 8302 8502 8604 8616 8706 8707 8708 8709 9802-(Lima-Callao) IO30b NH25 NH27p"},{"stopId":1330680,"stopName":"Nicolás de Piérola","stopTypeGroup":"bus","stopLat":-12.1580313,"stopLon":-76.957638,"routeNames":"1057 1099 1491 7805 8523 8525 8712 8727"},{"stopId":737577,"stopName":"Tomás Guzmán","stopTypeGroup":"bus","stopLat":-12.1579999,"stopLon":-76.9623506,"routeNames":"1057 1060 1099 1110 1376 1417 1802 1804 2803 2804-(Lima-Callao) 2805 3805 3810 7403 7612 7709 7801 7802 7803 7805 7807 8110 8209 8211 8306 8404 8506 8507 8515 8520 8523 8614 8621 8626 8701 8702 8703 8704 8706 8707 8708 8709 8711 8712 8714 8715 8716"},{"stopId":827047,"stopName":"Pastor","stopTypeGroup":"bus","stopLat":-12.1579501,"stopLon":-77.0230463,"routeNames":"1053 1055 7103 7501 7606 7607 8308 8525"},{"stopId":1304481,"stopName":"Santa Catalina","stopTypeGroup":"bus","stopLat":-12.1579474,"stopLon":-76.9532418,"routeNames":"8726"},{"stopId":827129,"stopName":"Pastor","stopTypeGroup":"bus","stopLat":-12.1579238,"stopLon":-77.0231389,"routeNames":"1053 1055 3702 7103 7501 7606 7607 7610 8308"},{"stopId":737673,"stopName":"Tomás Guzmán","stopTypeGroup":"bus","stopLat":-12.1578845,"stopLon":-76.9619751,"routeNames":"1057 1060 1099 1110 1376 1417 1802 1804 2803 2804-(Lima-Callao) 2805 3805 3810 7403 7612 7709 7801 7802 7803 7805 7807 8110 8209 8211 8306 8404 8506 8507 8515 8520 8523 8614 8621 8626 8701 8702 8703 8704 8706 8707 8708 8709 8711 8712 8714 8715 8716"},{"stopId":1022540,"stopName":"Jirón San Antonio","stopTypeGroup":"bus","stopLat":-12.157757,"stopLon":-76.9381781,"routeNames":"8604 8616 IO30b"},{"stopId":1022539,"stopName":"Pedro Valle Medina","stopTypeGroup":"bus","stopLat":-12.1576543,"stopLon":-76.93612,"routeNames":"8604 8616 IO30b"},{"stopId":1301206,"stopName":"Santa Catalina","stopTypeGroup":"bus","stopLat":-12.15725,"stopLon":-76.9545293,"routeNames":"1057 1059 1099 1491 2803 3809 3816 7805 8209 8502 8523 8525 8706 8707 8708 8709 8712 8726 8727 9802-(Lima-Callao)"},{"stopId":1196277,"stopName":"Segura","stopTypeGroup":"bus","stopLat":-12.1570849,"stopLon":-76.9849326,"routeNames":"8701 8702 8709"},{"stopId":991698,"stopName":"Joaquín Bernal","stopTypeGroup":"bus","stopLat":-12.1568583,"stopLon":-76.972899,"routeNames":"3701 7504 7702 7703 7705 7706 7708 7709 7804 7805 7811 8605 8617 8708 8712 8716 8717 8722 8723 8724 8728 IO06 IO50 OM19 OM21 OM33 OM36 OM37"},{"stopId":1309410,"stopName":"Pedro Valle Medina","stopTypeGroup":"bus","stopLat":-12.15681,"stopLon":-76.9367143,"routeNames":"8604 8616 IO30b"},{"stopId":1193673,"stopName":"San Juan","stopTypeGroup":"bus","stopLat":-12.1567565,"stopLon":-76.973039,"routeNames":"OM19 OM21 OM36 OM37"},{"stopId":1019613,"stopName":"Joaquín Bernal","stopTypeGroup":"bus","stopLat":-12.1566732,"stopLon":-76.9729289,"routeNames":"3701 7504 7702 7703 7705 7706 7708 7709 7804 7805 7811 8605 8617 8708 8712 8716 8717 8722 8723 8724 8728 IO06 IO50 OM33"},{"stopId":738100,"stopName":"San Juan","stopTypeGroup":"metro","stopLat":-12.1565735,"stopLon":-76.9655639,"routeNames":"Línea-1"},{"stopId":1196286,"stopName":"Terminal Atocongo","stopTypeGroup":"bus","stopLat":-12.1565643,"stopLon":-76.9847848,"routeNames":"8701 8702 8709"},{"stopId":737576,"stopName":"San Juan","stopTypeGroup":"bus","stopLat":-12.1565578,"stopLon":-76.9659019,"routeNames":"1057 1060 1099 1110 1376 1417 1802 1804 2803 2804-(Lima-Callao) 2805 3805 3810 7403 7612 7709 7801 7802 7803 7805 7807 8110 8209 8211 8306 8404 8506 8507 8515 8520 8523 8614 8621 8626 8701 8702 8703 8704 8706 8707 8708 8709 8711 8712 8714 8715 8716"},{"stopId":1513688,"stopName":"Terminal Terrestre Atocongo","stopTypeGroup":"bus","stopLat":-12.1565186,"stopLon":-76.9841592,"routeNames":"Arequipa-Lima-(CIVA) Arequipa-Lima-(Cruz-del-Sur) Cotahuasi-Lima-(Don-Abraham) Lima-Cusco-(Perú-Hop) Lima-Cusco-(Wari-Palomino) Lima-Marcona Lima-Nazca-(Palomino) Rio-de-Janeiro-Lima"},{"stopId":737674,"stopName":"San Juan","stopTypeGroup":"bus","stopLat":-12.1564424,"stopLon":-76.9654566,"routeNames":"1057 1060 1099 1110 1376 1417 1802 1804 2803 2804-(Lima-Callao) 2805 3805 3810 7403 7612 7709 7801 7802 7803 7805 7807 8110 8209 8211 8306 8404 8506 8507 8515 8520 8523 8614 8621 8626 8701 8702 8703 8704 8706 8707 8708 8709 8711 8712 8714 8715 8716"},{"stopId":982248,"stopName":"Playa Las Sombrillas","stopTypeGroup":"bus","stopLat":-12.1563039,"stopLon":-77.0251865,"routeNames":"AS10"},{"stopId":827046,"stopName":"Independencia","stopTypeGroup":"bus","stopLat":-12.1562903,"stopLon":-77.0228076,"routeNames":"1053 1055 7103 7501 7606 7607 8308 8525"},{"stopId":984424,"stopName":"La Cruceta","stopTypeGroup":"bus","stopLat":-12.1562165,"stopLon":-76.9900929,"routeNames":"1376 1703-(Lima-Callao) 2702 2703 4703 7403 7505 7601 7614 7707 8706 8707 8726 8727 AS08 IO03 IO07 IO89"},{"stopId":984426,"stopName":"La Cruceta","stopTypeGroup":"bus","stopLat":-12.1561533,"stopLon":-76.9903084,"routeNames":"1376 1703-(Lima-Callao) 2702 2703 4703 7403 7505 7601 7614 7707 8706 8707 8726 8727 AS08 IO03 IO07 IO89"},{"stopId":827128,"stopName":"Independencia","stopTypeGroup":"bus","stopLat":-12.1561369,"stopLon":-77.02288,"routeNames":"1053 1055 3702 7103 7501 7606 7607 7610 8308 8525"},{"stopId":1193672,"stopName":"Jaramillo","stopTypeGroup":"bus","stopLat":-12.1560565,"stopLon":-76.9748093,"routeNames":"OM19 OM21 OM36 OM37"},{"stopId":2068412,"stopName":"Terminal Palomino - San Juan","stopTypeGroup":"bus","stopLat":-12.155857662553824,"stopLon":-76.96626394987108},{"stopId":737332,"stopName":"Julio César Tello","stopTypeGroup":"bus","stopLat":-12.1558393,"stopLon":-76.960457,"routeNames":"1061 1491 3813 3814 8104 8105 8302 8604 8616 IO30b NH25 NH27p"},{"stopId":736451,"stopName":"Julio César Tello","stopTypeGroup":"bus","stopLat":-12.1557187,"stopLon":-76.9608486,"routeNames":"1059 1061 1491 3809 3813 3814 3816 8104 8105 8302 8502 8604 8616 9802-(Lima-Callao) IO30b NH25 NH27p"},{"stopId":1309705,"stopName":"Avelino Cáceres","stopTypeGroup":"bus","stopLat":-12.1556505,"stopLon":-76.95557,"routeNames":"1057 1099 1491 7805 8523 8525 8712 8727"},{"stopId":1301229,"stopName":"Nicolás de Piérola","stopTypeGroup":"bus","stopLat":-12.1556191,"stopLon":-76.9603765,"routeNames":"1059 2803 3809 3816 8209 8502 8706 8707 8708 8709 9802-(Lima-Callao)"},{"stopId":1304480,"stopName":"Manco Cápac","stopTypeGroup":"bus","stopLat":-12.1554408,"stopLon":-76.9503129,"routeNames":"8726"},{"stopId":1196276,"stopName":"Javier Herauld","stopTypeGroup":"bus","stopLat":-12.1552631,"stopLon":-76.9875554,"routeNames":"8701 8702 8709"},{"stopId":823664,"stopName":"Mall del Sur","stopTypeGroup":"bus","stopLat":-12.1552048,"stopLon":-76.9827729,"routeNames":"1054 3705 7101 8201"},{"stopId":1486023,"stopName":"Mall del Sur","stopTypeGroup":"bus","stopLat":-12.1547695,"stopLon":-76.9833094,"routeNames":"8201"},{"stopId":1196287,"stopName":"Heraud","stopTypeGroup":"bus","stopLat":-12.1547405,"stopLon":-76.9871253,"routeNames":"8701 8702 8709"},{"stopId":991699,"stopName":"Ciudad","stopTypeGroup":"bus","stopLat":-12.1543867,"stopLon":-76.9718931,"routeNames":"3701 7504 7702 7703 7705 7706 7708 7709 7804 7805 7811 8605 8617 8708 8712 8716 8717 8722 8723 8724 8728 IO06 IO50 OM19 OM21 OM33 OM36 OM37"},{"stopId":1301207,"stopName":"Mariano Melgar","stopTypeGroup":"bus","stopLat":-12.1543709,"stopLon":-76.9525498,"routeNames":"1057 1059 1099 1491 2803 3809 3816 7805 8209 8502 8523 8525 8706 8707 8708 8709 8712 8726 8727 9802-(Lima-Callao)"},{"stopId":739283,"stopName":"Próceres","stopTypeGroup":"bus","stopLat":-12.1543631,"stopLon":-76.9839799,"routeNames":"1054 1058 1801-(Lima-Callao) 3705 7101 8107 8108 8109 8111 8112 8212 8214 8406 8503 8504 8505 8508 8510 8511 8513 8611 8612 8618 8619 Lima-Arequipa-(Flores-Hermanos) SH24"},{"stopId":1301228,"stopName":"Andrés Avelino Cáceres","stopTypeGroup":"bus","stopLat":-12.1543605,"stopLon":-76.9571042,"routeNames":"1059 2803 3809 3816 8209 8502 8706 8707 8708 8709 9802-(Lima-Callao)"},{"stopId":827048,"stopName":"Museo","stopTypeGroup":"bus","stopLat":-12.1542713,"stopLon":-77.0230865,"routeNames":"1053 1055 7103 7501 7606 7607 8308 8525"},{"stopId":737573,"stopName":"Ciudad","stopTypeGroup":"bus","stopLat":-12.1541114,"stopLon":-76.9720575,"routeNames":"1057 1060 1099 1110 1376 1802 1804 2803 2804-(Lima-Callao) 2805 3701 3805 3810 7403 7504 7612 7613 7707 8110 8209 8211 8306 8404 8506 8507 8515 8520 8523 8605 8614 8617 8621 8626 8701 8702 8703 8704 8706 8707 8709 8711 8714 8715 8726 8727 8729 8803"},{"stopId":827126,"stopName":"Museo","stopTypeGroup":"bus","stopLat":-12.1540956,"stopLon":-77.0231657,"routeNames":"1053 1055 3702 7103 7501 7606 7607 7610 8308 8525"},{"stopId":737677,"stopName":"Ciudad","stopTypeGroup":"bus","stopLat":-12.1539409,"stopLon":-76.971615,"routeNames":"1057 1060 1099 1110 1376 1417 1802 1804 2803 2804-(Lima-Callao) 2805 3805 3810 7403 7612 7709 7801 7802 7803 7805 7807 8110 8209 8211 8306 8404 8506 8507 8515 8520 8523 8614 8621 8626 8701 8702 8703 8704 8706 8707 8708 8709 8711 8712 8714 8715 8716"},{"stopId":1193671,"stopName":"Bernal","stopTypeGroup":"bus","stopLat":-12.1537356,"stopLon":-76.9781068,"routeNames":"OM19 OM21 OM36 OM37"},{"stopId":1307139,"stopName":"Ciudad","stopTypeGroup":"bus","stopLat":-12.153613,"stopLon":-76.9717387,"routeNames":"1417 7613 7702 7703 7705 7706 7707 7708 7801 7802 7803 7804 7807 7811 8718 8720 8723"},{"stopId":1309704,"stopName":"Pando Egúsquiza","stopTypeGroup":"bus","stopLat":-12.1535004,"stopLon":-76.9538963,"routeNames":"1057 1099 1491 7805 8523 8525 8712 8727"},{"stopId":1304478,"stopName":"Santa Rosa Alta","stopTypeGroup":"bus","stopLat":-12.153427,"stopLon":-76.9495726,"routeNames":"8726"},{"stopId":984425,"stopName":"Paseo de la República","stopTypeGroup":"bus","stopLat":-12.1531485,"stopLon":-76.9899532,"routeNames":"1376 1703-(Lima-Callao) 2702 2703 4703 7403 7505 7601 7614 7707 8701 8702 8706 8707 8709 8726 8727 AS08 IO03 IO07 IO89"},{"stopId":826056,"stopName":"Estadio Unión","stopTypeGroup":"bus","stopLat":-12.1529576,"stopLon":-77.0196936,"routeNames":"C"},{"stopId":1196288,"stopName":"Próceres","stopTypeGroup":"bus","stopLat":-12.1529501,"stopLon":-76.9895576,"routeNames":"8701 8702 8709"},{"stopId":1301227,"stopName":"Cajamarca","stopTypeGroup":"bus","stopLat":-12.1527348,"stopLon":-76.9553876,"routeNames":"1059 2803 3809 3816 8209 8502 8706 8707 8708 8709 9802-(Lima-Callao)"},{"stopId":739365,"stopName":"Próceres","stopTypeGroup":"bus","stopLat":-12.1527138,"stopLon":-76.983583,"routeNames":"1054 1058 1801-(Lima-Callao) 3705 7101 8107 8108 8109 8111 8112 8201 8212 8214 8406 8503 8504 8505 8508 8510 8511 8513 8611 8612 8618 8619 Lima-Arequipa-(Flores-Hermanos) SH24"},{"stopId":737333,"stopName":"Canevaro","stopTypeGroup":"bus","stopLat":-12.1526823,"stopLon":-76.9643033,"routeNames":"1059 1061 1491 3809 3813 3814 3816 8104 8105 8302 8502 8604 8616 9802-(Lima-Callao) IO30b NH25 NH27p"},{"stopId":736450,"stopName":"Canevaro","stopTypeGroup":"bus","stopLat":-12.1525932,"stopLon":-76.964888,"routeNames":"1059 1061 1491 3809 3813 3814 3816 8104 8105 8302 8502 8604 8616 9802-(Lima-Callao) IO30b NH25 NH27p"},{"stopId":737572,"stopName":"Buckingham","stopTypeGroup":"bus","stopLat":-12.1521841,"stopLon":-76.976577,"routeNames":"1057 1060 1099 1110 1376 1802 1804 2803 2804-(Lima-Callao) 2805 3701 3805 3810 7403 7504 7612 7613 7707 8110 8209 8211 8306 8404 8506 8507 8515 8520 8523 8605 8614 8617 8621 8626 8701 8702 8703 8704 8706 8707 8709 8711 8714 8715 8726 8727 8729 8803"},{"stopId":737678,"stopName":"Buckingham","stopTypeGroup":"bus","stopLat":-12.1520923,"stopLon":-76.9762713,"routeNames":"1057 1060 1099 1110 1376 1802 1804 2803 2804-(Lima-Callao) 2805 3701 3805 3810 7403 7504 7612 7613 7707 8110 8209 8211 8306 8404 8506 8507 8515 8520 8523 8605 8614 8617 8621 8626 8701 8702 8703 8704 8706 8707 8709 8711 8714 8715 8726 8727 8729 8803"},{"stopId":1006138,"stopName":"Playa Los Yuyos","stopTypeGroup":"bus","stopLat":-12.151891,"stopLon":-77.0246813,"routeNames":"AS10"},{"stopId":947936,"stopName":"Tristán y Moscoso","stopTypeGroup":"bus","stopLat":-12.1516119,"stopLon":-76.9887739,"routeNames":"1376 1703-(Lima-Callao) 2702 2703 4703 7403 7505 7601 7614 7707 8701 8702 8706 8707 8709 8726 8727 AS08 IO03 IO07 IO89"},{"stopId":1307138,"stopName":"Mercado Señor de Murhuay","stopTypeGroup":"bus","stopLat":-12.1513346,"stopLon":-76.9709873,"routeNames":"1417 7613 7702 7703 7705 7706 7707 7708 7801 7802 7803 7804 7807 7811 8718 8720 8723"},{"stopId":1307137,"stopName":"Mercado Señor de Murhuay","stopTypeGroup":"bus","stopLat":-12.1513241,"stopLon":-76.9711053,"routeNames":"1417 7613 7702 7703 7705 7706 7707 7708 7801 7802 7803 7804 7807 7811 8718 8720 8723"},{"stopId":1304477,"stopName":"Montalvo","stopTypeGroup":"bus","stopLat":-12.1512559,"stopLon":-76.9499695,"routeNames":"8726"},{"stopId":827050,"stopName":"28 de Julio","stopTypeGroup":"bus","stopLat":-12.1511982,"stopLon":-77.0221585,"routeNames":"1053 1055 7103 7501 7606 7607 8308 8525"},{"stopId":1301226,"stopName":"Julio César Tello","stopTypeGroup":"bus","stopLat":-12.1511195,"stopLon":-76.9539285,"routeNames":"1057 1059 1099 1491 2803 3809 3816 7805 8209 8502 8523 8525 8706 8707 8708 8709 8712 8727 9802-(Lima-Callao)"},{"stopId":827125,"stopName":"28 de Julio","stopTypeGroup":"bus","stopLat":-12.1509884,"stopLon":-77.0221102,"routeNames":"1053 1055 3702 7103 7501 7606 7607 7610 8308 8525"},{"stopId":738096,"stopName":"Atocongo","stopTypeGroup":"metro","stopLat":-12.1509517,"stopLon":-76.9792432,"routeNames":"Línea-1"},{"stopId":737571,"stopName":"Estación Atocongo","stopTypeGroup":"bus","stopLat":-12.1509386,"stopLon":-76.9799942,"routeNames":"1057 1060 1099 1110 1376 1802 1804 2803 2804-(Lima-Callao) 2805 3701 3805 3810 7403 7504 7612 7613 7707 8110 8209 8211 8306 8404 8506 8507 8515 8520 8523 8605 8614 8617 8621 8626 8701 8702 8703 8704 8706 8707 8709 8711 8714 8715 8726 8727 8729 8803"},{"stopId":1301208,"stopName":"2 de Mayo","stopTypeGroup":"bus","stopLat":-12.1509203,"stopLon":-76.9513214,"routeNames":"1057 1059 1099 1491 2803 3809 3816 7805 8209 8502 8523 8525 8706 8707 8708 8709 8712 8726 8727 9802-(Lima-Callao)"},{"stopId":1301225,"stopName":"I.E José Carlos Mariátegui","stopTypeGroup":"bus","stopLat":-12.1508154,"stopLon":-76.9518739,"routeNames":"1057 1059 1099 1491 2803 3809 3816 7805 8209 8502 8523 8525 8706 8707 8708 8709 8712 8727 9802-(Lima-Callao)"},{"stopId":737679,"stopName":"Estación Atocongo","stopTypeGroup":"bus","stopLat":-12.150721,"stopLon":-76.9794953,"routeNames":"1057 1060 1099 1110 1376 1802 1804 2803 2804-(Lima-Callao) 2805 3701 3805 3810 7403 7504 7612 7613 7707 8110 8209 8211 8306 8404 8506 8507 8515 8520 8523 8605 8614 8617 8621 8626 8701 8702 8703 8704 8706 8707 8709 8711 8714 8715 8726 8727 8729 8803"},{"stopId":736449,"stopName":"Piérola","stopTypeGroup":"bus","stopLat":-12.1506685,"stopLon":-76.9671464,"routeNames":"1059 1061 1491 3809 3813 3814 3816 8104 8105 8302 8502 8604 8616 9802-(Lima-Callao) IO30b NH25 NH27p"},{"stopId":827342,"stopName":"Fernando Faustor","stopTypeGroup":"bus","stopLat":-12.1503277,"stopLon":-77.0068485,"routeNames":"3805 7103 8604 8626 8729"},{"stopId":737334,"stopName":"Julio Rodríguez","stopTypeGroup":"bus","stopLat":-12.1501074,"stopLon":-76.9673342,"routeNames":"1059 1061 1491 3809 3813 3814 3816 8104 8105 8302 8502 8604 8616 9802-(Lima-Callao) IO30b NH25 NH27p"},{"stopId":739366,"stopName":"Atocongo","stopTypeGroup":"bus","stopLat":-12.1497429,"stopLon":-76.9829687,"routeNames":"1054 1058 1801-(Lima-Callao) 3705 7101 8107 8108 8109 8111 8112 8201 8212 8214 8406 8503 8504 8505 8508 8510 8511 8513 8611 8612 8618 8619 Lima-Ica-(Perú-Bus) SH24"},{"stopId":827340,"stopName":"Daniel Cornejo","stopTypeGroup":"bus","stopLat":-12.1497141,"stopLon":-77.0078248,"routeNames":"3805 7103 8604 8626 8729"},{"stopId":737570,"stopName":"Atocongo","stopTypeGroup":"bus","stopLat":-12.149541,"stopLon":-76.9833308,"routeNames":"1054 1058 1801-(Lima-Callao) 1802 2804-(Lima-Callao) 2805 3705 7101 8107 8108 8109 8110 8111 8112 8209 8211 8212 8214 8404 8406 8503 8504 8505 8506 8507 8508 8510 8511 8513 8618 IM06 Lima-Ica-(Perú-Bus)"},{"stopId":1313442,"stopName":"Jorge Chávez","stopTypeGroup":"bus","stopLat":-12.1495253,"stopLon":-77.0075405,"routeNames":"8604 8729"},{"stopId":1308951,"stopName":"Juan Pazos","stopTypeGroup":"bus","stopLat":-12.1495148,"stopLon":-77.0189667,"routeNames":"1053"},{"stopId":1332619,"stopName":"Manuel Medrano","stopTypeGroup":"bus","stopLat":-12.1494624,"stopLon":-76.9722641,"routeNames":"8723"},{"stopId":827051,"stopName":"Parque de Barranco","stopTypeGroup":"bus","stopLat":-12.1491005,"stopLon":-77.0209622,"routeNames":"1055 7103 7501 7606 7607 8308 8525"},{"stopId":827124,"stopName":"Parque de Barranco","stopTypeGroup":"bus","stopLat":-12.1490638,"stopLon":-77.0217186,"routeNames":"1053 1055 3702 7103 7501 7606 7607 7610 8308 8525"},{"stopId":826050,"stopName":"Bulevar","stopTypeGroup":"bus","stopLat":-12.1487334,"stopLon":-77.0201281,"routeNames":"C L"},{"stopId":1313443,"stopName":"Makro","stopTypeGroup":"bus","stopLat":-12.1486705,"stopLon":-77.0092195,"routeNames":"8604 8729"},{"stopId":827339,"stopName":"Makro","stopTypeGroup":"bus","stopLat":-12.1486679,"stopLon":-77.0094153,"routeNames":"3805 7103 8604 8626 8729"},{"stopId":1307136,"stopName":"Defensores de Lima","stopTypeGroup":"bus","stopLat":-12.1484502,"stopLon":-76.9696462,"routeNames":"1417 7613 7702 7703 7705 7706 7707 7708 7801 7802 7803 7804 7807 7811 8718 8720"},{"stopId":1301210,"stopName":"José María Arguedas","stopTypeGroup":"bus","stopLat":-12.1483191,"stopLon":-76.9455653,"routeNames":"8502 8523 8712 9802-(Lima-Callao)"},{"stopId":1332618,"stopName":"DIVINCRI San Juan de Miraflores","stopTypeGroup":"bus","stopLat":-12.1482457,"stopLon":-76.9758153,"routeNames":"8723"},{"stopId":737335,"stopName":"San Juan","stopTypeGroup":"bus","stopLat":-12.1481985,"stopLon":-76.9691795,"routeNames":"1059 1061 1491 3809 3813 3814 3816 8104 8105 8302 8502 8604 8616 9802-(Lima-Callao) IO30b NH25 NH27p"},{"stopId":736448,"stopName":"San Juan","stopTypeGroup":"bus","stopLat":-12.1481828,"stopLon":-76.969732,"routeNames":"1059 1061 1491 1702 3809 3813 3814 3816 7613 7705 7706 7708 7804 8104 8105 8302 8502 8604 8616 8718 8720 9802-(Lima-Callao) IO30b NH25 NH27p"},{"stopId":947959,"stopName":"Bolichera","stopTypeGroup":"bus","stopLat":-12.1481568,"stopLon":-76.9861938,"routeNames":"1376 1703-(Lima-Callao) 1706 2702 2703 4703 7403 7505 7601 7614 7707 8701 8702 8706 8707 8709 8726 8727 IO03 IO07 IO89"},{"stopId":817729,"stopName":"Allende","stopTypeGroup":"bus","stopLat":-12.1479572,"stopLon":-76.9692439,"routeNames":"1417 1702 7702 7703 7707 7801 7802 7803 7807 7811"},{"stopId":827156,"stopName":"La Bolichera","stopTypeGroup":"bus","stopLat":-12.1478419,"stopLon":-76.9857931,"routeNames":"1057 1099 1110 1376 1804 2803 3701 3805 7403 7504 7612 7613 7707 8201 8306 8515 8520 8523 8605 8611 8612 8614 8617 8619 8621 8626 8701 8702 8703 8704 8706 8707 8709 8711 8714 8715 8726 8727 8729 8803 9801-(Lima-Callao) IM22 IO06 IO28b IO50 OM19 OM2"},{"stopId":827352,"stopName":"Bolichera","stopTypeGroup":"bus","stopLat":-12.1477593,"stopLon":-76.9863175,"routeNames":"1057 1060 1099 1110 1804 2703 2803 3805 3810 4703 7505 7612 7613 8201 8306 8520 8605 8611 8612 8614 8617 8619 8621 8626 8703 8704 8711 8714 8715 8729 8803 9801-(Lima-Callao) IM22 IO06 IO28b OM33 SH24"},{"stopId":1301224,"stopName":"Complejo Deportivo Villa María del Triunfo","stopTypeGroup":"bus","stopLat":-12.1477213,"stopLon":-76.9511712,"routeNames":"1057 1059 1099 1491 2803 3809 3816 7805 8209 8502 8523 8525 8706 8707 8708 8709 8712 8726 8727 9802-(Lima-Callao)"},{"stopId":1034438,"stopName":"Bolichera","stopTypeGroup":"bus","stopLat":-12.1474713,"stopLon":-76.9859903,"routeNames":"1703-(Lima-Callao) 1706 2702 3701 7504 7601 7614 8515 8523 8803 IO03 IO07 IO50 IO89 OM19 OM21 OM36 OM37"},{"stopId":1313441,"stopName":"Mansilla","stopTypeGroup":"bus","stopLat":-12.1474066,"stopLon":-77.0061994,"routeNames":"8604 8729"},{"stopId":827343,"stopName":"Mariscal Cáceres","stopTypeGroup":"bus","stopLat":-12.1472283,"stopLon":-77.0052767,"routeNames":"3805 7103 8604 8626 8729"},{"stopId":1310968,"stopName":"Luis Pardo","stopTypeGroup":"bus","stopLat":-12.1471444,"stopLon":-76.9464827,"routeNames":"8502"},{"stopId":1313444,"stopName":"Roosvelt","stopTypeGroup":"bus","stopLat":-12.1471024,"stopLon":-77.0115718,"routeNames":"8604 8729"},{"stopId":827170,"stopName":"Jorge Chávez","stopTypeGroup":"bus","stopLat":-12.1470133,"stopLon":-77.0115316,"routeNames":"3805 7103 8626"},{"stopId":1308952,"stopName":"Plaza Raimondi","stopTypeGroup":"bus","stopLat":-12.1470122,"stopLon":-77.0178043,"routeNames":"1053 3702 7610"},{"stopId":827338,"stopName":"Roosevelt","stopTypeGroup":"bus","stopLat":-12.1469399,"stopLon":-77.0119715,"routeNames":"3805 7103 8604 8626 8729"},{"stopId":827123,"stopName":"Alfonso Ugarte","stopTypeGroup":"bus","stopLat":-12.1468979,"stopLon":-77.0225447,"routeNames":"1053 1055 3702 7103 7501 7606 7607 7610 8308 8525"},{"stopId":1301211,"stopName":"Luis Pardo","stopTypeGroup":"bus","stopLat":-12.1466934,"stopLon":-76.9455814,"routeNames":"8502 8523 8712 9802-(Lima-Callao)"},{"stopId":1332617,"stopName":"César Rodriguez","stopTypeGroup":"bus","stopLat":-12.1466514,"stopLon":-76.9772959,"routeNames":"8723"},{"stopId":1331904,"stopName":"Amarilis","stopTypeGroup":"bus","stopLat":-12.1466357,"stopLon":-76.9452703},{"stopId":736447,"stopName":"Central","stopTypeGroup":"bus","stopLat":-12.146557,"stopLon":-76.9712019,"routeNames":"1059 1061 1491 1702 1704 3809 3813 3814 3816 7204 7705 7706 7708 7804 8104 8105 8302 8502 8604 8616 8718 8720 9802-(Lima-Callao) IO30b NH25 NH27p"},{"stopId":737336,"stopName":"Central","stopTypeGroup":"bus","stopLat":-12.1465256,"stopLon":-76.9706762,"routeNames":"1059 1061 1491 1702 3809 3813 3814 3816 7613 7705 7706 7708 7804 8104 8105 8302 8502 8604 8616 8718 8720 9802-(Lima-Callao) IO30b NH25 NH27p"},{"stopId":1307135,"stopName":"Defensores de Lima","stopTypeGroup":"bus","stopLat":-12.1463,"stopLon":-76.9707513,"routeNames":"7204 7613"},{"stopId":1313440,"stopName":"Mariscal Cáceres","stopTypeGroup":"bus","stopLat":-12.1459644,"stopLon":-77.0062798,"routeNames":"8604 8729"},{"stopId":827052,"stopName":"Colina","stopTypeGroup":"bus","stopLat":-12.1459592,"stopLon":-77.0217294,"routeNames":"1055 7103 7501 7606 7607 8308 8525"},{"stopId":1683401,"stopName":"Primavera","stopTypeGroup":"bus","stopLat":-12.1458333,"stopLon":-76.9511712,"routeNames":"3816"},{"stopId":827171,"stopName":"Mercado Nº 2 Surco","stopTypeGroup":"bus","stopLat":-12.1457337,"stopLon":-77.0132428,"routeNames":"3805 7103 8604 8626 8729"},{"stopId":827337,"stopName":"Mercado Nº 2 Surco","stopTypeGroup":"bus","stopLat":-12.1457232,"stopLon":-77.0134038,"routeNames":"3805 7103 8604 8626 8729"},{"stopId":827157,"stopName":"El Sol","stopTypeGroup":"bus","stopLat":-12.1456288,"stopLon":-76.9883613,"routeNames":"1057 1060 1099 1110 1804 2703 2803 3805 3810 4703 7505 7612 7613 8201 8306 8520 8605 8611 8612 8614 8617 8619 8621 8626 8703 8704 8711 8714 8715 8729 8803 9801-(Lima-Callao) IM22 IO06 IO28b OM33 SH24"},{"stopId":737680,"stopName":"Tinoco","stopTypeGroup":"bus","stopLat":-12.1455894,"stopLon":-76.9817939,"routeNames":"1054 1058 1801-(Lima-Callao) 1802 2804-(Lima-Callao) 2805 3705 7101 8107 8108 8109 8110 8111 8112 8209 8211 8212 8214 8404 8406 8503 8504 8505 8506 8507 8508 8510 8511 8513 8618 IM06"},{"stopId":737569,"stopName":"Tinoco","stopTypeGroup":"bus","stopLat":-12.1455711,"stopLon":-76.9820863,"routeNames":"1054 1058 1801-(Lima-Callao) 1802 2804-(Lima-Callao) 2805 3705 7101 8107 8108 8109 8110 8111 8112 8209 8211 8212 8214 8404 8406 8503 8504 8505 8506 8507 8508 8510 8511 8513 8618 IM06"},{"stopId":827351,"stopName":"El Sol","stopTypeGroup":"bus","stopLat":-12.1455318,"stopLon":-76.9886081,"routeNames":"1057 1060 1099 1110 1804 2703 2803 3805 3810 4703 7505 7612 7613 8201 8306 8520 8605 8611 8612 8614 8617 8619 8621 8626 8703 8704 8711 8714 8715 8729 8803 9801-(Lima-Callao) IM22 IO06 IO28b OM33 SH24"},{"stopId":736446,"stopName":"Edilberto Ramos","stopTypeGroup":"bus","stopLat":-12.1454295,"stopLon":-76.9722265,"routeNames":"1059 1061 1491 1702 1704 3809 3813 3814 3816 7204 7705 7706 7708 7804 8104 8105 8302 8502 8604 8616 8718 8720 9802-(Lima-Callao) IO30b NH25 NH27p"},{"stopId":737337,"stopName":"Edilberto Ramos","stopTypeGroup":"bus","stopLat":-12.1453403,"stopLon":-76.9717544,"routeNames":"1059 1061 1491 1702 3809 3813 3814 3816 7204 7705 7706 7708 7804 8104 8105 8302 8502 8604 8616 8718 8720 9802-(Lima-Callao) IO30b NH25 NH27p"},{"stopId":1332616,"stopName":"Ismael Pagador","stopTypeGroup":"bus","stopLat":-12.1450152,"stopLon":-76.9767916,"routeNames":"8723"},{"stopId":817710,"stopName":"José Gálvez","stopTypeGroup":"bus","stopLat":-12.1450099,"stopLon":-76.9658321,"routeNames":"1417 1702 7702 7703 7707 7801 7802 7803 7807 7811"},{"stopId":827169,"stopName":"Corbeta La Unión","stopTypeGroup":"bus","stopLat":-12.144968,"stopLon":-77.0082915,"routeNames":"3805 7103 8626"},{"stopId":827344,"stopName":"Arica","stopTypeGroup":"bus","stopLat":-12.1448998,"stopLon":-77.0037639,"routeNames":"3805 7103 8604 8626 8729"},{"stopId":1311964,"stopName":"Luis Pardo","stopTypeGroup":"bus","stopLat":-12.1448893,"stopLon":-76.9544005,"routeNames":"3816"},{"stopId":1301212,"stopName":"Las Magnolias","stopTypeGroup":"bus","stopLat":-12.1448631,"stopLon":-76.9455922,"routeNames":"8502 8523 8712 9802-(Lima-Callao)"},{"stopId":817728,"stopName":"José Gálvez","stopTypeGroup":"bus","stopLat":-12.1448211,"stopLon":-76.9657892,"routeNames":"1417 1702 7702 7703 7707 7801 7802 7803 7807 7811"},{"stopId":1309716,"stopName":"José Olaya","stopTypeGroup":"bus","stopLat":-12.1446271,"stopLon":-76.9499159,"routeNames":"1057 1059 1099 2803 3809 3816 7805 8209 8706 8707 8708 8709 8726 8727"},{"stopId":1301223,"stopName":"Los Laureles","stopTypeGroup":"bus","stopLat":-12.1445851,"stopLon":-76.946708,"routeNames":"8502 8523 8712 9802-(Lima-Callao)"},{"stopId":1301216,"stopName":"Los Próceres","stopTypeGroup":"bus","stopLat":-12.1445851,"stopLon":-76.9386721,"routeNames":"8712 9802-(Lima-Callao)"},{"stopId":1307134,"stopName":"Las Esmeraldas","stopTypeGroup":"bus","stopLat":-12.1445275,"stopLon":-76.9685894,"routeNames":"1704 7204 7613"},{"stopId":736445,"stopName":"Pebal","stopTypeGroup":"bus","stopLat":-12.1444593,"stopLon":-76.9731063,"routeNames":"1059 1061 1491 1702 1704 3809 3813 3814 3816 7204 8104 8105 8302 8502 8604 8616 8723 9802-(Lima-Callao) IO30b NH25 NH27p"},{"stopId":737338,"stopName":"Solidaridad","stopTypeGroup":"bus","stopLat":-12.1443701,"stopLon":-76.9726503,"routeNames":"1059 1061 1491 1702 3809 3813 3814 3816 7204 7705 7706 7708 7804 8104 8105 8302 8502 8604 8616 8718 8720 9802-(Lima-Callao) IO30b NH25 NH27p"},{"stopId":1307133,"stopName":"Las Esmeraldas","stopTypeGroup":"bus","stopLat":-12.1443334,"stopLon":-76.9685358,"routeNames":"7204 7613"},{"stopId":1312623,"stopName":"Defensores de Lima","stopTypeGroup":"bus","stopLat":-12.1442023,"stopLon":-76.9726396,"routeNames":"1704 7705 7706 7708 7804 8718 8720 8723"},{"stopId":1308953,"stopName":"Plaza Butters","stopTypeGroup":"bus","stopLat":-12.1439156,"stopLon":-77.0156234,"routeNames":"1053 3702 7610"},{"stopId":827172,"stopName":"Plaza Butters","stopTypeGroup":"bus","stopLat":-12.1438483,"stopLon":-77.0153564,"routeNames":"3805 7103 8604 8626 8729"},{"stopId":1309712,"stopName":"Tingo María","stopTypeGroup":"bus","stopLat":-12.1437041,"stopLon":-76.9501895,"routeNames":"1057 1059 1099 2803 3809 7805 8209 8706 8707 8708 8709 8726 8727"},{"stopId":1332615,"stopName":"Abraha Ballenas","stopTypeGroup":"bus","stopLat":-12.1436831,"stopLon":-76.9756436,"routeNames":"8723"},{"stopId":827053,"stopName":"Cajamarca","stopTypeGroup":"bus","stopLat":-12.1436307,"stopLon":-77.0219439,"routeNames":"1055 7103 7501 7606 7607 8308 8525"},{"stopId":1301213,"stopName":"José Olaya","stopTypeGroup":"bus","stopLat":-12.1436044,"stopLon":-76.9457316,"routeNames":"8502 8523 8712 9802-(Lima-Callao)"},{"stopId":1034439,"stopName":"Tinoco","stopTypeGroup":"bus","stopLat":-12.1435362,"stopLon":-76.9851405,"routeNames":"1703-(Lima-Callao) 1706 2702 3701 7504 7601 7614 8515 8523 8803 IO03 IO07 IO50 IO89 OM18 OM19 OM21 OM36 OM37"},{"stopId":827345,"stopName":"Plaza Vea (Ayacucho)","stopTypeGroup":"bus","stopLat":-12.1434157,"stopLon":-77.0027608,"routeNames":"3805 7103 8604 8626 8729"},{"stopId":827163,"stopName":"Plaza Vea (Ayacucho)","stopTypeGroup":"bus","stopLat":-12.1431587,"stopLon":-77.0027715,"routeNames":"3805 7103 8604 8626 8729"},{"stopId":1034437,"stopName":"Tinoco","stopTypeGroup":"bus","stopLat":-12.143109,"stopLon":-76.9851965,"routeNames":"1703-(Lima-Callao) 1706 2702 3701 7504 7601 7614 8515 8523 8803 IO03 IO07 IO50 IO89 OM18 OM19 OM21 OM36 OM37"},{"stopId":735442,"stopName":"Plaza Butters","stopTypeGroup":"bus","stopLat":-12.1430957,"stopLon":-77.016212,"routeNames":"301 3805 7103 8604 8626 8729"},{"stopId":827122,"stopName":"Sáenz Peña","stopTypeGroup":"bus","stopLat":-12.1430643,"stopLon":-77.0231616,"routeNames":"1053 1055 3702 7103 7501 7606 7607 7610 8308 8525"},{"stopId":827168,"stopName":"San Pedrito","stopTypeGroup":"bus","stopLat":-12.1429122,"stopLon":-77.0074707,"routeNames":"3805 7103 8626"},{"stopId":1309703,"stopName":"Arequipa","stopTypeGroup":"bus","stopLat":-12.1428965,"stopLon":-76.9471425,"routeNames":"8502 8523"},{"stopId":738095,"stopName":"Jorge Chávez","stopTypeGroup":"metro","stopLat":-12.1426447,"stopLon":-76.9909644,"routeNames":"Línea-1"},{"stopId":1312622,"stopName":"José Carlos Mariátegui","stopTypeGroup":"bus","stopLat":-12.1426028,"stopLon":-76.9708049,"routeNames":"1704 7705 7706 7708 7804 8718 8720 8723"},{"stopId":827158,"stopName":"Jorge Chávez","stopTypeGroup":"bus","stopLat":-12.1424874,"stopLon":-76.9908223,"routeNames":"1057 1060 1099 1110 1804 2703 2803 3805 3810 4703 7505 7612 7613 8201 8306 8520 8605 8611 8612 8614 8617 8619 8621 8626 8703 8704 8711 8714 8715 8729 8803 9801-(Lima-Callao) IM22 IO06 IO28b OM33 SH24"},{"stopId":827350,"stopName":"Jorge Chávez","stopTypeGroup":"bus","stopLat":-12.1424651,"stopLon":-76.9913158,"routeNames":"1057 1060 1099 1110 1804 2703 2803 3805 3810 4703 7505 7612 7613 8201 8306 8520 8605 8611 8612 8614 8617 8619 8621 8626 8703 8704 8711 8714 8715 8729 8803 9801-(Lima-Callao) IM22 IO06 IO28b OM33 SH24"},{"stopId":827164,"stopName":"Miguel Grau","stopTypeGroup":"bus","stopLat":-12.1424297,"stopLon":-77.0040214,"routeNames":"3805 7103 8604 8626 8729"},{"stopId":1301214,"stopName":"Sargado Corazón de Jesús","stopTypeGroup":"bus","stopLat":-12.1424245,"stopLon":-76.9409144,"routeNames":"8712 9802-(Lima-Callao)"},{"stopId":1301221,"stopName":"Arequipa","stopTypeGroup":"bus","stopLat":-12.142393,"stopLon":-76.9470888,"routeNames":"8502 8523 8712 9802-(Lima-Callao)"},{"stopId":827167,"stopName":"Combate de Angamos","stopTypeGroup":"bus","stopLat":-12.1422776,"stopLon":-77.0089245,"routeNames":"3805 7103 8626"},{"stopId":1301215,"stopName":"Inca Ollantay","stopTypeGroup":"bus","stopLat":-12.1422566,"stopLon":-76.9391978,"routeNames":"8712 9802-(Lima-Callao)"}]