[{"stopId":1009307,"stopName":"Comercial del Acero","stopTypeGroup":"bus","stopLat":-12.045743,"stopLon":-77.0684218,"routeNames":"1130-(Lima-Callao) CR07 CR09 CR10 CR35 CR40 CR41 CR56 CR61 ICR02b IM19 OM09"},{"stopId":1194385,"stopName":"Piura","stopTypeGroup":"bus","stopLat":-12.0457336,"stopLon":-77.1096337,"routeNames":"1502-(Lima-Callao) 4902-(Lima-Callao) 9303-(Lima-Callao) 9503-(Lima-Callao) 9802-(Lima-Callao) CR09 CR10 IO35b OM25 OM47-(Callao-Lima) UCL02-(Lima-Callao) UCL03-(Lima-Callao) UCL04-(Lima-Callao)"},{"stopId":1194322,"stopName":"Aeropuerto","stopTypeGroup":"bus","stopLat":-12.045647,"stopLon":-77.107037,"routeNames":"1502-(Lima-Callao) 9303-(Lima-Callao) 9503-(Lima-Callao) CR10 IO35b OM25 OM47-(Callao-Lima) UCL02-(Lima-Callao) UCL03-(Lima-Callao) UCL04-(Lima-Callao)"},{"stopId":1009313,"stopName":"Nicolás Dueñas","stopTypeGroup":"bus","stopLat":-12.0455791,"stopLon":-77.0658304,"routeNames":"1130-(Lima-Callao) CR07 CR09 CR10 CR35 CR40 CR41 CR56 CR61 ICR02b IM19 OM09"},{"stopId":1194386,"stopName":"Aeropuerto","stopTypeGroup":"bus","stopLat":-12.0455631,"stopLon":-77.107496,"routeNames":"1502-(Lima-Callao) 4902-(Lima-Callao) 9303-(Lima-Callao) 9503-(Lima-Callao) 9802-(Lima-Callao) CR09 CR10 IO35b IO66 OM25 OM47-(Callao-Lima) UCL02-(Lima-Callao) UCL03-(Lima-Callao) UCL04-(Lima-Callao)"},{"stopId":1464269,"stopName":"Tacna","stopTypeGroup":"bus","stopLat":-12.0455034,"stopLon":-77.1051005,"routeNames":"1502-(Lima-Callao) 4902-(Lima-Callao) 9303-(Lima-Callao) 9503-(Lima-Callao) CR10 IO35b OM25 OM47-(Callao-Lima) UCL02-(Lima-Callao) UCL03-(Lima-Callao) UCL04-(Lima-Callao)"},{"stopId":761237,"stopName":"Gambetta Baja","stopTypeGroup":"bus","stopLat":-12.0454168,"stopLon":-77.0985961,"routeNames":"1491 1501-(Lima-Callao) 2511-(Lima-Callao) 3203-(Lima-Callao) CR10 CR13 CR14 CR15 CR16 CR17 CR19 CR27 CR32 CR34 CR35 CR41 CR42 CR49 CR51 CR53 CR56 CR61 CR62 CR65 CR69 CR71 CR75 CR84 ICR05 IM08 IM18 IM19 IM20 IM26 IM31 IM47 IO03 IO06 IO07 IO09 I"},{"stopId":1303572,"stopName":"Nicolás Dueñas","stopTypeGroup":"bus","stopLat":-12.0453854,"stopLon":-77.0645857,"routeNames":"1130-(Lima-Callao) 1508 CR07 CR09 CR10 CR35 CR40 CR41 CR56 CR61 ICR02b IM19 IM22 IO55 OM09"},{"stopId":1017559,"stopName":"Amazonas","stopTypeGroup":"bus","stopLat":-12.0453344,"stopLon":-77.0195814,"routeNames":"1046 1055 1602 1607 1608 1703-(Lima-Callao) 2603 2604 2607 2608 2609 2611 2702 2803 3603 3607 3610 3613 4623 CR12 CR43 OM34"},{"stopId":1464268,"stopName":"Tumbes","stopTypeGroup":"bus","stopLat":-12.0453329,"stopLon":-77.1019864,"routeNames":"1502-(Lima-Callao) 4902-(Lima-Callao) 9303-(Lima-Callao) 9503-(Lima-Callao) CR10 IO35b OM25 OM47-(Callao-Lima) UCL02-(Lima-Callao) UCL03-(Lima-Callao) UCL04-(Lima-Callao)"},{"stopId":732403,"stopName":"Huancavelica","stopTypeGroup":"bus","stopLat":-12.0453119,"stopLon":-77.0369321,"routeNames":"303 336"},{"stopId":1589401,"stopName":"La Chalaca","stopTypeGroup":"bus","stopLat":-12.0452699,"stopLon":-77.10388,"routeNames":"IO66"},{"stopId":1335285,"stopName":"Guillermo Dansey","stopTypeGroup":"bus","stopLat":-12.0452542,"stopLon":-77.0441687,"routeNames":"CR09"},{"stopId":1194392,"stopName":"Faucett","stopTypeGroup":"bus","stopLat":-12.0452541,"stopLon":-77.0988752,"routeNames":"1502-(Lima-Callao) 4902-(Lima-Callao) 9303-(Lima-Callao) 9503-(Lima-Callao) CR10 IO35b OM25 OM47-(Callao-Lima) UCL02-(Lima-Callao) UCL03-(Lima-Callao) UCL04-(Lima-Callao)"},{"stopId":2058663,"stopName":"Facuett","stopTypeGroup":"bus","stopLat":-12.045222721912697,"stopLon":-77.09853440523149},{"stopId":1457525,"stopName":"Cañete","stopTypeGroup":"bus","stopLat":-12.0452201,"stopLon":-77.0392871},{"stopId":1768101,"stopName":"Puente Huánuco","stopTypeGroup":"bus","stopLat":-12.0451655,"stopLon":-77.0197905,"routeNames":"1804 2404-(Lima-Callao) 2407 4908-(Lima-Callao) IM34b"},{"stopId":966012,"stopName":"Amazonas","stopTypeGroup":"bus","stopLat":-12.0451146,"stopLon":-77.025186,"routeNames":"1044 1059 1060 1103 1403 1474 1610 1804 2404-(Lima-Callao) 2407 2409 2412 2701-(Lima-Callao) 2703 3405 3511 3805 3809 3810 4304 4908-(Lima-Callao) 4913-(Lima-Callao) 8308 IM26 IM34b NH13 NH25 NH26b NM09"},{"stopId":761283,"stopName":"Gambetta Baja","stopTypeGroup":"bus","stopLat":-12.0451073,"stopLon":-77.098757,"routeNames":"1491 1501-(Lima-Callao) 1502-(Lima-Callao) 2511-(Lima-Callao) 3203-(Lima-Callao) 9303-(Lima-Callao) 9503-(Lima-Callao) CR13 CR14 CR15 CR16 CR17 CR19 CR27 CR32 CR34 CR35 CR41 CR42 CR49 CR51 CR53 CR56 CR61 CR62 CR65 CR69 CR71 CR75 CR84 ICR0"},{"stopId":1303555,"stopName":"Ricardo Herrera","stopTypeGroup":"bus","stopLat":-12.0450916,"stopLon":-77.0601439,"routeNames":"1130-(Lima-Callao) 1508 CR07 CR09 CR10 CR35 CR40 CR41 CR56 CR61 ICR02b IM19 IM22 IO55 OM09"},{"stopId":1303556,"stopName":"Ricardo Herrera","stopTypeGroup":"bus","stopLat":-12.0449342,"stopLon":-77.0598221,"routeNames":"1130-(Lima-Callao) 1508 CR07 CR09 CR10 CR35 CR40 CR41 CR56 CR61 ICR02b IM19 IM22 IO55 OM09"},{"stopId":1457523,"stopName":"Chancay","stopTypeGroup":"bus","stopLat":-12.0449001,"stopLon":-77.0378092},{"stopId":1019538,"stopName":"Argentina","stopTypeGroup":"bus","stopLat":-12.0448582,"stopLon":-77.0653318,"routeNames":"1508 7204 8201 8214 CR62 IM06 IM22 IM47 IO28b IO30b IO35b IO38b IO45 IO55 IPC06 OM21"},{"stopId":1303562,"stopName":"República de Ecuador","stopTypeGroup":"bus","stopLat":-12.0447243,"stopLon":-77.0563245,"routeNames":"1130-(Lima-Callao) 1508 CR07 CR09 CR10 CR35 CR40 CR41 CR56 CR61 ICR02b IM19 IM22 IO55 OM09"},{"stopId":1303563,"stopName":"República de Ecuador","stopTypeGroup":"bus","stopLat":-12.0446141,"stopLon":-77.0563298,"routeNames":"1130-(Lima-Callao) 1508 CR07 CR09 CR10 CR35 CR40 CR41 CR56 CR61 ICR02b IM19 IM22 IO55 OM09"},{"stopId":1768100,"stopName":"Puente Balta","stopTypeGroup":"bus","stopLat":-12.0446011,"stopLon":-77.0232,"routeNames":"1804 2404-(Lima-Callao) 2407 4908-(Lima-Callao) IM34b"},{"stopId":732436,"stopName":"Ica","stopTypeGroup":"bus","stopLat":-12.0445984,"stopLon":-77.0361999,"routeNames":"303 336 412"},{"stopId":816451,"stopName":"Argentina","stopTypeGroup":"bus","stopLat":-12.0445355,"stopLon":-77.0508957,"routeNames":"1508 2510 CR35 CR41 CR56 CR61 IM19 IO55"},{"stopId":1301205,"stopName":"Avenida Argentina","stopTypeGroup":"bus","stopLat":-12.0444095,"stopLon":-77.0561957,"routeNames":"9503-(Lima-Callao) 9802-(Lima-Callao) IM12-(Lima-Callao)"},{"stopId":1323496,"stopName":"Ramón Cárcamo","stopTypeGroup":"bus","stopLat":-12.0443492,"stopLon":-77.0510539,"routeNames":"1130-(Lima-Callao) 1508 9503-(Lima-Callao) 9802-(Lima-Callao) CR07 CR09 CR10 CR35 CR40 CR41 CR56 CR61 ICR02b IM12-(Lima-Callao) IM19 IM22 IO55 OM09"},{"stopId":732463,"stopName":"Ica","stopTypeGroup":"bus","stopLat":-12.0443413,"stopLon":-77.0362428,"routeNames":"301 305 412"},{"stopId":1194383,"stopName":"Minka","stopTypeGroup":"bus","stopLat":-12.0443197,"stopLon":-77.1096069,"routeNames":"1502-(Lima-Callao) 4902-(Lima-Callao) 9303-(Lima-Callao) 9503-(Lima-Callao) CR09 CR10 IO35b OM25 OM47-(Callao-Lima) UCL02-(Lima-Callao) UCL03-(Lima-Callao) UCL04-(Lima-Callao)"},{"stopId":1597099,"stopName":"Aeropuerto","stopTypeGroup":"bus","stopLat":-12.0442207,"stopLon":-77.107273},{"stopId":740925,"stopName":"Desamparados","stopTypeGroup":"rail","stopLat":-12.0441944,"stopLon":-77.0283169,"routeNames":"Lima-Huancayo"},{"stopId":1194326,"stopName":"Minka","stopTypeGroup":"bus","stopLat":-12.0441722,"stopLon":-77.1095257,"routeNames":"1502-(Lima-Callao) 4902-(Lima-Callao) 9303-(Lima-Callao) 9503-(Lima-Callao) CR09 CR10 IO35b OM25 OM47-(Callao-Lima) UCL02-(Lima-Callao) UCL03-(Lima-Callao) UCL04-(Lima-Callao)"},{"stopId":1330199,"stopName":"Argentina","stopTypeGroup":"bus","stopLat":-12.0441708,"stopLon":-77.0470279,"routeNames":"2204 4503"},{"stopId":816452,"stopName":"Malvinas","stopTypeGroup":"bus","stopLat":-12.0440895,"stopLon":-77.047205,"routeNames":"1130-(Lima-Callao) 2510 8503 9503-(Lima-Callao) 9802-(Lima-Callao) CR07 CR09 CR10 CR40 CR41 CR61 ICR02b IM12-(Lima-Callao) IM19 IM22 OM09"},{"stopId":1034442,"stopName":"Unión","stopTypeGroup":"bus","stopLat":-12.0440302,"stopLon":-77.0428227,"routeNames":"1404 1505 1612 1701 1702 1706 2204 2406 2411 2511-(Lima-Callao) 3505 3906-(Lima-Callao) 4204 4502 4504 8306 8503 9306-(Callao-Lima) 9405-(Lima-Callao) 9503-(Lima-Callao) 9601-(Lima-Callao) 9602-(Lima-Callao) 9801-(Lima-Callao) 9802-(L"},{"stopId":815586,"stopName":"Ramón Castilla","stopTypeGroup":"bus","stopLat":-12.0439636,"stopLon":-77.041508,"routeNames":"A C EX10"},{"stopId":816490,"stopName":"Ramón Cárcamo","stopTypeGroup":"bus","stopLat":-12.0439111,"stopLon":-77.0508045,"routeNames":"1130-(Lima-Callao) 2204 2510 8503 9503-(Lima-Callao) 9802-(Lima-Callao) CR07 CR09 CR10 CR40 ICR02b IM12-(Lima-Callao) IM22 OM09"},{"stopId":816454,"stopName":"Plaza Unión","stopTypeGroup":"bus","stopLat":-12.0437538,"stopLon":-77.0437127,"routeNames":"1130-(Lima-Callao) 2204 2502 2505 2510 4502 4503 4504 7505 8503 9503-(Lima-Callao) 9802-(Lima-Callao) CR07 CR09 CR10 CR40 CR41 CR61 ICR02b IM12-(Lima-Callao) IM19 IM22 OM09"},{"stopId":1457524,"stopName":"Angaraes","stopTypeGroup":"bus","stopLat":-12.0436803,"stopLon":-77.0397967},{"stopId":735465,"stopName":"Callao","stopTypeGroup":"bus","stopLat":-12.0436331,"stopLon":-77.0355508,"routeNames":"301 305"},{"stopId":1304190,"stopName":"Argentina","stopTypeGroup":"bus","stopLat":-12.0435701,"stopLon":-77.0497155,"routeNames":"8503"},{"stopId":1194324,"stopName":"Andahuaylas","stopTypeGroup":"bus","stopLat":-12.043566,"stopLon":-77.1080135,"routeNames":"1502-(Lima-Callao) 4902-(Lima-Callao) 9303-(Lima-Callao) 9503-(Lima-Callao) 9802-(Lima-Callao) CR09 CR10 IO35b OM25 OM47-(Callao-Lima) UCL02-(Lima-Callao) UCL03-(Lima-Callao) UCL04-(Lima-Callao)"},{"stopId":1457526,"stopName":"Plaza Unión","stopTypeGroup":"bus","stopLat":-12.0434836,"stopLon":-77.0420954},{"stopId":816489,"stopName":"Malvinas","stopTypeGroup":"bus","stopLat":-12.0434757,"stopLon":-77.0469797,"routeNames":"1130-(Lima-Callao) 2204 2510 7505 8503 9503-(Lima-Callao) 9802-(Lima-Callao) CR07 CR09 CR10 CR40 ICR02b IM12-(Lima-Callao) IM22 OM09"},{"stopId":761238,"stopName":"Hospital San José","stopTypeGroup":"bus","stopLat":-12.0434704,"stopLon":-77.0987731,"routeNames":"1491 1501-(Lima-Callao) 1502-(Lima-Callao) 2511-(Lima-Callao) 3203-(Lima-Callao) 9303-(Lima-Callao) 9503-(Lima-Callao) CR13 CR14 CR15 CR16 CR17 CR19 CR27 CR32 CR34 CR35 CR41 CR42 CR49 CR51 CR53 CR56 CR61 CR65 CR69 CR71 CR75 CR84 ICR05 IM0"},{"stopId":1311130,"stopName":"Argentina","stopTypeGroup":"bus","stopLat":-12.0433865,"stopLon":-77.047146,"routeNames":"2502 2505 4502 4503 4504"},{"stopId":737543,"stopName":"Acho","stopTypeGroup":"bus","stopLat":-12.0431373,"stopLon":-77.0223624,"routeNames":"1213 1308 1411 1412 1607 1608 1703-(Lima-Callao) 1801-(Lima-Callao) 1802 1804 2404-(Lima-Callao) 2407 2414 2603 2604 2701-(Lima-Callao) 2803 2804-(Lima-Callao) 2805 4212 4905-(Lima-Callao) 4908-(Lima-Callao) 7101 8102 8105 8107 8108 810"},{"stopId":1589402,"stopName":"Junin","stopTypeGroup":"bus","stopLat":-12.0431216,"stopLon":-77.1041536,"routeNames":"IO66"},{"stopId":737705,"stopName":"Acho","stopTypeGroup":"bus","stopLat":-12.0428068,"stopLon":-77.0223677,"routeNames":"1213 1308 1411 1412 1607 1608 1703-(Lima-Callao) 1801-(Lima-Callao) 1802 1804 2404-(Lima-Callao) 2407 2414 2603 2604 2701-(Lima-Callao) 2803 2804-(Lima-Callao) 2805 4212 4905-(Lima-Callao) 4908-(Lima-Callao) 7101 8102 8105 8107 8108 810"},{"stopId":1034435,"stopName":"Unión","stopTypeGroup":"bus","stopLat":-12.0427577,"stopLon":-77.0432451,"routeNames":"1404 1505 1612 1701 1702 1706 2204 2406 2411 2510 2511-(Lima-Callao) 3505 3906-(Lima-Callao) 4204 8306 9306-(Callao-Lima) 9405-(Lima-Callao) 9601-(Lima-Callao) 9602-(Lima-Callao) 9801-(Lima-Callao) CR07 IM12-(Lima-Callao) IO19 IO27 IO"},{"stopId":1017605,"stopName":"Loreto","stopTypeGroup":"bus","stopLat":-12.0425669,"stopLon":-77.028596,"routeNames":"1103 1403 1602 1610 2409 2412 2607 2608 2609 2611 2703 3204 3505 370 3906-(Lima-Callao) 4211 8306 9306-(Callao-Lima) CR12 CR43 IM12-(Lima-Callao) IO52 NH26b OM34 SH112a"},{"stopId":734581,"stopName":"Acho","stopTypeGroup":"bus","stopLat":-12.0425366,"stopLon":-77.0223677,"routeNames":"1044 1059 1060 1474 1602 2607 2608 2609 2611 2702 3204 3405 3505 3511 370 3805 3809 3810 3906-(Lima-Callao) 404 405 406 4211 4304 4623 4913-(Lima-Callao) 8306 8308 9306-(Callao-Lima) CR12 CR43 IM12-(Lima-Callao) IM26 IO52 NH13 NH25 NH25a OM34"},{"stopId":1017607,"stopName":"Terminal Z-Buss","stopTypeGroup":"bus","stopLat":-12.0424829,"stopLon":-77.0254764,"routeNames":"1103 1403 1602 1610 2409 2412 2607 2608 2609 2611 2703 3204 3505 3906-(Lima-Callao) 4211 8306 9306-(Callao-Lima) CR12 CR43 IM12-(Lima-Callao) IO52 NH26b OM34 SH112a"},{"stopId":734588,"stopName":"Acho","stopTypeGroup":"bus","stopLat":-12.0424474,"stopLon":-77.0227325,"routeNames":"1044 1059 1060 1474 3405 3511 3805 3809 3810 404 405 406 4304 4913-(Lima-Callao) 8308 IM26 NH13 NH25 NH25a NM09 TVE46"},{"stopId":1457519,"stopName":"Huancavelica","stopTypeGroup":"bus","stopLat":-12.0424002,"stopLon":-77.0419022},{"stopId":1301193,"stopName":"Villa Señor de Los MIlagros","stopTypeGroup":"bus","stopLat":-12.04229,"stopLon":-77.0858824,"routeNames":"9303-(Lima-Callao) 9802-(Lima-Callao)"},{"stopId":1304189,"stopName":"Huancavelica","stopTypeGroup":"bus","stopLat":-12.0422323,"stopLon":-77.0485353,"routeNames":"8503"},{"stopId":1301194,"stopName":"Velasco Alvarado","stopTypeGroup":"bus","stopLat":-12.0422271,"stopLon":-77.0831573,"routeNames":"9303-(Lima-Callao) 9802-(Lima-Callao)"},{"stopId":1301175,"stopName":"Morales Duarez","stopTypeGroup":"bus","stopLat":-12.0421536,"stopLon":-77.1075976,"routeNames":"9802-(Lima-Callao) IO66"},{"stopId":1157572,"stopName":"Pataz","stopTypeGroup":"bus","stopLat":-12.0421028,"stopLon":-77.025546,"routeNames":"3204 3505 4211 4623 8306 9306-(Callao-Lima) OM34 SH112a"},{"stopId":1019086,"stopName":"Las Herrmientas","stopTypeGroup":"bus","stopLat":-12.042057,"stopLon":-77.0655468,"routeNames":"1508 7204 8201 8214 CR62 IM06 IM22 IM47 IO28b IO30b IO35b IO38b IO45 IO55 IPC06 OM21"},{"stopId":737408,"stopName":"Materiales","stopTypeGroup":"bus","stopLat":-12.0420067,"stopLon":-77.0770204,"routeNames":"018p 1031 1103 1201 1278-(Lima-Callao) 1503 1504 1506 1513 1514 1518 1604 1611 1615 1618 1704 1901-(Lima-Callao) 2303 2408 2513 2613 3205 4205 4206 4210-(Lima-Callao) 4908-(Lima-Callao) 7103 8104 9303-(Lima-Callao) CR17 ICR14 IM04 IM21 IM24"},{"stopId":1019535,"stopName":"Las Herramientas","stopTypeGroup":"bus","stopLat":-12.0419062,"stopLon":-77.0656433,"routeNames":"1508 7204 8201 8214 CR62 IM06 IM22 IM47 IO28b IO30b IO35b IO38b IO45 IO55 IPC06 OM21"},{"stopId":1301195,"stopName":"Universitaria","stopTypeGroup":"bus","stopLat":-12.0419018,"stopLon":-77.0773423,"routeNames":"9303-(Lima-Callao) 9802-(Lima-Callao)"},{"stopId":1157573,"stopName":"Chiclayo","stopTypeGroup":"bus","stopLat":-12.0418906,"stopLon":-77.0283649,"routeNames":"2409 3204 3505 4211 8306 9306-(Callao-Lima) OM34 SH112a"},{"stopId":1017560,"stopName":"Acho","stopTypeGroup":"bus","stopLat":-12.0418847,"stopLon":-77.0224478,"routeNames":"1103 1403 1602 1610 2412 2607 2608 2609 2611 2702 2703 3204 3505 370 4211 4623 8306 9306-(Callao-Lima) CR12 CR43 IM12-(Lima-Callao) NH26b OM34 SH112a"},{"stopId":1301176,"stopName":"Avenida Aeropuerto","stopTypeGroup":"bus","stopLat":-12.0418598,"stopLon":-77.1075332,"routeNames":"9802-(Lima-Callao) CR57 CR58 IO19"},{"stopId":1619510,"stopName":"Estadio Manuel C. Dulanto","stopTypeGroup":"bus","stopLat":-12.0418572,"stopLon":-77.1057683,"routeNames":"IO66"},{"stopId":1157574,"stopName":"Trujillo","stopTypeGroup":"bus","stopLat":-12.0417876,"stopLon":-77.0293764,"routeNames":"2409 3204 3505 4211 8306 9306-(Callao-Lima) OM34 SH112a"},{"stopId":1301177,"stopName":"Estadio Manuel C. Dulanto","stopTypeGroup":"bus","stopLat":-12.0417549,"stopLon":-77.1057737,"routeNames":"9802-(Lima-Callao) CR57 CR58 IO19"},{"stopId":1301230,"stopName":"Universitaria","stopTypeGroup":"bus","stopLat":-12.0416395,"stopLon":-77.0767951,"routeNames":"9503-(Lima-Callao) 9802-(Lima-Callao)"},{"stopId":1301178,"stopName":"Estadio Manuel C. Dulanto","stopTypeGroup":"bus","stopLat":-12.0416237,"stopLon":-77.1058059,"routeNames":"9802-(Lima-Callao) CR57 CR58 IO19"},{"stopId":736379,"stopName":"Materiales","stopTypeGroup":"bus","stopLat":-12.041587,"stopLon":-77.0771867,"routeNames":"018p 1031 1103 1201 1278-(Lima-Callao) 1503 1504 1506 1513 1514 1518 1604 1611 1615 1618 1704 1901-(Lima-Callao) 2303 2408 2513 2613 3205 4205 4206 4210-(Lima-Callao) 4908-(Lima-Callao) 7103 8104 9503-(Lima-Callao) CR17 ICR14 IM04 IM21 IM24"},{"stopId":737706,"stopName":"Trujillo","stopTypeGroup":"bus","stopLat":-12.0413929,"stopLon":-77.0325279,"routeNames":"1213 1308 1411 1412 1607 1608 1703-(Lima-Callao) 1801-(Lima-Callao) 1802 1804 2404-(Lima-Callao) 2407 2414 2603 2604 2701-(Lima-Callao) 2803 2804-(Lima-Callao) 2805 4212 4905-(Lima-Callao) 4908-(Lima-Callao) 7101 8102 8105 8107 8108 810"},{"stopId":1301179,"stopName":"Tumbes","stopTypeGroup":"bus","stopLat":-12.0413352,"stopLon":-77.1025336,"routeNames":"9802-(Lima-Callao) CR57 CR58 IO19"},{"stopId":1311140,"stopName":"Villamar","stopTypeGroup":"bus","stopLat":-12.0413089,"stopLon":-77.0460248,"routeNames":"2502 2505 4502 4503 4504"},{"stopId":1573275,"stopName":"Pataz","stopTypeGroup":"bus","stopLat":-12.0413037,"stopLon":-77.0257795,"routeNames":"2702"},{"stopId":1301180,"stopName":"Tumbes","stopTypeGroup":"bus","stopLat":-12.0411043,"stopLon":-77.1022654,"routeNames":"9802-(Lima-Callao) CR57 CR58 IO19"},{"stopId":761239,"stopName":"Morales Duárez","stopTypeGroup":"bus","stopLat":-12.0410204,"stopLon":-77.0989716,"routeNames":"1491 1501-(Lima-Callao) 1502-(Lima-Callao) 2511-(Lima-Callao) 3203-(Lima-Callao) 9303-(Lima-Callao) 9503-(Lima-Callao) CR13 CR14 CR15 CR16 CR17 CR19 CR27 CR32 CR34 CR35 CR41 CR42 CR49 CR51 CR53 CR56 CR61 CR62 CR65 CR69 CR71 CR75 CR84 ICR0"},{"stopId":737542,"stopName":"Trujillo","stopTypeGroup":"bus","stopLat":-12.0409968,"stopLon":-77.0340031,"routeNames":"1213 1308 1411 1412 1607 1608 1703-(Lima-Callao) 1801-(Lima-Callao) 1802 1804 2404-(Lima-Callao) 2407 2414 2603 2604 2701-(Lima-Callao) 2803 2804-(Lima-Callao) 2805 4212 4905-(Lima-Callao) 4908-(Lima-Callao) 7101 8102 8105 8107 8108 810"},{"stopId":761282,"stopName":"Primero de Mayo","stopTypeGroup":"bus","stopLat":-12.0409732,"stopLon":-77.0991433,"routeNames":"1491 1501-(Lima-Callao) 1502-(Lima-Callao) 2511-(Lima-Callao) 3203-(Lima-Callao) 9303-(Lima-Callao) 9503-(Lima-Callao) CR13 CR14 CR15 CR16 CR17 CR19 CR27 CR32 CR34 CR35 CR41 CR42 CR49 CR51 CR53 CR56 CR61 CR62 CR65 CR69 CR71 CR75 CR84 ICR0"},{"stopId":1157575,"stopName":"Virú","stopTypeGroup":"bus","stopLat":-12.0408957,"stopLon":-77.0303152,"routeNames":"2409 3204 3505 4211 8306 9306-(Callao-Lima) OM34 SH112a"},{"stopId":1017604,"stopName":"Trujillo","stopTypeGroup":"bus","stopLat":-12.0408678,"stopLon":-77.029395,"routeNames":"2409 2702 3204 3505 3906-(Lima-Callao) 4211 8306 9306-(Callao-Lima) CR12 CR43 IO52 OM34 SH112a"},{"stopId":1301189,"stopName":"28 de Julio","stopTypeGroup":"bus","stopLat":-12.0407161,"stopLon":-77.0872235,"routeNames":"9303-(Lima-Callao) 9802-(Lima-Callao)"},{"stopId":1017603,"stopName":"Plaza Barraganes","stopTypeGroup":"bus","stopLat":-12.0406397,"stopLon":-77.0313899,"routeNames":"1217 2209 2409 2702 3204 3906-(Lima-Callao) 4211 8306 9306-(Callao-Lima) CR12 CR43 IO52 OM23 OM33 OM34 SH112a"},{"stopId":1301190,"stopName":"Daniel Alcides Carrión","stopTypeGroup":"bus","stopLat":-12.0405823,"stopLon":-77.0870841,"routeNames":"9303-(Lima-Callao) 9802-(Lima-Callao)"},{"stopId":1017561,"stopName":"Cajamarca","stopTypeGroup":"bus","stopLat":-12.040471,"stopLon":-77.0225872,"routeNames":"1103 1403 1602 1610 2412 2607 2608 2609 2611 2702 2703 CR12 CR43 IM12-(Lima-Callao) NH26b"},{"stopId":1197453,"stopName":"Hualgayoc","stopTypeGroup":"bus","stopLat":-12.0404084,"stopLon":-77.0240609,"routeNames":"2702 3906-(Lima-Callao) CR12 CR43 IO52"},{"stopId":1301192,"stopName":"Enrique Meiggs","stopTypeGroup":"bus","stopLat":-12.0403908,"stopLon":-77.0860112,"routeNames":"9303-(Lima-Callao) 9802-(Lima-Callao)"},{"stopId":1301191,"stopName":"Pacífico","stopTypeGroup":"bus","stopLat":-12.0402754,"stopLon":-77.0862472,"routeNames":"9303-(Lima-Callao) 9802-(Lima-Callao)"},{"stopId":1310576,"stopName":"Ayabaca","stopTypeGroup":"bus","stopLat":-12.0401285,"stopLon":-77.0312029,"routeNames":"2209"},{"stopId":1201627,"stopName":"Pizarro","stopTypeGroup":"bus","stopLat":-12.0400675,"stopLon":-77.0302329,"routeNames":"1217 2409 3204 3505 4211 8306 9306-(Callao-Lima) OM23 OM33 OM34 SH112a"},{"stopId":1032138,"stopName":"Cajamarca","stopTypeGroup":"bus","stopLat":-12.040043,"stopLon":-77.0283253,"routeNames":"1103 1403 1602 1610 2412 2607 2608 2609 2611 2703 370 IM12-(Lima-Callao) NH26b"},{"stopId":1017562,"stopName":"Trujillo","stopTypeGroup":"bus","stopLat":-12.0400218,"stopLon":-77.0290508,"routeNames":"2702 3906-(Lima-Callao) CR12 CR43 IO52"},{"stopId":1301181,"stopName":"Elmer Faucett","stopTypeGroup":"bus","stopLat":-12.0398977,"stopLon":-77.0983601,"routeNames":"9303-(Lima-Callao) 9503-(Lima-Callao) 9802-(Lima-Callao) IM12-(Lima-Callao)"},{"stopId":1301182,"stopName":"Elmer Faucett","stopTypeGroup":"bus","stopLat":-12.0397822,"stopLon":-77.0983708,"routeNames":"9303-(Lima-Callao) 9503-(Lima-Callao) 9802-(Lima-Callao) IM12-(Lima-Callao)"},{"stopId":1304194,"stopName":"Pasaje D","stopTypeGroup":"bus","stopLat":-12.0397088,"stopLon":-77.0474839,"routeNames":"2502 2505 4502 4503 4504 8503"},{"stopId":1017602,"stopName":"Tacna","stopTypeGroup":"bus","stopLat":-12.0396511,"stopLon":-77.0331606,"routeNames":"1217 2209 2409 2702 3204 3505 3906-(Lima-Callao) 4211 8306 9306-(Callao-Lima) CR12 CR43 IO52 OM23 OM33 OM34 SH112a"},{"stopId":735415,"stopName":"Virú","stopTypeGroup":"bus","stopLat":-12.0396432,"stopLon":-77.0329463,"routeNames":"301 305 336"},{"stopId":1301204,"stopName":"República de Ecuador","stopTypeGroup":"bus","stopLat":-12.0395619,"stopLon":-77.0567429,"routeNames":"9503-(Lima-Callao) 9802-(Lima-Callao) IM12-(Lima-Callao)"},{"stopId":1301183,"stopName":"La Libertad","stopTypeGroup":"bus","stopLat":-12.0393625,"stopLon":-77.0956349,"routeNames":"9303-(Lima-Callao) 9503-(Lima-Callao) 9802-(Lima-Callao) IM12-(Lima-Callao)"},{"stopId":1301203,"stopName":"Fernando Wiesse","stopTypeGroup":"bus","stopLat":-12.0392156,"stopLon":-77.0591891,"routeNames":"9503-(Lima-Callao) 9802-(Lima-Callao) IM12-(Lima-Callao)"},{"stopId":1301184,"stopName":"La Libertad","stopTypeGroup":"bus","stopLat":-12.0391789,"stopLon":-77.095415,"routeNames":"9303-(Lima-Callao) 9503-(Lima-Callao) 9802-(Lima-Callao) IM12-(Lima-Callao)"},{"stopId":1205920,"stopName":"Madera","stopTypeGroup":"bus","stopLat":-12.0391284,"stopLon":-77.0228933,"routeNames":"1103 1403 1602 1610 2412 2607 2609 2611 2703 IM12-(Lima-Callao) NH26b"},{"stopId":1304185,"stopName":"Nuevo Mercado de Caquetá","stopTypeGroup":"bus","stopLat":-12.0391212,"stopLon":-77.0461321,"routeNames":"4502 4503"},{"stopId":1542930,"stopName":"Conde de la Vega","stopTypeGroup":"bus","stopLat":-12.0391055,"stopLon":-77.0488733,"routeNames":"8503"},{"stopId":1301185,"stopName":"Jorge Chávez","stopTypeGroup":"bus","stopLat":-12.0389848,"stopLon":-77.0936286,"routeNames":"9303-(Lima-Callao) 9503-(Lima-Callao) 9802-(Lima-Callao) IM12-(Lima-Callao)"},{"stopId":1205887,"stopName":"Chiclayo","stopTypeGroup":"bus","stopLat":-12.0389802,"stopLon":-77.0280132,"routeNames":"1103 2607 2608 2609 2611 2703 IM12-(Lima-Callao)"},{"stopId":1017563,"stopName":"Tacna","stopTypeGroup":"bus","stopLat":-12.0389326,"stopLon":-77.0320567,"routeNames":"1217 2209 2409 2702 3204 3505 3906-(Lima-Callao) 4211 8306 9306-(Callao-Lima) CR12 CR43 IO52 OM23 OM33 OM34 SH112a"},{"stopId":732437,"stopName":"Francisco Pizarro","stopTypeGroup":"bus","stopLat":-12.0389297,"stopLon":-77.0322919,"routeNames":"301 303 305 336 412"},{"stopId":1301186,"stopName":"Jorge Chávez","stopTypeGroup":"bus","stopLat":-12.0387644,"stopLon":-77.0933497,"routeNames":"9303-(Lima-Callao) 9503-(Lima-Callao) 9802-(Lima-Callao) IM12-(Lima-Callao)"},{"stopId":1301202,"stopName":"José Galdeano y Mendoza","stopTypeGroup":"bus","stopLat":-12.0386805,"stopLon":-77.0630407,"routeNames":"9503-(Lima-Callao) 9802-(Lima-Callao) IM12-(Lima-Callao)"},{"stopId":732396,"stopName":"Francisco Pizarro","stopTypeGroup":"bus","stopLat":-12.038628,"stopLon":-77.0322704,"routeNames":"303 412"},{"stopId":1304186,"stopName":"Pacasmayo","stopTypeGroup":"bus","stopLat":-12.0385572,"stopLon":-77.0476395,"routeNames":"2502 2505 4504 8503"},{"stopId":1019087,"stopName":"Enrique Meiggs","stopTypeGroup":"bus","stopLat":-12.0385491,"stopLon":-77.0658983,"routeNames":"1508 7204 8201 8214 9503-(Lima-Callao) 9802-(Lima-Callao) CR62 IM06 IM22 IM47 IO28b IO30b IO35b IO38b IO45 IO55 IPC06 OM21"},{"stopId":1301231,"stopName":"Víctor Andrés Belaúnde","stopTypeGroup":"bus","stopLat":-12.0384601,"stopLon":-77.0906353,"routeNames":"9303-(Lima-Callao) 9503-(Lima-Callao) 9802-(Lima-Callao) IM12-(Lima-Callao)"},{"stopId":1301201,"stopName":"Nicolás Dueñas","stopTypeGroup":"bus","stopLat":-12.0382608,"stopLon":-77.0658195,"routeNames":"9503-(Lima-Callao) 9802-(Lima-Callao) IM12-(Lima-Callao)"},{"stopId":1301232,"stopName":"Víctor Andrés Belaúnde","stopTypeGroup":"bus","stopLat":-12.0381768,"stopLon":-77.0903349,"routeNames":"9303-(Lima-Callao) 9503-(Lima-Callao) 9802-(Lima-Callao) IM12-(Lima-Callao)"},{"stopId":1205886,"stopName":"Yutay","stopTypeGroup":"bus","stopLat":-12.0381539,"stopLon":-77.0290083,"routeNames":"1103 2607 2608 2609 2611 2703 370 IM12-(Lima-Callao)"},{"stopId":1323495,"stopName":"Enrique Meiggs","stopTypeGroup":"bus","stopLat":-12.0381401,"stopLon":-77.0660448,"routeNames":"1508 7204 8201 8214 CR62 IM06 IM22 IM47 IO28b IO30b IO35b IO38b IO45 IO55 IPC06 OM21"},{"stopId":1301187,"stopName":"Daniel Alcides Carrión","stopTypeGroup":"bus","stopLat":-12.0380509,"stopLon":-77.088629,"routeNames":"9303-(Lima-Callao) 9503-(Lima-Callao) 9802-(Lima-Callao) IM12-(Lima-Callao)"},{"stopId":1032091,"stopName":"Atahualpa","stopTypeGroup":"bus","stopLat":-12.0379801,"stopLon":-77.0266999,"routeNames":"1103 1403 1602 1610 2412 2607 2608 2609 2611 2703 370 IM12-(Lima-Callao) NH26b"},{"stopId":1318286,"stopName":"Daniel Alcides Carrión","stopTypeGroup":"bus","stopLat":-12.0377781,"stopLon":-77.0881408,"routeNames":"9503-(Lima-Callao) IM12-(Lima-Callao)"},{"stopId":1032137,"stopName":"Chiclayo","stopTypeGroup":"bus","stopLat":-12.0376191,"stopLon":-77.0271076,"routeNames":"1403 1602 1610 2412 NH26b"},{"stopId":817688,"stopName":"Caquetá","stopTypeGroup":"bus","stopLat":-12.037542,"stopLon":-77.0442116,"routeNames":"1404 1505 1612 1701 1702 1706 2204 2406 2511-(Lima-Callao) 4204 9405-(Lima-Callao) 9601-(Lima-Callao) 9602-(Lima-Callao) 9801-(Lima-Callao) IO44b IO47"},{"stopId":1304187,"stopName":"Máncora","stopTypeGroup":"bus","stopLat":-12.0374843,"stopLon":-77.0497853,"routeNames":"2502 2505"},{"stopId":1456642,"stopName":"General San Román","stopTypeGroup":"bus","stopLat":-12.0372849,"stopLon":-77.0390511},{"stopId":1321044,"stopName":"Negritos","stopTypeGroup":"bus","stopLat":-12.0372535,"stopLon":-77.0521402,"routeNames":"2502 2505"},{"stopId":1017601,"stopName":"El Águila","stopTypeGroup":"bus","stopLat":-12.037241,"stopLon":-77.0364579,"routeNames":"1217 2209 2409 2702 3505 3906-(Lima-Callao) 8306 9306-(Callao-Lima) CR12 CR43 IO52 OM23 OM33 OM34 SH112a"},{"stopId":737410,"stopName":"Panadería","stopTypeGroup":"bus","stopLat":-12.0370751,"stopLon":-77.0774871,"routeNames":"018p 1031 1103 1201 1278-(Lima-Callao) 1503 1504 1506 1513 1514 1518 1604 1611 1615 1618 1704 1901-(Lima-Callao) 2303 2408 2513 2613 3205 4205 4206 4210-(Lima-Callao) 4908-(Lima-Callao) 7103 8104 9503-(Lima-Callao) CR17 ICR14 IM04 IM21 IM24"},{"stopId":736378,"stopName":"Panadería","stopTypeGroup":"bus","stopLat":-12.0370541,"stopLon":-77.0776051,"routeNames":"018p 1031 1103 1201 1278-(Lima-Callao) 1503 1504 1506 1513 1514 1518 1604 1611 1615 1618 1704 1901-(Lima-Callao) 2303 2408 2513 2613 3205 4205 4206 4210-(Lima-Callao) 4908-(Lima-Callao) 7103 8104 9503-(Lima-Callao) CR17 ICR14 IM04 IM21 IM24"},{"stopId":1318287,"stopName":"Túpac Amaru","stopTypeGroup":"bus","stopLat":-12.0369911,"stopLon":-77.0831251,"routeNames":"9503-(Lima-Callao)"},{"stopId":735466,"stopName":"Chira","stopTypeGroup":"bus","stopLat":-12.036936,"stopLon":-77.0309427,"routeNames":"301 305"},{"stopId":1321043,"stopName":"Ferreñafe","stopTypeGroup":"bus","stopLat":-12.0369124,"stopLon":-77.0553535,"routeNames":"2502 2505"},{"stopId":1017565,"stopName":"Polinclínico","stopTypeGroup":"bus","stopLat":-12.0369039,"stopLon":-77.034748,"routeNames":"1217 2209 2409 2702 3505 3906-(Lima-Callao) 8306 9306-(Callao-Lima) CR12 CR43 IO52 OM23 OM33 OM34 SH112a"},{"stopId":1205885,"stopName":"Madera","stopTypeGroup":"bus","stopLat":-12.0367441,"stopLon":-77.0287609,"routeNames":"1103 2607 2608 2609 2611 2703 IM12-(Lima-Callao)"},{"stopId":1318288,"stopName":"Túpac Amaru","stopTypeGroup":"bus","stopLat":-12.0367183,"stopLon":-77.0828247,"routeNames":"9503-(Lima-Callao)"},{"stopId":737540,"stopName":"Caquetá","stopTypeGroup":"bus","stopLat":-12.0367131,"stopLon":-77.043643,"routeNames":"1213 1308 1411 1412 1607 1608 1703-(Lima-Callao) 1801-(Lima-Callao) 1802 1804 2404-(Lima-Callao) 2407 2414 2603 2604 2701-(Lima-Callao) 2803 2804-(Lima-Callao) 2805 4212 4905-(Lima-Callao) 4908-(Lima-Callao) 7101 8102 8105 8107 8108 810"},{"stopId":1321042,"stopName":"Reque","stopTypeGroup":"bus","stopLat":-12.0367052,"stopLon":-77.0579499,"routeNames":"2502 2505"},{"stopId":815585,"stopName":"Caquetá","stopTypeGroup":"bus","stopLat":-12.0365426,"stopLon":-77.0436457,"routeNames":"A B D EX10 EX5 EX9"},{"stopId":735414,"stopName":"Chira","stopTypeGroup":"bus","stopLat":-12.0364166,"stopLon":-77.0308435,"routeNames":"301 305"},{"stopId":1195037,"stopName":"Quilca","stopTypeGroup":"bus","stopLat":-12.0363566,"stopLon":-77.0990353,"routeNames":"3203-(Lima-Callao) CR57 CR58 ICR10 IO35b UCL01-(Lima-Callao) UCL03-(Lima-Callao)"},{"stopId":737707,"stopName":"Caquetá","stopTypeGroup":"bus","stopLat":-12.0363353,"stopLon":-77.043651,"routeNames":"1213 1308 1404 1411 1412 1505 1607 1612 1701 1702 1703-(Lima-Callao) 1706 1801-(Lima-Callao) 1802 1804 2204 2404-(Lima-Callao) 2406 2407 2414 2511-(Lima-Callao) 2603 2604 2701-(Lima-Callao) 2804-(Lima-Callao) 2805 4204 4212 4905-(Lima-C"},{"stopId":1019531,"stopName":"Juan Crespo y Castillo","stopTypeGroup":"bus","stopLat":-12.0362459,"stopLon":-77.0661517,"routeNames":"1508 7204 8201 8214 CR62 IM06 IM22 IM47 IO28b IO30b IO35b IO38b IO45 IO55 IPC06 OM21"},{"stopId":1303853,"stopName":"22 de Agosto","stopTypeGroup":"bus","stopLat":-12.0361727,"stopLon":-77.0258814,"routeNames":"1103 1403 1602 1610 2412 2607 2608 2609 2611 2703 IM12-(Lima-Callao) NH26b"},{"stopId":761241,"stopName":"Quilca","stopTypeGroup":"bus","stopLat":-12.036083532447178,"stopLon":-77.09930960859833,"routeNames":"1491 1501-(Lima-Callao) 1502-(Lima-Callao) 2511-(Lima-Callao) CR13 CR14 CR15 CR16 CR17 CR19 CR27 CR32 CR34 CR35 CR41 CR42 CR49 CR51 CR53 CR56 CR61 CR62 CR65 CR69 CR71 CR75 CR84 ICR05 IM08 IM12-(Lima-Callao) IM18 IM19 IM20 IM26 IM31 IM47 IO03 "},{"stopId":1335062,"stopName":"Puente Bella Unión","stopTypeGroup":"bus","stopLat":-12.0360573,"stopLon":-77.0779216},{"stopId":1032136,"stopName":"22 de Agosto","stopTypeGroup":"bus","stopLat":-12.0359485,"stopLon":-77.0261527,"routeNames":"1403 1602 1610 2412 NH26b"},{"stopId":1017600,"stopName":"San Román","stopTypeGroup":"bus","stopLat":-12.0359017,"stopLon":-77.0379822,"routeNames":"1217 2209 2409 2702 3505 3906-(Lima-Callao) 8306 9306-(Callao-Lima) CR12 CR43 IO52 OM23 OM33 OM34 SH112a"},{"stopId":1456645,"stopName":"General Vidal","stopTypeGroup":"bus","stopLat":-12.0358972,"stopLon":-77.0406067},{"stopId":1321041,"stopName":"Mateo Vara","stopTypeGroup":"bus","stopLat":-12.0357871,"stopLon":-77.0621261,"routeNames":"2502 2505"},{"stopId":1019088,"stopName":"Morales Duárez","stopTypeGroup":"bus","stopLat":-12.0357141,"stopLon":-77.0659519,"routeNames":"1508 7204 8201 8214 CR62 IM06 IM22 IM47 IO28b IO30b IO35b IO38b IO45 IO55 IPC06 OM21"},{"stopId":1195038,"stopName":"Saturno","stopTypeGroup":"bus","stopLat":-12.0356612,"stopLon":-77.0973571,"routeNames":"3203-(Lima-Callao) CR57 CR58 ICR10 IM47 IO35b UCL01-(Lima-Callao) UCL03-(Lima-Callao)"},{"stopId":1321053,"stopName":"Puente Bella Unión","stopTypeGroup":"bus","stopLat":-12.0356428,"stopLon":-77.0774657},{"stopId":761281,"stopName":"Quilca","stopTypeGroup":"bus","stopLat":-12.03554310000001,"stopLon":-77.09957777790984,"routeNames":"1491 1501-(Lima-Callao) 1502-(Lima-Callao) 2511-(Lima-Callao) CR13 CR14 CR15 CR16 CR17 CR19 CR27 CR32 CR34 CR35 CR41 CR42 CR49 CR51 CR53 CR56 CR57 CR58 CR61 CR62 CR65 CR69 CR71 CR75 CR84 ICR05 ICR10 IM08 IM12-(Lima-Callao) IM18 IM19 IM20 IM26"},{"stopId":1195001,"stopName":"Grifo","stopTypeGroup":"bus","stopLat":-12.035442,"stopLon":-77.0973087,"routeNames":"3203-(Lima-Callao) 9305-(Lima-Callao) CR57 CR58 ICR10 IM47 IO35b UCL01-(Lima-Callao) UCL03-(Lima-Callao)"},{"stopId":1030073,"stopName":"El Pedregal","stopTypeGroup":"bus","stopLat":-12.0352685,"stopLon":-77.0548829,"routeNames":"1703-(Lima-Callao) 2701-(Lima-Callao) 4905-(Lima-Callao) 4908-(Lima-Callao) 9305-(Lima-Callao) CR24 CR25 CR44-(Lima-Callao) CR57 CR58 ICR10 IO04 IO32b IO68"},{"stopId":1017567,"stopName":"Javier Tomás Vidal","stopTypeGroup":"bus","stopLat":-12.0351649,"stopLon":-77.03702,"routeNames":"1217 2209 2409 2702 3505 3906-(Lima-Callao) 8306 9306-(Callao-Lima) CR12 CR43 IO52 OM23 OM33 OM34 SH112a"},{"stopId":1321049,"stopName":"Las Mercedes","stopTypeGroup":"bus","stopLat":-12.0351549,"stopLon":-77.0734584},{"stopId":1030072,"stopName":"Pacllon","stopTypeGroup":"bus","stopLat":-12.0351314,"stopLon":-77.0563941,"routeNames":"1703-(Lima-Callao) 2701-(Lima-Callao) 4905-(Lima-Callao) 4908-(Lima-Callao) 9305-(Lima-Callao) CR24 CR25 CR44-(Lima-Callao) CR57 CR58 ICR10 IO04 IO32b IO68"},{"stopId":735469,"stopName":"Guardia Republicana","stopTypeGroup":"bus","stopLat":-12.0350473,"stopLon":-77.0297894,"routeNames":"301 305"},{"stopId":1321050,"stopName":"Nicolás Rodrigo","stopTypeGroup":"bus","stopLat":-12.0350447,"stopLon":-77.0692796},{"stopId":1205884,"stopName":"22 de Agosto","stopTypeGroup":"bus","stopLat":-12.0349619,"stopLon":-77.0279134,"routeNames":"1103 2607 2608 2609 2611 2703 370 IM12-(Lima-Callao)"},{"stopId":1044637,"stopName":"Caquetá","stopTypeGroup":"bus","stopLat":-12.0348927,"stopLon":-77.0436744,"routeNames":"1608 2411 2510 2803 3505 3906-(Lima-Callao) 8209 8306 9306-(Callao-Lima) 9307-(Callao-Lima) CR07 IM12-(Lima-Callao) IO19 IO27 IO52"},{"stopId":1044569,"stopName":"Caquetá","stopTypeGroup":"bus","stopLat":-12.0348644,"stopLon":-77.0439053,"routeNames":"2411 2510 3505 3906-(Lima-Callao) 8306 9306-(Callao-Lima) CR07 IM12-(Lima-Callao) IO19 IO27 IO52"},{"stopId":735413,"stopName":"Guardia Republicana","stopTypeGroup":"bus","stopLat":-12.0347037,"stopLon":-77.0297948,"routeNames":"301 305"},{"stopId":1339387,"stopName":"Inca","stopTypeGroup":"bus","stopLat":-12.0346197,"stopLon":-77.0420444},{"stopId":1017599,"stopName":"Vidal","stopTypeGroup":"bus","stopLat":-12.0345318,"stopLon":-77.0395491,"routeNames":"1217 2209 2409 2702 3505 3906-(Lima-Callao) 8306 9306-(Callao-Lima) CR12 CR43 IO52 OM23 OM33 OM34 SH112a"},{"stopId":1032135,"stopName":"Atahualpa","stopTypeGroup":"bus","stopLat":-12.0344743,"stopLon":-77.0255948,"routeNames":"1403 1602 1610 2412 NH26b"},{"stopId":1032093,"stopName":"Alameda de Los Bobos","stopTypeGroup":"bus","stopLat":-12.034251,"stopLon":-77.0251782,"routeNames":"1103 1403 1602 1610 2412 2607 2608 2609 2611 2703 370 IM12-(Lima-Callao) NH26b"},{"stopId":1017568,"stopName":"Arancibia","stopTypeGroup":"bus","stopLat":-12.0339013,"stopLon":-77.038532,"routeNames":"1217 2209 2409 2702 3505 3906-(Lima-Callao) 8306 9306-(Callao-Lima) CR12 CR43 IO52 OM23 OM33 OM34 SH112a"},{"stopId":1017598,"stopName":"Fray Agustín","stopTypeGroup":"bus","stopLat":-12.0338538,"stopLon":-77.040309,"routeNames":"1217 2209 2409 2702 3505 3906-(Lima-Callao) 8306 9306-(Callao-Lima) CR12 CR43 IO52 OM23 OM33 OM34 SH112a"},{"stopId":1195039,"stopName":"Cuzco","stopTypeGroup":"bus","stopLat":-12.0337305,"stopLon":-77.0962252,"routeNames":"3203-(Lima-Callao) CR57 CR58 ICR10 IM47 IO35b UCL01-(Lima-Callao) UCL03-(Lima-Callao)"},{"stopId":1300199,"stopName":"Pizarro","stopTypeGroup":"bus","stopLat":-12.0335809,"stopLon":-77.0386353,"routeNames":"IM12-(Lima-Callao)"},{"stopId":1030074,"stopName":"Control (Auxiliar)","stopTypeGroup":"bus","stopLat":-12.0334332,"stopLon":-77.053734,"routeNames":"1703-(Lima-Callao) 2701-(Lima-Callao) 4905-(Lima-Callao) 4908-(Lima-Callao) 8110 9305-(Lima-Callao) CR24 CR25 CR44-(Lima-Callao) CR57 CR58 ICR10 IO04 IO32b IO68"},{"stopId":1022549,"stopName":"Esteban Salmón","stopTypeGroup":"bus","stopLat":-12.0333438,"stopLon":-77.0437985,"routeNames":"1608 2411 2510 2803 3505 8209 9306-(Callao-Lima) 9307-(Callao-Lima) CR07 IM12-(Lima-Callao) IO19 IO27"},{"stopId":1019089,"stopName":"Pinar del Río","stopTypeGroup":"bus","stopLat":-12.0333254,"stopLon":-77.0649903,"routeNames":"1508 2502 2505 7204 8201 8214 CR62 IM06 IM22 IM47 IO28b IO30b IO35b IO38b IO45 IO55 IPC06 OM21"},{"stopId":737538,"stopName":"Control","stopTypeGroup":"bus","stopLat":-12.0333186,"stopLon":-77.053653,"routeNames":"1213 1308 1404 1411 1412 1505 1607 1612 1701 1702 1706 1801-(Lima-Callao) 1802 1804 2204 2404-(Lima-Callao) 2406 2407 2414 2511-(Lima-Callao) 2603 2604 2804-(Lima-Callao) 2805 4204 4212 7101 8102 8105 8107 8108 8109 8111 8112 8211 8212 9401-("},{"stopId":1195000,"stopName":"Colegio","stopTypeGroup":"bus","stopLat":-12.0332883,"stopLon":-77.0962325,"routeNames":"3203-(Lima-Callao) 9305-(Lima-Callao) CR57 CR58 ICR10 IM47 IO35b UCL01-(Lima-Callao) UCL03-(Lima-Callao)"},{"stopId":737709,"stopName":"Control","stopTypeGroup":"bus","stopLat":-12.0332346,"stopLon":-77.0536208,"routeNames":"1213 1308 1404 1411 1412 1505 1607 1612 1701 1702 1706 1801-(Lima-Callao) 1802 1804 2204 2404-(Lima-Callao) 2406 2407 2414 2511-(Lima-Callao) 2603 2604 2804-(Lima-Callao) 2805 4204 4212 7101 8102 8105 8107 8108 8109 8110 8111 8112 8211 8212 9"},{"stopId":1030071,"stopName":"Cuadra 13","stopTypeGroup":"bus","stopLat":-12.0331587,"stopLon":-77.058556,"routeNames":"1703-(Lima-Callao) 2701-(Lima-Callao) 4905-(Lima-Callao) 4908-(Lima-Callao) 9305-(Lima-Callao) CR24 CR25 CR44-(Lima-Callao) CR57 CR58 ICR10 IO04 IO32b IO68"},{"stopId":1041100,"stopName":"Control (Auxiliar)","stopTypeGroup":"bus","stopLat":-12.0331411,"stopLon":-77.0535492,"routeNames":"1703-(Lima-Callao) 2701-(Lima-Callao) 4905-(Lima-Callao) 4908-(Lima-Callao) 9305-(Lima-Callao) CR24 CR25 CR44-(Lima-Callao) CR57 CR58 ICR10 IO32b IO68 Lima-Yauya"},{"stopId":1017569,"stopName":"Vivanco","stopTypeGroup":"bus","stopLat":-12.0331353,"stopLon":-77.0394117,"routeNames":"1217 2209 2409 2702 3505 3906-(Lima-Callao) 8306 9306-(Callao-Lima) CR12 CR43 IM12-(Lima-Callao) IO52 OM23 OM33 OM34 SH112a"},{"stopId":1019528,"stopName":"Pinar del Río","stopTypeGroup":"bus","stopLat":-12.0331311,"stopLon":-77.0650455,"routeNames":"1508 2502 2505 7204 8201 8214 CR62 IM06 IM22 IM47 IO28b IO30b IO35b IO38b IO45 IO55 IPC06 OM21"},{"stopId":1023750,"stopName":"Caquetá","stopTypeGroup":"bus","stopLat":-12.0330949,"stopLon":-77.0437506},{"stopId":1030118,"stopName":"Cuadra 13","stopTypeGroup":"bus","stopLat":-12.0328101,"stopLon":-77.0581052,"routeNames":"1703-(Lima-Callao) 2701-(Lima-Callao) 4905-(Lima-Callao) 4908-(Lima-Callao) 9305-(Lima-Callao) CR24 CR25 CR44-(Lima-Callao) CR57 CR58 ICR10 IO04 IO32b IO68"},{"stopId":1030119,"stopName":"Puerto Rico","stopTypeGroup":"bus","stopLat":-12.0326945,"stopLon":-77.0600374,"routeNames":"1703-(Lima-Callao) 2701-(Lima-Callao) 4905-(Lima-Callao) 4908-(Lima-Callao) 9305-(Lima-Callao) CR24 CR25 CR44-(Lima-Callao) CR57 CR58 ICR10 IO04 IO32b IO68"},{"stopId":1030070,"stopName":"Haití","stopTypeGroup":"bus","stopLat":-12.0326761,"stopLon":-77.0617049,"routeNames":"1703-(Lima-Callao) 2701-(Lima-Callao) 4905-(Lima-Callao) 4908-(Lima-Callao) 9305-(Lima-Callao) CR24 CR25 CR44-(Lima-Callao) CR57 CR58 ICR10 IO04 IO32b IO68"},{"stopId":1157594,"stopName":"Los Próceres","stopTypeGroup":"bus","stopLat":-12.0325873,"stopLon":-77.0418111,"routeNames":"3906-(Lima-Callao) 8306 IO52"},{"stopId":1201626,"stopName":"Arrieta","stopTypeGroup":"bus","stopLat":-12.0324975,"stopLon":-77.0418271,"routeNames":"1217 3505 9306-(Callao-Lima) CR12 CR43"},{"stopId":1030069,"stopName":"Tegucigalpa","stopTypeGroup":"bus","stopLat":-12.0324347,"stopLon":-77.0636307,"routeNames":"1703-(Lima-Callao) 2701-(Lima-Callao) 4905-(Lima-Callao) 4908-(Lima-Callao) 9305-(Lima-Callao) CR24 CR25 CR44-(Lima-Callao) CR57 CR58 ICR10 IO04 IO32b IO68"},{"stopId":1022557,"stopName":"Gregorio VII","stopTypeGroup":"bus","stopLat":-12.0324326,"stopLon":-77.0441,"routeNames":"1608 2411 2510 2803 3505 3906-(Lima-Callao) 8209 8306 9306-(Callao-Lima) 9307-(Callao-Lima) CR07 IM12-(Lima-Callao) IO19 IO27 IO52"},{"stopId":1300196,"stopName":"Jirón Pallasca","stopTypeGroup":"bus","stopLat":-12.0323847,"stopLon":-77.0377797,"routeNames":"IM12-(Lima-Callao)"},{"stopId":1017597,"stopName":"Arrieta","stopTypeGroup":"bus","stopLat":-12.0323839,"stopLon":-77.0417295,"routeNames":"2209 2409 2702 OM23 OM33 OM34 SH112a"},{"stopId":1030120,"stopName":"Managua","stopTypeGroup":"bus","stopLat":-12.0323795,"stopLon":-77.0624633,"routeNames":"1703-(Lima-Callao) 2701-(Lima-Callao) 4905-(Lima-Callao) 4908-(Lima-Callao) 9305-(Lima-Callao) CR24 CR25 CR44-(Lima-Callao) CR57 CR58 ICR10 IO04 IO32b IO68"},{"stopId":1810146,"stopName":"Colegio Ricardo Bentín","stopTypeGroup":"bus","stopLat":-12.0321856,"stopLon":-77.0382759,"routeNames":"Cole-Bus"},{"stopId":732464,"stopName":"Alcázar","stopTypeGroup":"bus","stopLat":-12.0321801,"stopLon":-77.0278233,"routeNames":"301 305 336 412"},{"stopId":737415,"stopName":"Perú","stopTypeGroup":"bus","stopLat":-12.0321171,"stopLon":-77.0775998,"routeNames":"018p 1031 1103 1201 1278-(Lima-Callao) 1503 1504 1506 1513 1514 1518 1604 1611 1615 1618 1704 1901-(Lima-Callao) 2303 2408 2513 2613 3205 4205 4206 4210-(Lima-Callao) 4908-(Lima-Callao) 7103 8104 CR17 ICR14 IM04 IM21 IM24 IM40 IM57 IO44b SH24"},{"stopId":1030121,"stopName":"Dueñas","stopTypeGroup":"bus","stopLat":-12.0320919,"stopLon":-77.064669,"routeNames":"1703-(Lima-Callao) 2701-(Lima-Callao) 4905-(Lima-Callao) 4908-(Lima-Callao) 9305-(Lima-Callao) CR24 CR25 CR44-(Lima-Callao) CR57 CR58 ICR10 IO04 IO32b IO68"},{"stopId":1019527,"stopName":"Santa Fe","stopTypeGroup":"bus","stopLat":-12.0320749,"stopLon":-77.0664325,"routeNames":"1508 1703-(Lima-Callao) 2502 2505 2701-(Lima-Callao) 4905-(Lima-Callao) 4908-(Lima-Callao) 7204 8201 8214 9305-(Lima-Callao) CR24 CR25 CR44-(Lima-Callao) CR57 CR58 CR62 ICR10 IM06 IM22 IM47 IO04 IO28b IO30b IO32b IO35b IO38b IO45 IO55 IO6"},{"stopId":1032092,"stopName":"Tacna","stopTypeGroup":"bus","stopLat":-12.0320318,"stopLon":-77.0275421,"routeNames":"1103 1403 1602 1610 2412 2607 2608 2609 2611 2703 370 IM12-(Lima-Callao) NH26b"},{"stopId":931425,"stopName":"Universitaria","stopTypeGroup":"bus","stopLat":-12.0319697,"stopLon":-77.0777678,"routeNames":"2303 4210-(Lima-Callao) IM24 IM40 IM57"},{"stopId":1019524,"stopName":"Villa Rica","stopTypeGroup":"bus","stopLat":-12.0319502,"stopLon":-77.0743044,"routeNames":"1703-(Lima-Callao) 2303 2502 2505 2701-(Lima-Callao) 4905-(Lima-Callao) 4908-(Lima-Callao) 7204 8201 8214 9305-(Lima-Callao) CR24 CR25 CR44-(Lima-Callao) CR57 CR58 ICR10 IM06 IM57 IO04 IO28b IO30b IO32b IO55 IO68 OM21"},{"stopId":1019526,"stopName":"Santo Domingo","stopTypeGroup":"bus","stopLat":-12.0319434,"stopLon":-77.0713262,"routeNames":"1703-(Lima-Callao) 2502 2505 2701-(Lima-Callao) 4905-(Lima-Callao) 4908-(Lima-Callao) 7204 8201 8214 9305-(Lima-Callao) CR24 CR25 CR44-(Lima-Callao) CR57 CR58 ICR10 IM06 IO04 IO28b IO30b IO32b IO55 IO68 OM21"},{"stopId":1019090,"stopName":"Santa Fe","stopTypeGroup":"bus","stopLat":-12.0318815,"stopLon":-77.0661836,"routeNames":"1508 1703-(Lima-Callao) 2502 2505 2701-(Lima-Callao) 4905-(Lima-Callao) 4908-(Lima-Callao) 7204 8201 8214 9305-(Lima-Callao) CR24 CR25 CR44-(Lima-Callao) CR57 CR58 CR62 ICR10 IM06 IM22 IM47 IO04 IO28b IO30b IO32b IO35b IO38b IO45 IO55 IO6"},{"stopId":735412,"stopName":"Leoncio Prado","stopTypeGroup":"bus","stopLat":-12.0318705,"stopLon":-77.0279655,"routeNames":"1103 1403 1602 1610 2412 2607 2608 2609 2611 2703 301 305 336 370 IM12-(Lima-Callao) NH26b"},{"stopId":1030113,"stopName":"Mercado","stopTypeGroup":"bus","stopLat":-12.0318165,"stopLon":-77.0573089,"routeNames":"1703-(Lima-Callao) 2701-(Lima-Callao) 4905-(Lima-Callao) 4908-(Lima-Callao) 9305-(Lima-Callao) CR24 CR25 CR44-(Lima-Callao) CR57 CR58 ICR10 IO32b IO68"},{"stopId":732462,"stopName":"Alcázar","stopTypeGroup":"bus","stopLat":-12.0317656,"stopLon":-77.0277026,"routeNames":"412"},{"stopId":1309322,"stopName":"Universitaria","stopTypeGroup":"bus","stopLat":-12.0317551,"stopLon":-77.0773691,"routeNames":"2502 2505 2701-(Lima-Callao)"},{"stopId":1019092,"stopName":"Villa Rica","stopTypeGroup":"bus","stopLat":-12.0317451,"stopLon":-77.0741091,"routeNames":"1703-(Lima-Callao) 2502 2505 2701-(Lima-Callao) 4905-(Lima-Callao) 4908-(Lima-Callao) 7204 8201 8214 9305-(Lima-Callao) CR24 CR25 CR44-(Lima-Callao) CR57 CR58 ICR10 IM06 IO04 IO28b IO30b IO32b IO55 IO68 OM21"},{"stopId":1019091,"stopName":"Santo Domingo","stopTypeGroup":"bus","stopLat":-12.031707,"stopLon":-77.0711382,"routeNames":"1703-(Lima-Callao) 2502 2505 2701-(Lima-Callao) 4905-(Lima-Callao) 4908-(Lima-Callao) 7204 8201 8214 9305-(Lima-Callao) CR24 CR25 CR44-(Lima-Callao) CR57 CR58 ICR10 IM06 IO04 IO28b IO30b IO32b IO55 IO68 OM21"},{"stopId":736377,"stopName":"Perú","stopTypeGroup":"bus","stopLat":-12.0315636,"stopLon":-77.0775086,"routeNames":"018p 1031 1103 1201 1278-(Lima-Callao) 1503 1504 1506 1513 1514 1518 1604 1611 1615 1618 1704 1901-(Lima-Callao) 2408 2513 2613 3205 4205 4206 4908-(Lima-Callao) 7103 8104 CR17 ICR14 IM04 IM21 IO44b SH24a"},{"stopId":1195040,"stopName":"Ayacucho","stopTypeGroup":"bus","stopLat":-12.031553,"stopLon":-77.0951631,"routeNames":"3203-(Lima-Callao) CR57 CR58 ICR10 IM47 IO35b UCL01-(Lima-Callao) UCL03-(Lima-Callao)"},{"stopId":931424,"stopName":"Camaná","stopTypeGroup":"bus","stopLat":-12.0315402,"stopLon":-77.0812162,"routeNames":"1703-(Lima-Callao) 2303 4210-(Lima-Callao) 4905-(Lima-Callao) 7204 8201 8214 9305-(Lima-Callao) CR24 CR25 CR44-(Lima-Callao) CR57 CR58 ICR10 IM06 IM24 IM40 IM57 IO04 IO28b IO30b IO32b IO35b IO55 IO68 OM21"},{"stopId":1201621,"stopName":"Caqueta","stopTypeGroup":"bus","stopLat":-12.0314171,"stopLon":-77.0443149,"routeNames":"1217 2703 CR12 CR43"},{"stopId":931373,"stopName":"Camaná","stopTypeGroup":"bus","stopLat":-12.0313716,"stopLon":-77.0809406,"routeNames":"1703-(Lima-Callao) 2303 4210-(Lima-Callao) 4905-(Lima-Callao) 4908-(Lima-Callao) 7204 8201 8214 9305-(Lima-Callao) CR24 CR25 CR44-(Lima-Callao) CR57 CR58 ICR10 IM06 IM24 IM40 IM57 IO04 IO28b IO30b IO32b IO55 IO68 OM21"},{"stopId":1017596,"stopName":"Pezet","stopTypeGroup":"bus","stopLat":-12.0313317,"stopLon":-77.0421636,"routeNames":"2209 2409 2702 OM23 OM33 OM34 SH112a"},{"stopId":1309254,"stopName":"Avenida Perú","stopTypeGroup":"bus","stopLat":-12.0312357,"stopLon":-77.0809954,"routeNames":"2502 2505 2701-(Lima-Callao) IO35b"},{"stopId":1300195,"stopName":"Jirón Salinas","stopTypeGroup":"bus","stopLat":-12.0312252,"stopLon":-77.0368302,"routeNames":"IM12-(Lima-Callao)"},{"stopId":931423,"stopName":"27 de Noviembre","stopTypeGroup":"bus","stopLat":-12.0311783,"stopLon":-77.084361,"routeNames":"1703-(Lima-Callao) 2303 4210-(Lima-Callao) 4905-(Lima-Callao) 7204 8201 8214 9305-(Lima-Callao) CR24 CR25 CR44-(Lima-Callao) CR57 CR58 ICR10 IM06 IM24 IM40 IM57 IO04 IO28b IO30b IO32b IO35b IO55 IO68 OM21"},{"stopId":1312563,"stopName":"Río Branco","stopTypeGroup":"bus","stopLat":-12.031136,"stopLon":-77.0667851,"routeNames":"1508 CR62 IM22 IM47 IO35b IO38b IO45 IPC06"},{"stopId":1017570,"stopName":"Muñoz","stopTypeGroup":"bus","stopLat":-12.0310674,"stopLon":-77.0417405,"routeNames":"1217 2209 2409 2702 3505 3906-(Lima-Callao) 8306 9306-(Callao-Lima) CR12 CR43 IM12-(Lima-Callao) IO52 OM23 OM33 OM34 SH112a"},{"stopId":931374,"stopName":"27 de Noviembre","stopTypeGroup":"bus","stopLat":-12.0310262,"stopLon":-77.0838158,"routeNames":"1703-(Lima-Callao) 2303 4210-(Lima-Callao) 4905-(Lima-Callao) 4908-(Lima-Callao) 7204 8201 8214 9305-(Lima-Callao) CR24 CR25 CR44-(Lima-Callao) CR57 CR58 ICR10 IM06 IM24 IM40 IM57 IO04 IO28b IO30b IO32b IO35b IO55 IO68 OM21"},{"stopId":1194999,"stopName":"Grifo","stopTypeGroup":"bus","stopLat":-12.0310165,"stopLon":-77.0951167,"routeNames":"3203-(Lima-Callao) 9305-(Lima-Callao) CR57 CR58 ICR10 IM47 IO35b UCL01-(Lima-Callao) UCL03-(Lima-Callao)"},{"stopId":1647462,"stopName":"Perú","stopTypeGroup":"bus","stopLat":-12.0308422,"stopLon":-77.0883688},{"stopId":1201622,"stopName":"Parque del Trabajo","stopTypeGroup":"bus","stopLat":-12.030819,"stopLon":-77.0438589,"routeNames":"1217 2703 9306-(Callao-Lima) CR12 CR43 IM12-(Lima-Callao)"},{"stopId":737537,"stopName":"Habich ","stopTypeGroup":"bus","stopLat":-12.030795,"stopLon":-77.0568073,"routeNames":"1213 1308 1404 1411 1412 1505 1607 1612 1701 1702 1706 1801-(Lima-Callao) 1802 1804 2204 2404-(Lima-Callao) 2406 2407 2414 2511-(Lima-Callao) 2603 2604 2804-(Lima-Callao) 2805 4204 4212 7101 8102 8105 8107 8108 8109 8110 8111 8112 8211 8212 9"},{"stopId":931421,"stopName":"Próceres","stopTypeGroup":"bus","stopLat":-12.0306774,"stopLon":-77.0885615,"routeNames":"1703-(Lima-Callao) 2303 4905-(Lima-Callao) 9305-(Lima-Callao) CR24 CR25 CR44-(Lima-Callao) CR57 CR58 ICR10 IM06 IM24 IM40 IO04 IO28b IO30b IO32b IO35b IO55 IO68 OM21"},{"stopId":1022550,"stopName":"Parque Del Trabajo","stopTypeGroup":"bus","stopLat":-12.0305914,"stopLon":-77.0440411,"routeNames":"1608 2411 2510 2803 8209 9307-(Callao-Lima) CR07 IO19 IO27"},{"stopId":1157576,"stopName":"Parque del Trabajo","stopTypeGroup":"bus","stopLat":-12.0305741,"stopLon":-77.0438449,"routeNames":"1217 2703 3505 3906-(Lima-Callao) 8306 9306-(Callao-Lima) CR12 CR43 IM12-(Lima-Callao) IO52"},{"stopId":1456622,"stopName":"Las Cucardas - Lazzareto","stopTypeGroup":"bus","stopLat":-12.0305458,"stopLon":-77.0470601,"routeNames":"1217 2703 CR12 CR43"},{"stopId":1456624,"stopName":"Pastor Bravo","stopTypeGroup":"bus","stopLat":-12.0305458,"stopLon":-77.0451343,"routeNames":"1217 2703 CR12 CR43"},{"stopId":931376,"stopName":"Próceres","stopTypeGroup":"bus","stopLat":-12.0305314,"stopLon":-77.0881315,"routeNames":"1703-(Lima-Callao) 2303 4210-(Lima-Callao) 4905-(Lima-Callao) 7204 8201 8214 9305-(Lima-Callao) CR24 CR25 CR44-(Lima-Callao) CR57 CR58 ICR10 IM06 IM24 IM40 IM57 IO04 IO28b IO30b IO32b IO35b IO55 IO68 OM21"},{"stopId":1019316,"stopName":"Perú","stopTypeGroup":"bus","stopLat":-12.0303806,"stopLon":-77.0883158,"routeNames":"3203-(Lima-Callao) 4210-(Lima-Callao) 7204 8201 8214 IM57"},{"stopId":1022556,"stopName":"Parque del Trabajo","stopTypeGroup":"bus","stopLat":-12.0303631,"stopLon":-77.0442809,"routeNames":"1608 2411 2510 2803 8209 9307-(Callao-Lima) CR07 IO19 IO27"},{"stopId":931420,"stopName":"Huaraz","stopTypeGroup":"bus","stopLat":-12.0303562,"stopLon":-77.0915729,"routeNames":"1703-(Lima-Callao) 2303 3203-(Lima-Callao) 4905-(Lima-Callao) 9305-(Lima-Callao) CR24 CR25 CR44-(Lima-Callao) CR57 CR58 ICR10 IM06 IM24 IM40 IO04 IO28b IO30b IO32b IO35b IO55 IO68 OM21"},{"stopId":1032134,"stopName":"Parroquia San Francisco Solano","stopTypeGroup":"bus","stopLat":-12.0303347,"stopLon":-77.0294572,"routeNames":"1103 1403 1602 1610 2412 2607 2608 2609 2611 2703 336 370 IM12-(Lima-Callao) NH26b"},{"stopId":1032133,"stopName":"Parroquia San Francisco Solano","stopTypeGroup":"bus","stopLat":-12.0302298,"stopLon":-77.0298166,"routeNames":"1103 1403 1602 1610 2412 2607 2608 2609 2611 2703 370 IM12-(Lima-Callao) NH26b"},{"stopId":931377,"stopName":"Huaraz","stopTypeGroup":"bus","stopLat":-12.0301938,"stopLon":-77.0912731,"routeNames":"1703-(Lima-Callao) 2303 3203-(Lima-Callao) 4905-(Lima-Callao) 9305-(Lima-Callao) CR24 CR25 CR44-(Lima-Callao) CR57 CR58 ICR10 IM06 IM24 IM40 IO04 IO28b IO30b IO32b IO35b IO55 IO68 OM21"},{"stopId":1456621,"stopName":"10 de Junio","stopTypeGroup":"bus","stopLat":-12.0301838,"stopLon":-77.0498201,"routeNames":"1217 2703 CR12 CR43"},{"stopId":1195041,"stopName":"Avenida Perú","stopTypeGroup":"bus","stopLat":-12.030177,"stopLon":-77.0944821,"routeNames":"3203-(Lima-Callao) CR57 CR58 ICR10 IM47 IO35b UCL01-(Lima-Callao) UCL03-(Lima-Callao)"},{"stopId":1310594,"stopName":"Parroquia San Francisco Solano","stopTypeGroup":"bus","stopLat":-12.0301024,"stopLon":-77.0295697,"routeNames":"336"},{"stopId":931418,"stopName":"Quilca","stopTypeGroup":"bus","stopLat":-12.030038,"stopLon":-77.0946907,"routeNames":"1703-(Lima-Callao) 4905-(Lima-Callao) 9305-(Lima-Callao) CR24 CR25 CR44-(Lima-Callao) IM06 IM24 IM40 IO04 IO28b IO30b IO32b IO55 IO68 OM21 UCL03-(Lima-Callao)"},{"stopId":1303794,"stopName":"Felipe Aranclibia","stopTypeGroup":"bus","stopLat":-12.0300027,"stopLon":-77.0360041,"routeNames":"2703"},{"stopId":1810145,"stopName":"Colegios","stopTypeGroup":"bus","stopLat":-12.029945,"stopLon":-77.0309722,"routeNames":"Cole-Bus"},{"stopId":1017571,"stopName":"Piñonate","stopTypeGroup":"bus","stopLat":-12.0299018,"stopLon":-77.0428004,"routeNames":"1217 2209 2409 2702 2703 3505 3906-(Lima-Callao) 8306 9306-(Callao-Lima) CR12 CR43 IM12-(Lima-Callao) IO52 OM23 OM33 OM34 SH112a"},{"stopId":1017595,"stopName":"Arica","stopTypeGroup":"bus","stopLat":-12.0298993,"stopLon":-77.0430541,"routeNames":"1103 1403 1602 1610 2209 2409 2611 2702 NH26b OM23 OM33 OM34 SH112a"},{"stopId":931380,"stopName":"Quilca","stopTypeGroup":"bus","stopLat":-12.0298735,"stopLon":-77.0942881,"routeNames":"1703-(Lima-Callao) 3203-(Lima-Callao) 4905-(Lima-Callao) 9305-(Lima-Callao) CR24 CR25 CR44-(Lima-Callao) CR57 CR58 ICR10 IM06 IM24 IM40 IO04 IO28b IO30b IO32b IO35b IO55 IO68 OM21"},{"stopId":1196836,"stopName":"Habich","stopTypeGroup":"bus","stopLat":-12.0298585,"stopLon":-77.0597094,"routeNames":"1174-(Lima-Callao) 1508 2404-(Lima-Callao) 2406 2804-(Lima-Callao) CR07 CR62 IM47 IO27 IO35b IO38b IO45 IPC06 OM23 OM33 OM34"},{"stopId":1300194,"stopName":"Avenida Villacampa","stopTypeGroup":"bus","stopLat":-12.0298191,"stopLon":-77.0357037,"routeNames":"2703 IM12-(Lima-Callao)"},{"stopId":1456620,"stopName":"La VIictoria","stopTypeGroup":"bus","stopLat":-12.029785,"stopLon":-77.0526016,"routeNames":"1217 2703 CR12 CR43"},{"stopId":1533797,"stopName":"Los Virreyes","stopTypeGroup":"bus","stopLat":-12.0297194,"stopLon":-77.029092,"routeNames":"Cole-Bus"},{"stopId":1032101,"stopName":"Pizarro","stopTypeGroup":"bus","stopLat":-12.0297045,"stopLon":-77.0428177,"routeNames":"1103 1403 1602 1610 2611 2703 NH26b"},{"stopId":815584,"stopName":"Parque del Trabajo","stopTypeGroup":"bus","stopLat":-12.0295725,"stopLon":-77.0442438,"routeNames":"A B D"},{"stopId":1522944,"stopName":"Los Virreyes","stopTypeGroup":"bus","stopLat":-12.029562,"stopLon":-77.0291081},{"stopId":1196834,"stopName":"Canada","stopTypeGroup":"bus","stopLat":-12.0295308,"stopLon":-77.0642407,"routeNames":"1174-(Lima-Callao) 1508 2404-(Lima-Callao) 2406 2804-(Lima-Callao) CR07 CR62 IM47 IO27 IO35b IO38b IO45 IPC06 OM23 OM33 OM34"},{"stopId":737417,"stopName":"Lima","stopTypeGroup":"bus","stopLat":-12.0295096,"stopLon":-77.0766449,"routeNames":"018p 1031 1103 1201 1278-(Lima-Callao) 1503 1504 1506 1513 1514 1518 1604 1611 1615 1618 1704 1901-(Lima-Callao) 2408 2502 2505 2513 2613 2701-(Lima-Callao) 3205 4205 4206 7103 8104 CR17 ICR14 IM04 IM21 IO44b SH24a"},{"stopId":1196841,"stopName":"Canada","stopTypeGroup":"bus","stopLat":-12.0294831,"stopLon":-77.0638758,"routeNames":"1174-(Lima-Callao) 1508 2404-(Lima-Callao) 2406 2804-(Lima-Callao) CR07 CR62 IM47 IO27 IO35b IO38b IO45 IPC06 OM23 OM33 OM34"},{"stopId":1312032,"stopName":"Lima","stopTypeGroup":"bus","stopLat":-12.0294204,"stopLon":-77.0802605,"routeNames":"2502 2505 2701-(Lima-Callao) IO35b"},{"stopId":1312033,"stopName":"Universitaria","stopTypeGroup":"bus","stopLat":-12.0293836,"stopLon":-77.0768702,"routeNames":"4908-(Lima-Callao) IO35b"},{"stopId":737710,"stopName":"Habich","stopTypeGroup":"bus","stopLat":-12.0293836,"stopLon":-77.0573169,"routeNames":"1213 1308 1404 1411 1412 1505 1607 1612 1701 1702 1706 1801-(Lima-Callao) 1802 1804 2204 2404-(Lima-Callao) 2406 2407 2414 2511-(Lima-Callao) 2603 2604 2703 2804-(Lima-Callao) 2805 4204 4212 7101 8102 8105 8107 8108 8109 8110 8111 8112 8211 8"},{"stopId":735411,"stopName":"Madrid","stopTypeGroup":"bus","stopLat":-12.0292813,"stopLon":-77.0308757,"routeNames":"1103 1403 1602 1610 2412 2607 2608 2609 2611 2703 301 305 370 IM12-(Lima-Callao) NH26b"},{"stopId":2003359,"stopName":"Lima","stopTypeGroup":"bus","stopLat":-12.029215751137734,"stopLon":-77.08322167396547,"routeNames":"4908-(Lima-Callao)"},{"stopId":736376,"stopName":"Lima","stopTypeGroup":"bus","stopLat":-12.029158,"stopLon":-77.0766395,"routeNames":"018p 1031 1103 1201 1278-(Lima-Callao) 1503 1504 1506 1513 1514 1518 1604 1611 1615 1618 1704 1901-(Lima-Callao) 2408 2502 2505 2513 2613 3205 4205 4206 7103 8104 CR17 ICR14 IM04 IM21 IO35b IO44b SH24a"},{"stopId":1325353,"stopName":"Parque Franco Peruano","stopTypeGroup":"bus","stopLat":-12.0290741,"stopLon":-77.0513946,"routeNames":"2703"},{"stopId":1022551,"stopName":"Túpac Amaru","stopTypeGroup":"bus","stopLat":-12.029061,"stopLon":-77.0441616,"routeNames":"1608 2411 2510 2803 8209 9307-(Callao-Lima) CR07 IO19 IO27"},{"stopId":1309253,"stopName":"Avenida Lima","stopTypeGroup":"bus","stopLat":-12.028948153371616,"stopLon":-77.07875310859833,"routeNames":"2701-(Lima-Callao)"},{"stopId":735470,"stopName":"Las Calezas","stopTypeGroup":"bus","stopLat":-12.0288773,"stopLon":-77.0310795,"routeNames":"1103 1403 1602 1610 2412 2607 2608 2609 2611 2703 301 305 370 IM12-(Lima-Callao) NH26b"},{"stopId":1019284,"stopName":"Lima","stopTypeGroup":"bus","stopLat":-12.0287759,"stopLon":-77.0875232,"routeNames":"7204 8201 8214"},{"stopId":1313796,"stopName":"Lima","stopTypeGroup":"bus","stopLat":-12.0286124,"stopLon":-77.0889509,"routeNames":"3203-(Lima-Callao) 4210-(Lima-Callao) IM57"},{"stopId":1323498,"stopName":"Chile","stopTypeGroup":"bus","stopLat":-12.0285416,"stopLon":-77.0664874,"routeNames":"1508 CR62 IM22 IM47 IO35b IO38b IO45 IPC06"},{"stopId":1017572,"stopName":"Caquetá","stopTypeGroup":"bus","stopLat":-12.0284965,"stopLon":-77.0440318,"routeNames":"1103 1403 1602 1610 2209 2409 2611 2702 NH26b OM23 OM33 OM34 SH112a"},{"stopId":1019315,"stopName":"Lima","stopTypeGroup":"bus","stopLat":-12.0284093,"stopLon":-77.0875088,"routeNames":"3203-(Lima-Callao) 4210-(Lima-Callao) 7204 8201 8214 IM57"},{"stopId":761243,"stopName":"Lima Cargo","stopTypeGroup":"bus","stopLat":-12.0283737,"stopLon":-77.1026704,"routeNames":"1491 1501-(Lima-Callao) 1502-(Lima-Callao) 2511-(Lima-Callao) 9305-(Lima-Callao) CR13 CR14 CR15 CR16 CR17 CR19 CR27 CR32 CR34 CR35 CR41 CR42 CR49 CR51 CR53 CR56 CR57 CR58 CR61 CR62 CR65 CR69 CR71 CR75 CR84 ICR05 ICR10 IM08 IM12-(Lima-Callao"},{"stopId":1196833,"stopName":"Chile","stopTypeGroup":"bus","stopLat":-12.0282714,"stopLon":-77.0665464,"routeNames":"1174-(Lima-Callao) 2404-(Lima-Callao) 2406 2804-(Lima-Callao) CR07 IM22 IO27 OM23 OM33 OM34"},{"stopId":1017594,"stopName":"Caquetá","stopTypeGroup":"bus","stopLat":-12.0282653,"stopLon":-77.0445966,"routeNames":"1103 1403 1602 1608 1610 2209 2409 2411 2510 2611 2702 2803 8209 9307-(Callao-Lima) CR07 IO19 IO27 NH26b OM23 OM33 OM34 SH112a"},{"stopId":1196842,"stopName":"Chile","stopTypeGroup":"bus","stopLat":-12.0282399,"stopLon":-77.0663345,"routeNames":"1174-(Lima-Callao) 1508 2404-(Lima-Callao) 2406 2804-(Lima-Callao) CR07 CR62 IM47 IO27 IO35b IO38b IO45 IPC06 OM23 OM33 OM34"},{"stopId":1300184,"stopName":"Monitor Huascar","stopTypeGroup":"bus","stopLat":-12.0282294,"stopLon":-77.0342445,"routeNames":"2703 Cole-Bus"},{"stopId":1456619,"stopName":"García y Lastre","stopTypeGroup":"bus","stopLat":-12.0281795,"stopLon":-77.0534974,"routeNames":"1217 CR12 CR43"},{"stopId":1300193,"stopName":"Monitor Huáscar","stopTypeGroup":"bus","stopLat":-12.0281664,"stopLon":-77.0343572,"routeNames":"2703 IM12-(Lima-Callao)"},{"stopId":761279,"stopName":"Lima Cargo","stopTypeGroup":"bus","stopLat":-12.0280851,"stopLon":-77.1029681,"routeNames":"1491 1501-(Lima-Callao) 1502-(Lima-Callao) 2511-(Lima-Callao) CR13 CR14 CR15 CR16 CR17 CR19 CR27 CR32 CR34 CR35 CR41 CR42 CR49 CR51 CR53 CR56 CR57 CR58 CR61 CR62 CR65 CR69 CR71 CR75 CR84 ICR05 ICR10 IM08 IM12-(Lima-Callao) IM18 IM19 IM20 IM26"},{"stopId":1023752,"stopName":"Panamericana Norte","stopTypeGroup":"bus","stopLat":-12.0280217,"stopLon":-77.0570571,"routeNames":"1174-(Lima-Callao) 1217 1508 1608 1612 2702 8209 9307-(Callao-Lima) CR07 CR62 IM47 IO19 IO27 IO35b IO38b IO45 IPC06 OM23 OM33 OM34"},{"stopId":732395,"stopName":"Túnel","stopTypeGroup":"bus","stopLat":-12.0279382,"stopLon":-77.019538,"routeNames":"303 412 4307"},{"stopId":931379,"stopName":"Calle 2","stopTypeGroup":"bus","stopLat":-12.0276649,"stopLon":-77.0971847,"routeNames":"1703-(Lima-Callao) 4905-(Lima-Callao) CR24 CR25 CR44-(Lima-Callao) IM06 IM24 IM40 IO04 IO28b IO30b IO32b IO55 IO68 OM21 UCL03-(Lima-Callao)"},{"stopId":735410,"stopName":"La Colonia","stopTypeGroup":"bus","stopLat":-12.0275814,"stopLon":-77.032764,"routeNames":"1103 1403 1602 1610 2412 2607 2608 2611 2703 301 305 370 IM12-(Lima-Callao) NH26b"},{"stopId":931417,"stopName":"Pasaje 10","stopTypeGroup":"bus","stopLat":-12.0275587,"stopLon":-77.0975068,"routeNames":"1703-(Lima-Callao) 4905-(Lima-Callao) 9305-(Lima-Callao) CR24 CR25 CR44-(Lima-Callao) IM06 IM24 IM40 IO04 IO28b IO30b IO32b IO55 IO68 OM21 UCL03-(Lima-Callao)"},{"stopId":1196831,"stopName":"Calle B","stopTypeGroup":"bus","stopLat":-12.0274287,"stopLon":-77.0721608,"routeNames":"1174-(Lima-Callao) 2404-(Lima-Callao) 2406 2804-(Lima-Callao) CR07 IM22 IO27 OM23 OM33 OM34"},{"stopId":1196843,"stopName":"Calle B","stopTypeGroup":"bus","stopLat":-12.0273619,"stopLon":-77.0719743,"routeNames":"1174-(Lima-Callao) 2404-(Lima-Callao) 2406 2804-(Lima-Callao) CR07 IM22 IO27 OM23 OM33 OM34"},{"stopId":735472,"stopName":"Arancibia","stopTypeGroup":"bus","stopLat":-12.0273611,"stopLon":-77.0327961,"routeNames":"1103 1403 1602 1610 2412 2607 2608 2609 2611 2703 301 305 370 IM12-(Lima-Callao) NH26b"},{"stopId":1032127,"stopName":"Guardia Republicana","stopTypeGroup":"bus","stopLat":-12.0269864,"stopLon":-77.0401265,"routeNames":"1103 1403 1602 1610 2611 2703 IM12-(Lima-Callao) NH26b"},{"stopId":1303792,"stopName":"Isidro Alcibar","stopTypeGroup":"bus","stopLat":-12.0269387,"stopLon":-77.0505738,"routeNames":"2703"},{"stopId":737418,"stopName":"José Granda","stopTypeGroup":"bus","stopLat":-12.0268994,"stopLon":-77.0755988,"routeNames":"018p 1031 1103 1201 1278-(Lima-Callao) 1503 1504 1506 1513 1514 1518 1604 1611 1615 1618 1704 1901-(Lima-Callao) 2408 2502 2505 2513 2613 2701-(Lima-Callao) 3205 4205 4206 7103 8104 CR17 ICR14 IM04 IM21 IO35b IO44b SH24a"},{"stopId":1032100,"stopName":"Guardia Republicana","stopTypeGroup":"bus","stopLat":-12.0266352,"stopLon":-77.039937,"routeNames":"1103 1403 1602 1610 2611 2703 NH26b"},{"stopId":1201635,"stopName":"Habich","stopTypeGroup":"bus","stopLat":-12.0265829,"stopLon":-77.0545552,"routeNames":"1217 CR12 CR43"},{"stopId":1023715,"stopName":"Valdizán","stopTypeGroup":"bus","stopLat":-12.0265468,"stopLon":-77.054721,"routeNames":"1174-(Lima-Callao) 1217 1508 1608 1612 2702 8209 9307-(Callao-Lima) CR07 CR62 IM47 IO19 IO27 IO35b IO38b IO45 IPC06 OM23 OM33 OM34"},{"stopId":1023751,"stopName":"Valdizán","stopTypeGroup":"bus","stopLat":-12.0263533,"stopLon":-77.0546324,"routeNames":"1174-(Lima-Callao) 1508 1608 2702 8209 9307-(Callao-Lima) CR07 CR62 IM47 IO19 IO27 IO35b IO45 IPC06 OM23 OM33 OM34"},{"stopId":735474,"stopName":"Amancaes","stopTypeGroup":"bus","stopLat":-12.0263257,"stopLon":-77.033961,"routeNames":"1103 1403 1602 1610 2412 2607 2608 2611 301 305 370 371 Cole-Bus NH26b"},{"stopId":1466016,"stopName":"Habich","stopTypeGroup":"bus","stopLat":-12.0263248,"stopLon":-77.0547876,"routeNames":"1612 CR12 CR43 IO38b"},{"stopId":1310603,"stopName":"Barreda y Aguilar","stopTypeGroup":"bus","stopLat":-12.0263196,"stopLon":-77.0284188,"routeNames":"336 Cole-Bus"},{"stopId":732461,"stopName":"Losa","stopTypeGroup":"bus","stopLat":-12.0262435,"stopLon":-77.0197472,"routeNames":"412 4307"},{"stopId":1032131,"stopName":"Amancaes","stopTypeGroup":"bus","stopLat":-12.0261957,"stopLon":-77.0343275,"routeNames":"1103 1403 1602 1610 2611 305 371 IM12-(Lima-Callao) NH26b"},{"stopId":1041976,"stopName":"José Granda","stopTypeGroup":"bus","stopLat":-12.0261216,"stopLon":-77.07482,"routeNames":"1174-(Lima-Callao) 2404-(Lima-Callao) 2406 2804-(Lima-Callao) CR07 IM22 IO27 OM23 OM33 OM34"},{"stopId":735408,"stopName":"Amancaes","stopTypeGroup":"bus","stopLat":-12.0260992,"stopLon":-77.0340648,"routeNames":"2412 2607 2608 301 370"},{"stopId":1309252,"stopName":"Luis Hague","stopTypeGroup":"bus","stopLat":-12.0260783,"stopLon":-77.0776856,"routeNames":"2701-(Lima-Callao)"},{"stopId":1303854,"stopName":"Villavicencio","stopTypeGroup":"bus","stopLat":-12.0260468,"stopLon":-77.0579016,"routeNames":"2703"},{"stopId":1046714,"stopName":"Mercado de Ciudad y Campo","stopTypeGroup":"bus","stopLat":-12.0259873,"stopLon":-77.0285696,"routeNames":"2412 2607 2608 2609"},{"stopId":931381,"stopName":"Tamayo","stopTypeGroup":"bus","stopLat":-12.0259404,"stopLon":-77.0980735,"routeNames":"1703-(Lima-Callao) 4905-(Lima-Callao) CR24 CR25 CR44-(Lima-Callao) IM06 IM24 IM40 IO04 IO28b IO30b IO32b IO55 OM21 UCL03-(Lima-Callao)"},{"stopId":1196829,"stopName":"Ovalo Granda","stopTypeGroup":"bus","stopLat":-12.0258495,"stopLon":-77.0760179,"routeNames":"1174-(Lima-Callao) 1278-(Lima-Callao) 2404-(Lima-Callao) 2406 4205 4206 CR07 ICR14 IM04 IM22 IO27 IO35b OM23 OM33 OM34"},{"stopId":1019285,"stopName":"Pacasmayo","stopTypeGroup":"bus","stopLat":-12.0258436,"stopLon":-77.0862497,"routeNames":"7204 8201 8214"},{"stopId":1324396,"stopName":"Villavicencio","stopTypeGroup":"bus","stopLat":-12.0258422,"stopLon":-77.0577139},{"stopId":931416,"stopName":"Tamayo","stopTypeGroup":"bus","stopLat":-12.0258378,"stopLon":-77.098408,"routeNames":"1703-(Lima-Callao) 4905-(Lima-Callao) 9305-(Lima-Callao) CR24 CR25 CR44-(Lima-Callao) IM06 IM24 IM40 IO04 IO28b IO30b IO32b IO55 IO68 OM21 UCL03-(Lima-Callao)"},{"stopId":1032128,"stopName":"Morro Solar","stopTypeGroup":"bus","stopLat":-12.0256695,"stopLon":-77.0388658,"routeNames":"1103 1403 1602 1610 2611 IM12-(Lima-Callao) NH26b"},{"stopId":737535,"stopName":"Honorio Delgado","stopTypeGroup":"bus","stopLat":-12.0256611,"stopLon":-77.0587948,"routeNames":"1213 1217 1308 1404 1411 1412 1505 1607 1608 1701 1702 1706 1801-(Lima-Callao) 1802 1804 2204 2407 2414 2511-(Lima-Callao) 2603 2604 2702 2805 4204 4212 7101 8102 8105 8107 8108 8109 8110 8111 8112 8209 8211 8212 9307-(Callao-Lima) 9401-(Lima-"},{"stopId":737711,"stopName":"Honorio Delgado","stopTypeGroup":"bus","stopLat":-12.0256375,"stopLon":-77.0583495,"routeNames":"1213 1217 1308 1404 1411 1412 1505 1607 1608 1701 1702 1706 1801-(Lima-Callao) 1802 1804 2204 2407 2414 2511-(Lima-Callao) 2603 2604 2702 2805 4204 4212 7101 8102 8105 8107 8108 8109 8110 8111 8112 8209 8211 8212 9307-(Callao-Lima) 9401-(Lima-"},{"stopId":1466015,"stopName":"Comisaría San Martín de Porres","stopTypeGroup":"bus","stopLat":-12.025509,"stopLon":-77.0552489,"routeNames":"1612 CR12 CR43 IO38b"},{"stopId":1032099,"stopName":"Morro Solar","stopTypeGroup":"bus","stopLat":-12.0254337,"stopLon":-77.0388158,"routeNames":"1103 1403 1602 1610 2611 NH26b"},{"stopId":736375,"stopName":"José Granda","stopTypeGroup":"bus","stopLat":-12.0254119,"stopLon":-77.0751241,"routeNames":"018p 1031 1103 1201 1503 1504 1506 1513 1514 1518 1604 1611 1615 1618 1704 1901-(Lima-Callao) 2408 2502 2505 2513 2613 2804-(Lima-Callao) 3205 7103 8104 CR17 IM21 IO44b SH24a"},{"stopId":1019314,"stopName":"Pacasmayo","stopTypeGroup":"bus","stopLat":-12.0253834,"stopLon":-77.0861951,"routeNames":"3203-(Lima-Callao) 4210-(Lima-Callao) 7204 8201 8214 IM57"},{"stopId":1310604,"stopName":"Filomeno","stopTypeGroup":"bus","stopLat":-12.0251024,"stopLon":-77.0296097,"routeNames":"2412 2607 2608 2609"},{"stopId":1313797,"stopName":"Pacasmayo","stopTypeGroup":"bus","stopLat":-12.0250027,"stopLon":-77.0874327,"routeNames":"3203-(Lima-Callao) 4210-(Lima-Callao) IM57"},{"stopId":1325198,"stopName":"Filomeno","stopTypeGroup":"bus","stopLat":-12.0250027,"stopLon":-77.0299369,"routeNames":"2412 2607 2609"},{"stopId":1017593,"stopName":"Puerta 3 UNI","stopTypeGroup":"bus","stopLat":-12.0249265,"stopLon":-77.0482603,"routeNames":"1103 1403 1602 1608 1610 2209 2409 2411 2510 2611 2702 2803 8209 9307-(Callao-Lima) CR07 IO19 IO27 NH26b OM23 OM33 OM34 SH112a"},{"stopId":1023716,"stopName":"Parque Cahuide","stopTypeGroup":"bus","stopLat":-12.0248474,"stopLon":-77.0521166,"routeNames":"1174-(Lima-Callao) 1508 1608 1612 2702 8209 9307-(Callao-Lima) CR07 CR12 CR43 CR62 IM47 IO19 IO27 IO35b IO38b IO45 IPC06 OM23 OM33 OM34"},{"stopId":1017576,"stopName":"Puerta 3","stopTypeGroup":"bus","stopLat":-12.0247923,"stopLon":-77.047942,"routeNames":"1103 1403 1602 1608 1610 2209 2409 2411 2510 2611 2702 2803 8209 9307-(Callao-Lima) CR07 IO19 IO27 NH26b OM23 OM33 OM34 SH112a"},{"stopId":1032098,"stopName":"Calle 9","stopTypeGroup":"bus","stopLat":-12.0247149,"stopLon":-77.0357796,"routeNames":"1103 1403 1602 1610 2611 NH26b"},{"stopId":1032129,"stopName":"La Pedrera","stopTypeGroup":"bus","stopLat":-12.0246464,"stopLon":-77.0360871,"routeNames":"1103 1403 1602 1610 2611 IM12-(Lima-Callao) NH26b"},{"stopId":1022552,"stopName":"Parque Cahuide","stopTypeGroup":"bus","stopLat":-12.0246305,"stopLon":-77.0520352,"routeNames":"1174-(Lima-Callao) 1608 2702 8209 9307-(Callao-Lima) CR07 IO19 IO27 OM23 OM33 OM34"},{"stopId":1200430,"stopName":"Parque Cahuide","stopTypeGroup":"bus","stopLat":-12.0246114,"stopLon":-77.0521898,"routeNames":"1103 1403 1508 1610 2703 CR62 IM47 IO35b IO45 IPC06"},{"stopId":931382,"stopName":"El Olívar","stopTypeGroup":"bus","stopLat":-12.024507,"stopLon":-77.0987791,"routeNames":"1703-(Lima-Callao) 4905-(Lima-Callao) CR24 CR25 CR44-(Lima-Callao) IM06 IM24 IM40 IO04 IO28b IO30b IO32b IO55 IO68 OM21 UCL03-(Lima-Callao)"},{"stopId":761278,"stopName":"Aeropuerto (Aduanas)","stopTypeGroup":"bus","stopLat":-12.0243626,"stopLon":-77.1051782,"routeNames":"1491 1501-(Lima-Callao) 1502-(Lima-Callao) 2511-(Lima-Callao) CR13 CR14 CR15 CR16 CR17 CR19 CR27 CR32 CR34 CR35 CR41 CR42 CR49 CR51 CR53 CR56 CR57 CR58 CR61 CR62 CR65 CR69 CR71 CR75 CR84 ICR05 ICR10 IM08 IM12-(Lima-Callao) IM18 IM19 IM20 IM26"},{"stopId":931415,"stopName":"El Olívar","stopTypeGroup":"bus","stopLat":-12.0243228,"stopLon":-77.0990951,"routeNames":"1703-(Lima-Callao) 4905-(Lima-Callao) 9305-(Lima-Callao) CR24 CR25 CR44-(Lima-Callao) IM06 IM24 IM40 IO04 IO28b IO30b IO32b IO55 IO68 OM21"},{"stopId":815583,"stopName":"UNI","stopTypeGroup":"bus","stopLat":-12.0241842,"stopLon":-77.0489109,"routeNames":"A B D EX5 EX8 EX9"},{"stopId":1071805,"stopName":"Navarro del Águila","stopTypeGroup":"bus","stopLat":-12.0240717,"stopLon":-77.0806806,"routeNames":"1174-(Lima-Callao) 1278-(Lima-Callao) 2404-(Lima-Callao) 2406 2701-(Lima-Callao) 4205 4206 CR07 ICR14 IM04 IM22 IO27 IO35b OM23 OM33 OM34"},{"stopId":1071807,"stopName":"Navarro del Águila","stopTypeGroup":"bus","stopLat":-12.0240218,"stopLon":-77.0804687,"routeNames":"1174-(Lima-Callao) 1278-(Lima-Callao) 2404-(Lima-Callao) 2406 2701-(Lima-Callao) 4205 4206 CR07 ICR14 IM04 IM22 IO27 IO35b OM23 OM33 OM34"},{"stopId":761244,"stopName":"Aduanas","stopTypeGroup":"bus","stopLat":-12.0239035,"stopLon":-77.1050629,"routeNames":"1491 1501-(Lima-Callao) 1502-(Lima-Callao) 2511-(Lima-Callao) 9305-(Lima-Callao) CR13 CR14 CR15 CR16 CR17 CR19 CR27 CR32 CR34 CR35 CR41 CR42 CR49 CR51 CR53 CR56 CR57 CR58 CR61 CR62 CR65 CR69 CR71 CR75 CR84 ICR05 ICR10 IM08 IM12-(Lima-Callao"},{"stopId":735590,"stopName":"Calle 3","stopTypeGroup":"bus","stopLat":-12.02383,"stopLon":-77.0317501,"routeNames":"2412 2607 2608 301 370 Cole-Bus"},{"stopId":1046713,"stopName":"Barreda y Aguilar","stopTypeGroup":"bus","stopLat":-12.0238224,"stopLon":-77.0267834,"routeNames":"2412 2607 2608 2609 336"},{"stopId":1200429,"stopName":"Michael Fort","stopTypeGroup":"bus","stopLat":-12.0237541,"stopLon":-77.0526695,"routeNames":"1103 1403 1508 1610 1612 2703 CR12 CR43 CR62 IM47 IO35b IO38b IO45 IPC06"},{"stopId":737712,"stopName":"Luna Pizarro","stopTypeGroup":"bus","stopLat":-12.0237015,"stopLon":-77.058658,"routeNames":"1213 1217 1308 1404 1411 1412 1505 1607 1608 1701 1702 1706 1801-(Lima-Callao) 1802 1804 2204 2407 2414 2511-(Lima-Callao) 2603 2604 2702 2805 4204 4212 7101 8102 8105 8107 8108 8109 8110 8111 8112 8209 8211 8212 9307-(Callao-Lima) 9401-(Lima-"},{"stopId":1623173,"stopName":"Morro de Arica","stopTypeGroup":"bus","stopLat":-12.0235939,"stopLon":-77.037262,"routeNames":"305 371"},{"stopId":1623181,"stopName":"Morro de Arica","stopTypeGroup":"bus","stopLat":-12.02351,"stopLon":-77.0371842,"routeNames":"305 371"},{"stopId":1022555,"stopName":"Túpac Amaru","stopTypeGroup":"bus","stopLat":-12.0235071,"stopLon":-77.0501455,"routeNames":"1103 1174-(Lima-Callao) 1403 1608 1610 2702 8209 9307-(Callao-Lima) CR07 IO19 IO27 OM23 OM33 OM34"},{"stopId":1467600,"stopName":"Tiziano Muñoz","stopTypeGroup":"bus","stopLat":-12.0234575,"stopLon":-77.0554501,"routeNames":"2703"},{"stopId":735570,"stopName":"Calle 2","stopTypeGroup":"bus","stopLat":-12.0233736,"stopLon":-77.0315382,"routeNames":"2412 2607 2608 2609 301 370"},{"stopId":1589040,"stopName":"E. Guzmán Barrón","stopTypeGroup":"bus","stopLat":-12.0233421,"stopLon":-77.0866683},{"stopId":1017575,"stopName":"Habich","stopTypeGroup":"bus","stopLat":-12.0233287,"stopLon":-77.0497549,"routeNames":"1103 1403 1602 1608 1610 2209 2409 2411 2510 2611 2702 2803 8209 9307-(Callao-Lima) CR07 IO19 IO27 NH26b OM23 OM33 OM34 SH112a"},{"stopId":1467588,"stopName":"Tiziano Muñoz","stopTypeGroup":"bus","stopLat":-12.0233211,"stopLon":-77.0554742},{"stopId":1017592,"stopName":"Habich","stopTypeGroup":"bus","stopLat":-12.0232595,"stopLon":-77.0502172,"routeNames":"1602 2209 2409 2411 2510 2611 2803 NH26b SH112a"},{"stopId":737534,"stopName":"Luna Pizarro","stopTypeGroup":"bus","stopLat":-12.0232188,"stopLon":-77.058953,"routeNames":"1213 1217 1308 1404 1411 1412 1505 1607 1608 1701 1702 1706 1801-(Lima-Callao) 1802 2204 2407 2414 2511-(Lima-Callao) 2603 2604 2702 2805 4204 4212 7101 8102 8105 8107 8108 8109 8110 8111 8112 8209 8211 8212 9307-(Callao-Lima) 9401-(Lima-Call"},{"stopId":1310606,"stopName":"El Sol","stopTypeGroup":"bus","stopLat":-12.0230299,"stopLon":-77.0278341,"routeNames":"2412 2607 2608 2609"},{"stopId":1071801,"stopName":"Mercado José Granda","stopTypeGroup":"bus","stopLat":-12.0228613,"stopLon":-77.0831704,"routeNames":"1174-(Lima-Callao) 1278-(Lima-Callao) 2404-(Lima-Callao) 2406 2701-(Lima-Callao) 4205 4206 CR07 ICR14 IM04 IM22 IO27 IO35b OM23 OM33 OM34"},{"stopId":1071810,"stopName":"Mercado José Granda","stopTypeGroup":"bus","stopLat":-12.0227731,"stopLon":-77.0830356,"routeNames":"1174-(Lima-Callao) 1278-(Lima-Callao) 2404-(Lima-Callao) 2406 2701-(Lima-Callao) 4205 4206 CR07 ICR14 IM04 IM22 IO27 IO35b OM23 OM33 OM34"},{"stopId":938134,"stopName":"Aeropuerto Jorge Chávez","stopTypeGroup":"bus","stopLat":-12.0227395,"stopLon":-77.1066813,"routeNames":"Airport-Express-Lima"},{"stopId":1200428,"stopName":"Ramón Castilla","stopTypeGroup":"bus","stopLat":-12.0223923,"stopLon":-77.0525602,"routeNames":"1103 1403 1508 1610 1612 2703 CR12 CR43 CR62 IM47 IO35b IO38b IO45 IPC06"},{"stopId":761245,"stopName":"Grifo","stopTypeGroup":"bus","stopLat":-12.0216238,"stopLon":-77.1051729,"routeNames":"1491 1501-(Lima-Callao) 9305-(Lima-Callao) CR13 CR14 CR15 CR17 CR27 CR28 CR34 CR42 CR51 CR53 CR62 CR65 CR69 CR71 CR75 CR84 IM06 IM08 IM18 IM30 IM47 IO07 IO09 IO19 IO28b IO32b IO38b IO40 IO45 IO55 IO89 IPC06 OM18 OM25 OM32 OM39 OM47-(Callao-Lima"},{"stopId":1019286,"stopName":"José Granda","stopTypeGroup":"bus","stopLat":-12.0216174,"stopLon":-77.0859882,"routeNames":"3203-(Lima-Callao) 4210-(Lima-Callao) 7204 8201 8214 IM57"},{"stopId":761277,"stopName":"Grifo","stopTypeGroup":"bus","stopLat":-12.0215136,"stopLon":-77.1055806,"routeNames":"1491 1501-(Lima-Callao) 1502-(Lima-Callao) CR14 CR15 CR17 CR27 CR28 CR34 CR42 CR51 CR53 CR62 CR65 CR69 CR71 CR75 CR84 IM06 IM08 IM18 IM30 IM47 IO07 IO09 IO19 IO28b IO32b IO38b IO40 IO45 IO55 IO89 IPC06 OM18 OM25 OM32 OM39 OM47-(Callao-Lima) UCL"},{"stopId":1303855,"stopName":"Hospital Cayetano Heredia","stopTypeGroup":"bus","stopLat":-12.0213877,"stopLon":-77.0538247,"routeNames":"2703"},{"stopId":1071811,"stopName":"12 de Octubre","stopTypeGroup":"bus","stopLat":-12.021364,"stopLon":-77.0859093,"routeNames":"1174-(Lima-Callao) 1278-(Lima-Callao) 2404-(Lima-Callao) 2406 2701-(Lima-Callao) 4205 4206 CR07 ICR14 IM04 IM22 IO27 IO35b OM23 OM33 OM34"},{"stopId":735592,"stopName":"El Sol","stopTypeGroup":"bus","stopLat":-12.0213562,"stopLon":-77.0296445,"routeNames":"301 336 370 Cole-Bus"},{"stopId":1323505,"stopName":"Hospital Cayetano Heredia","stopTypeGroup":"bus","stopLat":-12.0213326,"stopLon":-77.0536503,"routeNames":"1508 1612 CR12 CR43 CR62 IM47 IO35b IO38b IO45 IPC06"},{"stopId":1310605,"stopName":"Amancaes","stopTypeGroup":"bus","stopLat":-12.0212932,"stopLon":-77.0294595,"routeNames":"2412 2607 2608 2609"},{"stopId":1071802,"stopName":"12 de Octubre","stopTypeGroup":"bus","stopLat":-12.0212827,"stopLon":-77.086376,"routeNames":"1174-(Lima-Callao) 1278-(Lima-Callao) 2404-(Lima-Callao) 2701-(Lima-Callao) 4205 4206 4210-(Lima-Callao) CR07 ICR14 IM04 IM22 IM57 IO27 IO35b OM23 OM33 OM34"},{"stopId":1032125,"stopName":"Hospital Cayetano Heredia","stopTypeGroup":"bus","stopLat":-12.0211887,"stopLon":-77.0539608,"routeNames":"1103 1403 1612 2703 CR62 IM47 IO35b IO38b IO45 IPC06"},{"stopId":1019313,"stopName":"José Granda","stopTypeGroup":"bus","stopLat":-12.021079,"stopLon":-77.086209,"routeNames":"2406 3203-(Lima-Callao) 7204 8201 8214"},{"stopId":1032103,"stopName":"Hospital Cayetano Heredia","stopTypeGroup":"bus","stopLat":-12.0210789,"stopLon":-77.0537451,"routeNames":"1103 1403 1508 1610 CR12 CR43"},{"stopId":1300192,"stopName":"El Sol","stopTypeGroup":"bus","stopLat":-12.0210414,"stopLon":-77.0297974,"routeNames":"2607 2608"},{"stopId":735567,"stopName":"Carlos Valderrama","stopTypeGroup":"bus","stopLat":-12.0210335,"stopLon":-77.0295587,"routeNames":"2412 2609 301 336 370"},{"stopId":737533,"stopName":"Cayetano","stopTypeGroup":"bus","stopLat":-12.0209312,"stopLon":-77.0593232,"routeNames":"1213 1217 1308 1404 1411 1412 1505 1607 1608 1701 1702 1706 1801-(Lima-Callao) 1802 1804 2204 2407 2414 2511-(Lima-Callao) 2603 2604 2702 2805 4204 4212 7101 8102 8105 8107 8108 8109 8110 8111 8112 8209 8211 8212 9307-(Callao-Lima) 9401-(Lima-"},{"stopId":737713,"stopName":"Cayetano","stopTypeGroup":"bus","stopLat":-12.0208919,"stopLon":-77.0591891,"routeNames":"1213 1217 1308 1404 1411 1412 1505 1607 1608 1701 1702 1706 1801-(Lima-Callao) 1802 1804 2204 2407 2414 2511-(Lima-Callao) 2603 2604 2702 2805 4204 4212 7101 8102 8105 8107 8108 8109 8110 8111 8112 8209 8211 8212 9307-(Callao-Lima) 9401-(Lima-"}]