[{"stopId":977545,"stopName":"Plaza Túpac Amaru","stopTypeGroup":"bus","stopLat":-12.0925097,"stopLon":-77.0731431,"routeNames":"1508 2408 IO44b"},{"stopId":1002017,"stopName":"Luis Aldana","stopTypeGroup":"bus","stopLat":-12.0923947,"stopLon":-77.0106573,"routeNames":"2-(Expreso-San-Isidro)"},{"stopId":1002018,"stopName":"Los Milanos","stopTypeGroup":"bus","stopLat":-12.0923596,"stopLon":-77.0179889,"routeNames":"1055 2-(Expreso-San-Isidro)"},{"stopId":739120,"stopName":"Sucre","stopTypeGroup":"bus","stopLat":-12.0923147,"stopLon":-77.070905,"routeNames":"1103 1503 1505 1508 1513 1611 1615 1704 2511-(Lima-Callao) 3502 3505 3507 3511 3906-(Lima-Callao) 4512 5303 8507 CR37 CR54 CR71 IM18 IO06 IO35b"},{"stopId":793066,"stopName":"Arenales","stopTypeGroup":"bus","stopLat":-12.0922642,"stopLon":-77.0338082,"routeNames":"201-(Lima-Callao) 204 206 209"},{"stopId":1191641,"stopName":"Javier Prado","stopTypeGroup":"bus","stopLat":-12.0922043,"stopLon":-77.0345048,"routeNames":"336 IO28b NH25"},{"stopId":1309000,"stopName":"José Gálvez Barrenechea","stopTypeGroup":"bus","stopLat":-12.092021,"stopLon":-77.0141065,"routeNames":"1055"},{"stopId":1001748,"stopName":"Daniel Alcides Carrión","stopTypeGroup":"bus","stopLat":-12.0920065,"stopLon":-77.0509442,"routeNames":"1-(Expreso-San-Isidro)"},{"stopId":1037468,"stopName":"Javier Prado","stopTypeGroup":"bus","stopLat":-12.0920061,"stopLon":-77.0301429,"routeNames":"1099 2703 2803 7607 8619 8621"},{"stopId":734640,"stopName":"Petit Thouars","stopTypeGroup":"bus","stopLat":-12.0919947,"stopLon":-77.0319392,"routeNames":"201-(Lima-Callao) 206"},{"stopId":1300158,"stopName":"José Gálvez","stopTypeGroup":"bus","stopLat":-12.091937,"stopLon":-77.0694029,"routeNames":"CR54"},{"stopId":735835,"stopName":"Parodi","stopTypeGroup":"bus","stopLat":-12.0919344,"stopLon":-77.0304881,"routeNames":"201-(Lima-Callao) 206 209 IO28b"},{"stopId":1192913,"stopName":"Alfonso Ugarte","stopTypeGroup":"bus","stopLat":-12.0918195,"stopLon":-77.0826189,"routeNames":"1491 2510 3507 4911-(Lima-Callao) CR02 CR14 CR31 CR38 CR39 CR75 IO52 IO75b OM18"},{"stopId":1001747,"stopName":"Barcelona","stopTypeGroup":"bus","stopLat":-12.0916826,"stopLon":-77.0476418,"routeNames":"1-(Expreso-San-Isidro)"},{"stopId":934126,"stopName":"Las Orquídeas","stopTypeGroup":"bus","stopLat":-12.0916306,"stopLon":-77.0282125,"routeNames":"201-(Lima-Callao) 209 405"},{"stopId":1308981,"stopName":"Del Parque Norte","stopTypeGroup":"bus","stopLat":-12.0916013,"stopLon":-77.01401,"routeNames":"1055"},{"stopId":739127,"stopName":"Almagro","stopTypeGroup":"bus","stopLat":-12.0915646,"stopLon":-77.076146,"routeNames":"1103 1503 1508 1513 1611 1615 1704 2408 2510 2511-(Lima-Callao) 3502 3505 3507 3906-(Lima-Callao) 4512 5303 8507 CR37 CR54 CR65 CR71 IM18 IO06 IO35b IO44b"},{"stopId":827327,"stopName":"Javier Prado","stopTypeGroup":"bus","stopLat":-12.0915568,"stopLon":-77.0302266,"routeNames":"1047 1099 2703 2803 405 7607 8201 8308 8619 8621 9405-(Lima-Callao) 9801-(Lima-Callao)"},{"stopId":1131544,"stopName":"Bolognesi","stopTypeGroup":"bus","stopLat":-12.0914863,"stopLon":-77.0811031,"routeNames":"1491 4911-(Lima-Callao) CR02 CR14 CR31 CR38 CR39 CR75 IO52 IO75b OM18"},{"stopId":1285054,"stopName":"Javier Prado","stopTypeGroup":"bus","stopLat":-12.0914755,"stopLon":-77.0258492,"routeNames":"3805 8308"},{"stopId":738727,"stopName":"Las Orquídeas","stopTypeGroup":"bus","stopLat":-12.0914309,"stopLon":-77.0279481,"routeNames":"201-(Lima-Callao) 209"},{"stopId":1075581,"stopName":"González Prada","stopTypeGroup":"bus","stopLat":-12.0914009,"stopLon":-77.0638359,"routeNames":"1313-(Lima-Callao) 1611 1615 1704 2408 3505 CR35 CR54 IO03 IO06 IO07 IO14-(Lima-Callao) OM22 OM36 OM37"},{"stopId":980919,"stopName":"Mercado de Magdalena","stopTypeGroup":"bus","stopLat":-12.0913796,"stopLon":-77.0739026,"routeNames":"1505 3511 IO44b"},{"stopId":734641,"stopName":"Masías","stopTypeGroup":"bus","stopLat":-12.0913475,"stopLon":-77.0262351,"routeNames":"201-(Lima-Callao) 204 206 209 405"},{"stopId":1005283,"stopName":"Gonzáles Prada","stopTypeGroup":"bus","stopLat":-12.091263,"stopLon":-77.0643844,"routeNames":"1313-(Lima-Callao) 1611 1615 1704 2408 3505 CR35 CR54 IO03 IO06 IO07 IO14-(Lima-Callao) OM22 OM36 OM37"},{"stopId":739117,"stopName":"Mercado de Magdalena","stopTypeGroup":"bus","stopLat":-12.0911974,"stopLon":-77.0739895,"routeNames":"1103 1503 1508 1513 1611 1615 1704 2408 2511-(Lima-Callao) 3502 3505 3507 3906-(Lima-Callao) 4512 5303 8507 CR37 CR54 CR65 CR71 IM18 IO06 IO35b"},{"stopId":1309001,"stopName":"Javier Prado","stopTypeGroup":"bus","stopLat":-12.0911712,"stopLon":-77.0138919,"routeNames":"1055"},{"stopId":734639,"stopName":"Masías","stopTypeGroup":"bus","stopLat":-12.0910762,"stopLon":-77.0255304,"routeNames":"201-(Lima-Callao) 204 206 209"},{"stopId":739128,"stopName":"Bolívar","stopTypeGroup":"bus","stopLat":-12.0909981,"stopLon":-77.0777982,"routeNames":"1103 1503 1508 1513 1611 1615 1704 2408 2510 2511-(Lima-Callao) 3502 3505 3507 3906-(Lima-Callao) 4512 5303 8507 CR37 CR54 CR65 CR71 IM18 IO06 IO35b IO44b"},{"stopId":1317160,"stopName":"Javier Prado","stopTypeGroup":"bus","stopLat":-12.0909929,"stopLon":-77.0271099,"routeNames":"3805"},{"stopId":1300288,"stopName":"De Las Artes Norte","stopTypeGroup":"bus","stopLat":-12.0909876,"stopLon":-77.0030665,"routeNames":"1060 1061 1703-(Lima-Callao) 1804 2701-(Lima-Callao) 3701 3810 3813 3814 4405 4911-(Lima-Callao) 7103 7601 8520 CR19 IM22 IO06"},{"stopId":1057042,"stopName":"Óvalo Independencia","stopTypeGroup":"bus","stopLat":-12.0907833,"stopLon":-77.0700762,"routeNames":"1505 1508 1611 1615 1704 2204 2510 3502 3906-(Lima-Callao) 7505 8525 IO35b IO52 IO89"},{"stopId":1300287,"stopName":"De Las Artes Norte","stopTypeGroup":"bus","stopLat":-12.0907726,"stopLon":-77.0032865,"routeNames":"1060 1061 1703-(Lima-Callao) 1804 2701-(Lima-Callao) 3701 3810 3813 3814 4405 4911-(Lima-Callao) 7103 7601 8520 CR19 IM22 IO06"},{"stopId":1518978,"stopName":"Lima","stopTypeGroup":"bus","stopLat":-12.0906782,"stopLon":-77.0766395,"routeNames":"3507"},{"stopId":827194,"stopName":"Soledad","stopTypeGroup":"bus","stopLat":-12.0906755,"stopLon":-77.0324099,"routeNames":"1047 405 8201 9405-(Lima-Callao) 9801-(Lima-Callao) IO28b NH25"},{"stopId":977544,"stopName":"José Gálvez","stopTypeGroup":"bus","stopLat":-12.0905499,"stopLon":-77.0724068,"routeNames":"1508 2408 IO44b"},{"stopId":735579,"stopName":"Soledad","stopTypeGroup":"bus","stopLat":-12.0905155,"stopLon":-77.0347407,"routeNames":"IO28b NH25"},{"stopId":739115,"stopName":"San Martín","stopTypeGroup":"bus","stopLat":-12.0905103,"stopLon":-77.07672,"routeNames":"1103 1503 1508 1513 1611 1615 1704 2408 2511-(Lima-Callao) 3502 3505 3906-(Lima-Callao) 4512 5303 8507 CR37 CR54 CR65 CR71 IM18 IO06 IO35b"},{"stopId":732414,"stopName":"Soledad","stopTypeGroup":"bus","stopLat":-12.0904972,"stopLon":-77.0336759,"routeNames":"301 303 305"},{"stopId":1300160,"stopName":"Pershing","stopTypeGroup":"bus","stopLat":-12.0903005,"stopLon":-77.057848,"routeNames":"3505 CR35"},{"stopId":817736,"stopName":"Javier Prado","stopTypeGroup":"bus","stopLat":-12.0902585,"stopLon":-77.0662594,"routeNames":"1103 1702 1706 2204 2511-(Lima-Callao) 3505 404 4405 4512 4703 5303 8306 8507 CR37 IO06"},{"stopId":739130,"stopName":"Grau","stopTypeGroup":"bus","stopLat":-12.0902218,"stopLon":-77.0793378,"routeNames":"1103 1503 1508 1513 1611 1615 1704 2510 2511-(Lima-Callao) 3502 3505 3507 3906-(Lima-Callao) 4512 5303 8507 CR37 CR54 CR65 CR71 IM18 IO06 IO35b IO44b"},{"stopId":828114,"stopName":"Soledad","stopTypeGroup":"bus","stopLat":-12.0902149,"stopLon":-77.0316527,"routeNames":"1047 8201 8621 9405-(Lima-Callao) 9801-(Lima-Callao)"},{"stopId":735837,"stopName":"Arriola","stopTypeGroup":"bus","stopLat":-12.090213309140172,"stopLon":-77.01755867976229,"routeNames":"201-(Lima-Callao) 206 209"},{"stopId":1037469,"stopName":"Los Jazmines","stopTypeGroup":"bus","stopLat":-12.0901856,"stopLon":-77.0296385,"routeNames":"1099 2703 2803 7607 8619 8621"},{"stopId":735808,"stopName":"Gregorio Escobedo","stopTypeGroup":"bus","stopLat":-12.0901825,"stopLon":-77.0573464,"routeNames":"201-(Lima-Callao) 206 209 CR34 IO50"},{"stopId":761212,"stopName":"La Mar","stopTypeGroup":"bus","stopLat":-12.0901693,"stopLon":-77.0836562,"routeNames":"1491 1508 2510 3507 3906-(Lima-Callao) 4512 4911-(Lima-Callao) 5303 CR02 CR14 CR31 CR38 CR39 CR54 CR65 CR75 IM18 IO35b IO44b IO52 IO75b OM18"},{"stopId":828116,"stopName":"Iquitos","stopTypeGroup":"bus","stopLat":-12.090119518025526,"stopLon":-77.02989662883606,"routeNames":"1047 8201 8621 9405-(Lima-Callao) 9801-(Lima-Callao)"},{"stopId":1308902,"stopName":"Óvalo Independencia","stopTypeGroup":"bus","stopLat":-12.0901012,"stopLon":-77.0699072,"routeNames":"1505 1611 1615 1704 2204 2510 3502 3906-(Lima-Callao) 7505 8525 CR65 IO35b IO52 IO89"},{"stopId":827326,"stopName":"Soledad","stopTypeGroup":"bus","stopLat":-12.0899753,"stopLon":-77.0297304,"routeNames":"1099 2703 2803 7607 8308 8619"},{"stopId":737361,"stopName":"Las Artes","stopTypeGroup":"bus","stopLat":-12.089949,"stopLon":-76.9960821,"routeNames":"1059 2702 3809 7504 8104 8803"},{"stopId":1075582,"stopName":"Brasil","stopTypeGroup":"bus","stopLat":-12.0899488,"stopLon":-77.0657152,"routeNames":"1313-(Lima-Callao) 1611 1615 1704 2408 3505 CR35 CR54 IO03 IO06 IO07 IO14-(Lima-Callao) OM22 OM36 OM37"},{"stopId":735801,"stopName":"Arriola","stopTypeGroup":"bus","stopLat":-12.0899409,"stopLon":-77.0178322,"routeNames":"201-(Lima-Callao) 209"},{"stopId":735825,"stopName":"Gregorio Escobedo","stopTypeGroup":"bus","stopLat":-12.0898835,"stopLon":-77.0581859,"routeNames":"201-(Lima-Callao) 206 209 CR32 CR34"},{"stopId":761301,"stopName":"Gallese","stopTypeGroup":"bus","stopLat":-12.0898546,"stopLon":-77.0844179,"routeNames":"1508 1901-(Lima-Callao) 2511-(Lima-Callao) 3502 3505 3906-(Lima-Callao) 4512 5303 8507 CR37 CR54 CR65 IM18 IO35b IO44b"},{"stopId":1196254,"stopName":"Metro Pershing","stopTypeGroup":"bus","stopLat":-12.0898435,"stopLon":-77.0576521,"routeNames":"3505 CR32 CR35 IO50"},{"stopId":732427,"stopName":"Domingo Casanova","stopTypeGroup":"bus","stopLat":-12.0898363,"stopLon":-77.0336169,"routeNames":"301 303 305 336"},{"stopId":736425,"stopName":"Las Artes","stopTypeGroup":"bus","stopLat":-12.0897654,"stopLon":-76.9962698,"routeNames":"1059 2702 3809 7504 8104 8803"},{"stopId":1096239,"stopName":"Quiñones","stopTypeGroup":"bus","stopLat":-12.0896198,"stopLon":-77.0158569,"routeNames":"204 206"},{"stopId":739114,"stopName":"Sucre","stopTypeGroup":"bus","stopLat":-12.0896186,"stopLon":-77.0784473,"routeNames":"1103 1503 1508 1513 1611 1615 1704 2408 2511-(Lima-Callao) 3502 3505 3906-(Lima-Callao) 4512 5303 8507 CR37 CR54 CR65 CR71 IM18 IO06 IO35b"},{"stopId":980924,"stopName":"Brasil","stopTypeGroup":"bus","stopLat":-12.0895818,"stopLon":-77.0661335,"routeNames":"1313-(Lima-Callao) 1611 1615 1704 2408 CR35 CR54 IM26 IO03 IO07 IO14-(Lima-Callao) IO19 IO44b OM22 OM36 OM37 OM42-(Callao-Lima)"},{"stopId":761211,"stopName":"Arica","stopTypeGroup":"bus","stopLat":-12.0895714,"stopLon":-77.0824009,"routeNames":"1508 2510 3507 3906-(Lima-Callao) 4512 5303 CR54 CR65 IM18 IO35b IO44b"},{"stopId":1332276,"stopName":"Los Jazmines","stopTypeGroup":"bus","stopLat":-12.0895346,"stopLon":-77.0273137,"routeNames":"3805"},{"stopId":977542,"stopName":"Sucre","stopTypeGroup":"bus","stopLat":-12.0895056,"stopLon":-77.0694456,"routeNames":"1313-(Lima-Callao) 1611 1615 1704 2408 CR35 IO03 IO07 IO44b OM22 OM36 OM37"},{"stopId":1772635,"stopName":"Terrapuerto Cruz del Sur (Lima)","stopTypeGroup":"bus","stopLat":-12.0895,"stopLon":-77.0171583,"routeNames":"Arequipa-Lima-(Cruz-del-Sur)"},{"stopId":817700,"stopName":"Javier Prado","stopTypeGroup":"bus","stopLat":-12.0894769,"stopLon":-77.0657203,"routeNames":"1103 1702 1706 2204 2511-(Lima-Callao) 404 4405 4512 4703 5303 8306 8507 CR37 IO44b"},{"stopId":980920,"stopName":"San Martín","stopTypeGroup":"bus","stopLat":-12.0893983,"stopLon":-77.0731579,"routeNames":"2408 CR65 IO44b"},{"stopId":826036,"stopName":"Javier Prado","stopTypeGroup":"bus","stopLat":-12.0893773,"stopLon":-77.0234674,"routeNames":"B C EX1 EX12 EX2 EX5 EX6 EX7 EX8 EX9"},{"stopId":739134,"stopName":"Alfonso Ugarte","stopTypeGroup":"bus","stopLat":-12.0893406,"stopLon":-77.0810437,"routeNames":"1103 1503 1508 1513 1611 1615 1704 2510 2511-(Lima-Callao) 3502 3505 3507 3906-(Lima-Callao) 4512 5303 8507 CR37 CR54 CR65 CR71 IM18 IO06 IO35b IO44b"},{"stopId":1675183,"stopName":"Almirante Martin Guisse","stopTypeGroup":"bus","stopLat":-12.0892094,"stopLon":-77.0383698,"routeNames":"IO28b"},{"stopId":1308478,"stopName":"Arica","stopTypeGroup":"bus","stopLat":-12.0891675,"stopLon":-77.08327,"routeNames":"2511-(Lima-Callao) 3502 3505 8507 CR37"},{"stopId":1737384,"stopName":"Terminal ExcluCIVA - Javier Prado","stopTypeGroup":"bus","stopLat":-12.0891654,"stopLon":-77.015858,"routeNames":"Arequipa-Lima-(CIVA)"},{"stopId":827197,"stopName":"Torre Ugarte","stopTypeGroup":"bus","stopLat":-12.0891176,"stopLon":-77.0326325,"routeNames":"1047 405 8201 9405-(Lima-Callao) 9801-(Lima-Callao) IO28b NH25"},{"stopId":1675431,"stopName":"Almirante Martin Guisse","stopTypeGroup":"bus","stopLat":-12.0890652,"stopLon":-77.0381525,"routeNames":"IO28b"},{"stopId":1300214,"stopName":"Arica","stopTypeGroup":"bus","stopLat":-12.0890573,"stopLon":-77.0838547,"routeNames":"1491 1508 1901-(Lima-Callao) 2511-(Lima-Callao) 3502 3505 3906-(Lima-Callao) 4512 5303 8507 CR14 CR37 CR54 CR65 CR75 IM18 IO35b IO44b"},{"stopId":1675184,"stopName":"Miller","stopTypeGroup":"bus","stopLat":-12.0890101,"stopLon":-77.0368141,"routeNames":"IO28b"},{"stopId":1308310,"stopName":"Javier Prado Este","stopTypeGroup":"bus","stopLat":-12.0890101,"stopLon":-77.0074868,"routeNames":"1053 3702 7610 8803"},{"stopId":1300159,"stopName":"Jirón Junín","stopTypeGroup":"bus","stopLat":-12.0889629,"stopLon":-77.0682979,"routeNames":"CR54 IO14-(Lima-Callao)"},{"stopId":735838,"stopName":"Guardia Civil","stopTypeGroup":"bus","stopLat":-12.08890123635729,"stopLon":-77.00784296931153,"routeNames":"201-(Lima-Callao) 209"},{"stopId":1332274,"stopName":"Los Mirtos","stopTypeGroup":"bus","stopLat":-12.0888947,"stopLon":-77.0261979,"routeNames":"3805 8308"},{"stopId":739111,"stopName":"Bolognesi","stopTypeGroup":"bus","stopLat":-12.0888563,"stopLon":-77.0799274,"routeNames":"1103 1503 1508 1513 1611 1615 1704 2511-(Lima-Callao) 3502 3505 3906-(Lima-Callao) 4512 5303 8507 CR37 CR54 CR65 CR71 IM18 IO06 IO35b"},{"stopId":1309617,"stopName":"Merino","stopTypeGroup":"bus","stopLat":-12.0888318,"stopLon":-77.0319539,"routeNames":"9405-(Lima-Callao)"},{"stopId":1675432,"stopName":"Miller","stopTypeGroup":"bus","stopLat":-12.088816,"stopLon":-77.0364842,"routeNames":"IO28b"},{"stopId":977543,"stopName":"Leoncio Prado","stopTypeGroup":"bus","stopLat":-12.088745,"stopLon":-77.0715752,"routeNames":"1508 2408 IO44b OM22"},{"stopId":828113,"stopName":"Torre Ugarte","stopTypeGroup":"bus","stopLat":-12.0886796,"stopLon":-77.031852,"routeNames":"1047 8201 8621 9801-(Lima-Callao)"},{"stopId":2065163,"stopName":"Terminal Transmar - Nicolás Arriola","stopTypeGroup":"bus","stopLat":-12.088619315654565,"stopLon":-77.01732516288759},{"stopId":1057043,"stopName":"Junín","stopTypeGroup":"bus","stopLat":-12.0885835,"stopLon":-77.0692428,"routeNames":"1313-(Lima-Callao) 1505 1508 1611 1615 1704 2204 2510 3502 3906-(Lima-Callao) 7505 8525 CR35 IO03 IO07 IO35b IO52 IO89"},{"stopId":1330476,"stopName":"Tulipanes","stopTypeGroup":"bus","stopLat":-12.088517,"stopLon":-77.0291591,"routeNames":"1099 2703 2803 7607 8619 8621"},{"stopId":735800,"stopName":"Guardia Civil","stopTypeGroup":"bus","stopLat":-12.0884078,"stopLon":-77.0073364,"routeNames":"201-(Lima-Callao) 209"},{"stopId":1300289,"stopName":"Estación La Cultura","stopTypeGroup":"bus","stopLat":-12.0883911,"stopLon":-77.0034474,"routeNames":"1060 1061 1703-(Lima-Callao) 1804 2701-(Lima-Callao) 3701 3810 3813 3814 4405 4911-(Lima-Callao) 7103 7601 8520 CR19 IM22 IO06"},{"stopId":980925,"stopName":"Sucre","stopTypeGroup":"bus","stopLat":-12.0883834,"stopLon":-77.0694459,"routeNames":"2408 IO44b"},{"stopId":1304143,"stopName":"César Vallejo","stopTypeGroup":"bus","stopLat":-12.0883597,"stopLon":-77.0351136,"routeNames":"9405-(Lima-Callao) NH25"},{"stopId":734642,"stopName":"Aviación","stopTypeGroup":"bus","stopLat":-12.0883256,"stopLon":-77.0038149,"routeNames":"201-(Lima-Callao) 204 206 209"},{"stopId":827325,"stopName":"Los Tulipanes","stopTypeGroup":"bus","stopLat":-12.0883177,"stopLon":-77.0292878,"routeNames":"1099 2703 2803 3805 7607 8308 8619"},{"stopId":1005282,"stopName":"Junín","stopTypeGroup":"bus","stopLat":-12.0883154,"stopLon":-77.0692321,"routeNames":"1313-(Lima-Callao) 1505 1508 2204 2510 3502 3906-(Lima-Callao) 7505 8525 CR35 CR65 IM26 IO03 IO07 IO14-(Lima-Callao) IO19 IO35b IO52 IO89 OM22 OM36 OM37 OM42-(Callao-Lima)"},{"stopId":1300162,"stopName":"Guillermo Prescott","stopTypeGroup":"bus","stopLat":-12.0883072,"stopLon":-77.0482671,"routeNames":"2408 3507 IO28b"},{"stopId":1308980,"stopName":"Javier Prado","stopTypeGroup":"bus","stopLat":-12.0882757,"stopLon":-77.0148468,"routeNames":"1055"},{"stopId":1131545,"stopName":"Leoncio Prado","stopTypeGroup":"bus","stopLat":-12.088239,"stopLon":-77.0843267,"routeNames":"1491 1508 CR14 CR75"},{"stopId":827076,"stopName":"Cádiz","stopTypeGroup":"bus","stopLat":-12.0882233,"stopLon":-77.0506704,"routeNames":"1051 1057 1110 1313-(Lima-Callao) 1611 1612 1615 1701 2408 3507 3511 3816 4511 7501 8515 8523 CR54 IO06 IO30b OM19 OM21 OM22"},{"stopId":1308311,"stopName":"Javier Prado Este","stopTypeGroup":"bus","stopLat":-12.0881918,"stopLon":-77.0077658,"routeNames":"1053 3702 7610 8803"},{"stopId":739135,"stopName":"Independencia","stopTypeGroup":"bus","stopLat":-12.0881813,"stopLon":-77.0833182,"routeNames":"1103 1503 1513 1611 1615 1704 CR71 IO06"},{"stopId":1478706,"stopName":"Guillermo Prescott","stopTypeGroup":"bus","stopLat":-12.0881577,"stopLon":-77.0480851,"routeNames":"2408 IO28b"},{"stopId":1478707,"stopName":"Salaverry","stopTypeGroup":"bus","stopLat":-12.0880339,"stopLon":-77.0505046,"routeNames":"2408 IO28b"},{"stopId":1675181,"stopName":"Manco Segundo","stopTypeGroup":"bus","stopLat":-12.0880082,"stopLon":-77.0459926,"routeNames":"IO28b"},{"stopId":739110,"stopName":"Castilla","stopTypeGroup":"bus","stopLat":-12.0879505,"stopLon":-77.081725,"routeNames":"1103 1503 1508 1513 1611 1615 1704 2511-(Lima-Callao) 3502 3505 3906-(Lima-Callao) 4512 5303 8507 CR37 CR54 CR65 CR71 IM18 IO06 IO35b"},{"stopId":1599530,"stopName":"Pedro Conde","stopTypeGroup":"bus","stopLat":-12.0878745,"stopLon":-77.0329973,"routeNames":"IO28b"},{"stopId":735824,"stopName":"Hospital Militar","stopTypeGroup":"bus","stopLat":-12.0878646,"stopLon":-77.0612628,"routeNames":"201-(Lima-Callao) 206 209 CR32 CR34"},{"stopId":827089,"stopName":"Cádiz","stopTypeGroup":"bus","stopLat":-12.0878246,"stopLon":-77.0507187,"routeNames":"1051 1057 1110 1313-(Lima-Callao) 1611 1612 1615 1701 3507 3511 3816 4511 7501 8515 8523 CR54 IO06 IO28b IO30b OM19 OM21 OM22"},{"stopId":1675430,"stopName":"Manco Segundo","stopTypeGroup":"bus","stopLat":-12.0878168,"stopLon":-77.0457914,"routeNames":"IO28b"},{"stopId":1196313,"stopName":"Centro Comercial Peruano Japones","stopTypeGroup":"bus","stopLat":-12.0877794,"stopLon":-77.0560779,"routeNames":"3505 CR32 CR35 IO50"},{"stopId":1675182,"stopName":"Mama Ocllo","stopTypeGroup":"bus","stopLat":-12.0877722,"stopLon":-77.04382,"routeNames":"IO28b"},{"stopId":1300163,"stopName":"Alberto Alexander","stopTypeGroup":"bus","stopLat":-12.0876847,"stopLon":-77.0470935,"routeNames":"2408 3507"},{"stopId":1675429,"stopName":"Mama Ocllo","stopTypeGroup":"bus","stopLat":-12.0876646,"stopLon":-77.043584,"routeNames":"IO28b"},{"stopId":1196251,"stopName":"Centro Comercial Peruano Japones","stopTypeGroup":"bus","stopLat":-12.0876588,"stopLon":-77.0561206,"routeNames":"3505 CR32 CR35 IO50"},{"stopId":735809,"stopName":"Hospital Militar","stopTypeGroup":"bus","stopLat":-12.087641,"stopLon":-77.0611739,"routeNames":"201-(Lima-Callao) 206 209 CR32 CR34"},{"stopId":1308866,"stopName":"Vallejo","stopTypeGroup":"bus","stopLat":-12.0875204,"stopLon":-77.0445281,"routeNames":"2408 3507"},{"stopId":980921,"stopName":"Junín","stopTypeGroup":"bus","stopLat":-12.0874484,"stopLon":-77.0724235,"routeNames":"2408 CR65 IO44b OM22"},{"stopId":1638894,"stopName":"Lazo","stopTypeGroup":"bus","stopLat":-12.0874207,"stopLon":-77.0298028,"routeNames":"1099"},{"stopId":734638,"stopName":"Aviación","stopTypeGroup":"bus","stopLat":-12.0874163,"stopLon":-77.0034015,"routeNames":"201-(Lima-Callao) 204 206 209"},{"stopId":737362,"stopName":"Javier Prado","stopTypeGroup":"bus","stopLat":-12.0874155,"stopLon":-76.9964844,"routeNames":"1059 2702 3809 7504 8104 8803"},{"stopId":735840,"stopName":"San Luis","stopTypeGroup":"bus","stopLat":-12.0873945,"stopLon":-76.9968921,"routeNames":"201-(Lima-Callao) 204 209"},{"stopId":739136,"stopName":"Lima","stopTypeGroup":"bus","stopLat":-12.0873316,"stopLon":-77.0830929,"routeNames":"1103 1503 1508 1513 1611 1615 1704 1901-(Lima-Callao) 2511-(Lima-Callao) 3502 3505 3906-(Lima-Callao) 4512 5303 8507 CR37 CR54 CR65 CR71 IM18 IO06 IO35b IO44b"},{"stopId":1300286,"stopName":"Estación La Cultura","stopTypeGroup":"bus","stopLat":-12.0871217,"stopLon":-77.0038605,"routeNames":"1060 1061 1703-(Lima-Callao) 1804 2701-(Lima-Callao) 3701 3810 3813 3814 4405 4911-(Lima-Callao) 7103 7601 8520 CR19 IM22 IO06"},{"stopId":735458,"stopName":"Tomás Guido","stopTypeGroup":"bus","stopLat":-12.0870247,"stopLon":-77.0340273,"routeNames":"301 305"},{"stopId":1300210,"stopName":"Mama Ocllo","stopTypeGroup":"bus","stopLat":-12.0869644,"stopLon":-77.0436537,"routeNames":"2408 3507"},{"stopId":931298,"stopName":"Las Lilas","stopTypeGroup":"bus","stopLat":-12.0869004,"stopLon":-77.0287073,"routeNames":"1099 2703 2803 7607 8619 8621"},{"stopId":735841,"stopName":"Rosa Toro","stopTypeGroup":"bus","stopLat":-12.0868695,"stopLon":-76.9930032,"routeNames":"201-(Lima-Callao) 209"},{"stopId":735423,"stopName":"Tomás Guido","stopTypeGroup":"bus","stopLat":-12.086849,"stopLon":-77.0342177,"routeNames":"301 305"},{"stopId":1205203,"stopName":"28 de Julio","stopTypeGroup":"bus","stopLat":-12.086835,"stopLon":-77.0686,"routeNames":"1313-(Lima-Callao) 1505 1508 2204 2510 3502 3906-(Lima-Callao) 7505 8525 CR35 IO03 IO07 IO35b IO52 IO89"},{"stopId":1131515,"stopName":"Leoncio Prado","stopTypeGroup":"bus","stopLat":-12.0868313,"stopLon":-77.0839392,"routeNames":"1491 CR14 CR75 IO06"},{"stopId":739109,"stopName":"Lima","stopTypeGroup":"bus","stopLat":-12.0868018,"stopLon":-77.0837903,"routeNames":"1103 1503 1513 1514 1611 1615 1704 1901-(Lima-Callao) CR71 IO44b"},{"stopId":738088,"stopName":"La Cultura","stopTypeGroup":"metro","stopLat":-12.0867755,"stopLon":-77.0037532,"routeNames":"Línea-1"},{"stopId":1196315,"stopName":"Centro Comercial San Felipe","stopTypeGroup":"bus","stopLat":-12.086767,"stopLon":-77.0548039,"routeNames":"3505 CR32 CR35 IO50"},{"stopId":1332275,"stopName":"Las Lilas","stopTypeGroup":"bus","stopLat":-12.0866601,"stopLon":-77.026552,"routeNames":"3805 8308"},{"stopId":1005281,"stopName":"28 de Julio","stopTypeGroup":"bus","stopLat":-12.0866407,"stopLon":-77.0686191,"routeNames":"1313-(Lima-Callao) 1505 1508 2204 2510 3502 3906-(Lima-Callao) 7505 8525 CR35 CR65 IM26 IO03 IO07 IO14-(Lima-Callao) IO19 IO35b IO52 IO89 OM22 OM36 OM37 OM42-(Callao-Lima)"},{"stopId":1300209,"stopName":"Cápac Yupanqui","stopTypeGroup":"bus","stopLat":-12.0866234,"stopLon":-77.0412022,"routeNames":"2408 3507"},{"stopId":1285055,"stopName":"Prolongación Iquitos","stopTypeGroup":"bus","stopLat":-12.0866234,"stopLon":-77.0284134,"routeNames":"3805 8308"},{"stopId":1309002,"stopName":"Arriola","stopTypeGroup":"bus","stopLat":-12.086581491002661,"stopLon":-77.01508821534424,"routeNames":"1055"},{"stopId":1196249,"stopName":"Centro Comercial San Felipe","stopTypeGroup":"bus","stopLat":-12.0865782,"stopLon":-77.0548143,"routeNames":"3505 CR32 CR35 IO50"},{"stopId":1019555,"stopName":"Tomás Guido","stopTypeGroup":"bus","stopLat":-12.0865076,"stopLon":-77.0321683,"routeNames":"1047 8201 8621 9801-(Lima-Callao)"},{"stopId":735798,"stopName":"San Luis","stopTypeGroup":"bus","stopLat":-12.0864633,"stopLon":-76.9963237,"routeNames":"201-(Lima-Callao) 204 209"},{"stopId":736424,"stopName":"Javier Prado","stopTypeGroup":"bus","stopLat":-12.0863297,"stopLon":-76.9967633,"routeNames":"1059 2702 3809 7504 8104 8803"},{"stopId":735797,"stopName":"Rosa Toro","stopTypeGroup":"bus","stopLat":-12.0863068,"stopLon":-76.9923751,"routeNames":"201-(Lima-Callao) 209"},{"stopId":867701,"stopName":"Tomás Guido","stopTypeGroup":"bus","stopLat":-12.0862096,"stopLon":-77.0286883,"routeNames":"2803 3805 405 7607 8308 8619"},{"stopId":1300208,"stopName":"José María Córdova","stopTypeGroup":"bus","stopLat":-12.0861618,"stopLon":-77.0377582,"routeNames":"1615 2408 3507 8621"},{"stopId":1158341,"stopName":"Tomás Guido","stopTypeGroup":"bus","stopLat":-12.0860838,"stopLon":-77.0289241,"routeNames":"1099 2703"},{"stopId":1326231,"stopName":"Gregorio Las Heras","stopTypeGroup":"bus","stopLat":-12.0860412,"stopLon":-77.0311224,"routeNames":"1099"},{"stopId":1308979,"stopName":"Arriola","stopTypeGroup":"bus","stopLat":-12.0860189,"stopLon":-77.0157133,"routeNames":"1055 1059 3809"},{"stopId":1300165,"stopName":"Mama Ocllo","stopTypeGroup":"bus","stopLat":-12.0859572,"stopLon":-77.0440292,"routeNames":"1046 2408 2703 3507 3603 3607 3613 3816 9405-(Lima-Callao)"},{"stopId":1300207,"stopName":"Carlos Alayazal","stopTypeGroup":"bus","stopLat":-12.085931,"stopLon":-77.0362186,"routeNames":"1615 2408 3507 8621"},{"stopId":1196316,"stopName":"Río de Janeiro","stopTypeGroup":"bus","stopLat":-12.0858385,"stopLon":-77.0536371,"routeNames":"3505 CR32 CR35 IO50"},{"stopId":1313695,"stopName":"San Eugenio","stopTypeGroup":"bus","stopLat":-12.0857789,"stopLon":-77.015394,"routeNames":"1059 3809"},{"stopId":1332286,"stopName":"Leal","stopTypeGroup":"bus","stopLat":-12.0857159,"stopLon":-77.0397162,"routeNames":"1615 8621"},{"stopId":1196248,"stopName":"Río de Janeiro","stopTypeGroup":"bus","stopLat":-12.085662,"stopLon":-77.0536705,"routeNames":"3505 CR32 CR35 IO50"},{"stopId":1300206,"stopName":"Arequipa","stopTypeGroup":"bus","stopLat":-12.0856425,"stopLon":-77.0341104,"routeNames":"2408 3507 8621"},{"stopId":827198,"stopName":"Risso","stopTypeGroup":"bus","stopLat":-12.0856241,"stopLon":-77.0331663,"routeNames":"1047 336 405 8201 9405-(Lima-Callao) 9801-(Lima-Callao) NH25"},{"stopId":1304142,"stopName":"Risso","stopTypeGroup":"bus","stopLat":-12.0856215,"stopLon":-77.0354676,"routeNames":"1615 336 9405-(Lima-Callao) NH25"},{"stopId":1300166,"stopName":"Cápac Yupanqui","stopTypeGroup":"bus","stopLat":-12.0856157,"stopLon":-77.0415444,"routeNames":"1046 2408 2703 3507 3603 3607 3613 3816 9405-(Lima-Callao)"},{"stopId":1308865,"stopName":"Petit Thouars","stopTypeGroup":"bus","stopLat":-12.0855114,"stopLon":-77.0330536,"routeNames":"2408 3507 8621"},{"stopId":739137,"stopName":"Santa Ana","stopTypeGroup":"bus","stopLat":-12.0854169,"stopLon":-77.08305,"routeNames":"1503 1513 1514 1611 1615 1704 1901-(Lima-Callao) CR71 IO06 IO44b"},{"stopId":737379,"stopName":"Salaverry","stopTypeGroup":"bus","stopLat":-12.0853855,"stopLon":-77.0484388,"routeNames":"1086 1313-(Lima-Callao) 1615 3507 3816 4516 7103 8104 CR19 CR54 IO06 IO12 OM22"},{"stopId":827077,"stopName":"Canevaro","stopTypeGroup":"bus","stopLat":-12.085354,"stopLon":-77.0488358,"routeNames":"1051 1057 1110 1313-(Lima-Callao) 1611 1612 1615 1701 3511 3816 4511 7501 8515 8523 CR54 IO06 IO28b IO30b OM19 OM21 OM22"},{"stopId":1326848,"stopName":"Huáscar","stopTypeGroup":"bus","stopLat":-12.08530208665332,"stopLon":-77.05029543876647,"routeNames":"1086 4516 CR19 IO12"},{"stopId":828112,"stopName":"Risso","stopTypeGroup":"bus","stopLat":-12.0852623,"stopLon":-77.0323715,"routeNames":"1047 3507 8201 8621 9801-(Lima-Callao)"},{"stopId":1003255,"stopName":"Manco Segundo","stopTypeGroup":"bus","stopLat":-12.0851558,"stopLon":-77.0460341,"routeNames":"1086 1278-(Lima-Callao) 1304-(Lima-Callao) 1313-(Lima-Callao) 1317-(Lima-Callao) 1318-(Lima-Callao) 1404 1615 4205 4206 4516 7103 CR19 CR54 ICR14 IM04 IM11 IO06 IO12 IO27 OM22 OM28-(Lima-Callao) SH24a"},{"stopId":737363,"stopName":"Julio Bailetti","stopTypeGroup":"bus","stopLat":-12.0851547,"stopLon":-76.9968009,"routeNames":"1059 2702 3809 7504 8104 8803"},{"stopId":1300167,"stopName":"José María Cordova","stopTypeGroup":"bus","stopLat":-12.0851474,"stopLon":-77.0381502,"routeNames":"1046 2408 2703 3507 3603 3607 3613 3816 9405-(Lima-Callao)"},{"stopId":732413,"stopName":"Risso","stopTypeGroup":"bus","stopLat":-12.0851337,"stopLon":-77.0344698,"routeNames":"303"},{"stopId":732428,"stopName":"Bernardo Alcedo","stopTypeGroup":"bus","stopLat":-12.0851311,"stopLon":-77.0342982,"routeNames":"303"},{"stopId":1205204,"stopName":"Amazonas","stopTypeGroup":"bus","stopLat":-12.0851302,"stopLon":-77.0679885,"routeNames":"1313-(Lima-Callao) 1505 1508 2204 2510 3502 3906-(Lima-Callao) 7505 8525 CR35 IO03 IO07 IO35b IO52 IO89"},{"stopId":1075585,"stopName":"Huamanga","stopTypeGroup":"bus","stopLat":-12.0850729,"stopLon":-77.0715355,"routeNames":"CR65 OM22 OM36 OM37"},{"stopId":1308864,"stopName":"Lazo","stopTypeGroup":"bus","stopLat":-12.085055,"stopLon":-77.0299959,"routeNames":"2408 8621"},{"stopId":737378,"stopName":"Manco Segundo","stopTypeGroup":"bus","stopLat":-12.0850498,"stopLon":-77.0460731,"routeNames":"1046 1086 1278-(Lima-Callao) 1304-(Lima-Callao) 1313-(Lima-Callao) 1317-(Lima-Callao) 1318-(Lima-Callao) 1404 1615 2703 3603 3607 3613 3816 4205 4206 4516 7103 8104 9405-(Lima-Callao) CR19 CR54 ICR14 IM04 IM11 IO06 IO12 IO27 OM22 OM28-(Li"},{"stopId":1005280,"stopName":"Amazonas","stopTypeGroup":"bus","stopLat":-12.0849362,"stopLon":-77.0680109,"routeNames":"1313-(Lima-Callao) 1505 1508 2204 2510 3502 3906-(Lima-Callao) 7505 8525 CR35 CR65 IM26 IO03 IO07 IO14-(Lima-Callao) IO19 IO35b IO52 IO89 OM22 OM36 OM37 OM42-(Callao-Lima)"},{"stopId":827088,"stopName":"Canevaro","stopTypeGroup":"bus","stopLat":-12.0849344,"stopLon":-77.0486802,"routeNames":"1051 1057 1110 1611 1612 1701 3511 4511 7501 8515 8523 IO28b IO30b OM19 OM21"},{"stopId":1206391,"stopName":"Mama Ocllo","stopTypeGroup":"bus","stopLat":-12.0849018,"stopLon":-77.04424,"routeNames":"1086 1278-(Lima-Callao) 1304-(Lima-Callao) 1313-(Lima-Callao) 1317-(Lima-Callao) 1318-(Lima-Callao) 1404 1615 4205 4206 4516 7103 CR19 CR54 ICR14 IM04 IM11 IO06 IO12 IO27 OM22 OM28-(Lima-Callao) SH24a"},{"stopId":1308312,"stopName":"Canadá","stopTypeGroup":"bus","stopLat":-12.0848924,"stopLon":-77.0081037,"routeNames":"1053 3702 7610 8803"},{"stopId":949358,"stopName":"Hospital PNP","stopTypeGroup":"bus","stopLat":-12.0848448,"stopLon":-77.0617889,"routeNames":"1103 1702 1706 2204 2511-(Lima-Callao) 404 4405 4512 4703 5303 8306 8507 CR37 IM26 IO19 IO44b OM42-(Callao-Lima)"},{"stopId":1304326,"stopName":"Julio Baletti","stopTypeGroup":"bus","stopLat":-12.0848137,"stopLon":-76.9969833,"routeNames":"1059 2702 3809 7504 8104 8803"},{"stopId":1300168,"stopName":"Arenales","stopTypeGroup":"bus","stopLat":-12.084805,"stopLon":-77.0357028,"routeNames":"1046 2408 2703 3507 3603 3607 3613 3816 9405-(Lima-Callao)"},{"stopId":737377,"stopName":"Mama Ocllo","stopTypeGroup":"bus","stopLat":-12.0847875,"stopLon":-77.0440936,"routeNames":"1046 1086 1278-(Lima-Callao) 1304-(Lima-Callao) 1313-(Lima-Callao) 1317-(Lima-Callao) 1318-(Lima-Callao) 1404 1615 2703 3603 3607 3613 3816 4205 4206 4516 7103 8104 9405-(Lima-Callao) CR19 CR54 ICR14 IM04 IM11 IO06 IO12 IO27 OM22 OM28-(Li"},{"stopId":736420,"stopName":"Del Aire","stopTypeGroup":"bus","stopLat":-12.0847613,"stopLon":-77.0083666,"routeNames":"1059 1086 1278-(Lima-Callao) 1304-(Lima-Callao) 1313-(Lima-Callao) 1317-(Lima-Callao) 1318-(Lima-Callao) 1404 1703-(Lima-Callao) 3809 4204 4205 4206 4210-(Lima-Callao) 7103 7601 8104 8520 CR19 CR54 ICR14 IM04 IM11 IM57 IO06 IO12 IO27 IO"},{"stopId":1309003,"stopName":"Santa Catalina","stopTypeGroup":"bus","stopLat":-12.0847298,"stopLon":-77.0182371,"routeNames":"1055 1059 3809"},{"stopId":1308978,"stopName":"Santa Catalina","stopTypeGroup":"bus","stopLat":-12.0847088,"stopLon":-77.018677,"routeNames":"1055 1059 3809"},{"stopId":1206400,"stopName":"Navea","stopTypeGroup":"bus","stopLat":-12.0846839,"stopLon":-77.0108683,"routeNames":"1059 1086 1278-(Lima-Callao) 1304-(Lima-Callao) 1313-(Lima-Callao) 1317-(Lima-Callao) 1318-(Lima-Callao) 1404 1703-(Lima-Callao) 3809 4204 4205 4206 4210-(Lima-Callao) 7103 7601 8104 8520 CR19 CR54 ICR14 IM04 IM11 IM57 IO06 IO12 IO27 IO"},{"stopId":1206392,"stopName":"Pezet","stopTypeGroup":"bus","stopLat":-12.0846788,"stopLon":-77.0426897,"routeNames":"1086 1278-(Lima-Callao) 1304-(Lima-Callao) 1313-(Lima-Callao) 1317-(Lima-Callao) 1318-(Lima-Callao) 1404 1615 4205 4206 4516 7103 CR19 CR54 ICR14 IM04 IM11 IO06 IO12 IO27 OM22 OM28-(Lima-Callao) SH24a"},{"stopId":1068569,"stopName":"Torre Tagle","stopTypeGroup":"bus","stopLat":-12.0846263,"stopLon":-77.0646432,"routeNames":"CR32 CR34"},{"stopId":1303066,"stopName":"Torre Tagle","stopTypeGroup":"bus","stopLat":-12.0846249,"stopLon":-77.0644462,"routeNames":"CR32 CR34 IM26 IO19 OM42-(Callao-Lima)"},{"stopId":1206402,"stopName":"Pezet","stopTypeGroup":"bus","stopLat":-12.0845666,"stopLon":-77.0425437,"routeNames":"1046 1086 1278-(Lima-Callao) 1304-(Lima-Callao) 1313-(Lima-Callao) 1317-(Lima-Callao) 1318-(Lima-Callao) 1404 1615 2703 3603 3607 3613 3816 4205 4206 4516 7103 8104 9405-(Lima-Callao) CR19 CR54 ICR14 IM04 IM11 IO06 IO12 IO27 OM22 OM28-(Li"},{"stopId":737367,"stopName":"Del Aire","stopTypeGroup":"bus","stopLat":-12.0845147,"stopLon":-77.007975,"routeNames":"1059 1086 1278-(Lima-Callao) 1304-(Lima-Callao) 1313-(Lima-Callao) 1317-(Lima-Callao) 1318-(Lima-Callao) 1404 1703-(Lima-Callao) 3809 4204 4205 4206 4210-(Lima-Callao) 7103 7601 8104 8520 CR19 CR54 ICR14 IM04 IM11 IM57 IO06 IO12 IO27 IO"},{"stopId":1300169,"stopName":"Petit Thouars","stopTypeGroup":"bus","stopLat":-12.0844845,"stopLon":-77.0334445,"routeNames":"1046 1604 2408 2613 2703 3507 3603 3607 3613 3816"},{"stopId":1206394,"stopName":"Horacio Cachay Díaz","stopTypeGroup":"bus","stopLat":-12.0844547,"stopLon":-77.0118063,"routeNames":"1059 1086 1278-(Lima-Callao) 1304-(Lima-Callao) 1313-(Lima-Callao) 1317-(Lima-Callao) 1318-(Lima-Callao) 1404 1703-(Lima-Callao) 3809 4204 4205 4206 4210-(Lima-Callao) 7103 7601 8104 8520 CR19 CR54 ICR14 IM04 IM11 IM57 IO06 IO12 IO27 IO"},{"stopId":1003256,"stopName":"Garcilaso","stopTypeGroup":"bus","stopLat":-12.0843973,"stopLon":-77.0406979,"routeNames":"1086 1278-(Lima-Callao) 1304-(Lima-Callao) 1313-(Lima-Callao) 1317-(Lima-Callao) 1318-(Lima-Callao) 1404 1615 4205 4206 4516 7103 CR19 CR54 ICR14 IM04 IM11 IO06 IO12 IO27 OM22 OM28-(Lima-Callao) SH24a"},{"stopId":1196317,"stopName":"Huiracocha","stopTypeGroup":"bus","stopLat":-12.0843147,"stopLon":-77.0517299,"routeNames":"3505 CR32 CR35 IO50"},{"stopId":1206401,"stopName":"Garcilaso","stopTypeGroup":"bus","stopLat":-12.0843007,"stopLon":-77.0405497,"routeNames":"1046 1086 1278-(Lima-Callao) 1304-(Lima-Callao) 1313-(Lima-Callao) 1317-(Lima-Callao) 1318-(Lima-Callao) 1404 1615 2703 3603 3607 3613 3816 4205 4206 4516 7103 8104 9405-(Lima-Callao) CR19 CR54 ICR14 IM04 IM11 IO06 IO12 IO27 OM22 OM28-(Li"},{"stopId":1309004,"stopName":"Esteban Campodónico","stopTypeGroup":"bus","stopLat":-12.0842944,"stopLon":-77.0209622,"routeNames":"1055 1059 3809"},{"stopId":1308313,"stopName":"Canadá","stopTypeGroup":"bus","stopLat":-12.0842892,"stopLon":-77.008388,"routeNames":"1053 3702 7610 8803"},{"stopId":737381,"stopName":"Gregorio Escobedo","stopTypeGroup":"bus","stopLat":-12.0842734,"stopLon":-77.0515126,"routeNames":"1086 4516 8104 CR19 IO12"},{"stopId":1300290,"stopName":"Avenida Canadá","stopTypeGroup":"bus","stopLat":-12.0842734,"stopLon":-77.0039892,"routeNames":"1060 1061 1703-(Lima-Callao) 1804 2701-(Lima-Callao) 3701 3810 3813 3814 4405 4911-(Lima-Callao) 7103 7601 8520 CR19 IM22 IO06"},{"stopId":817699,"stopName":"Hospital PNP","stopTypeGroup":"bus","stopLat":-12.0842367,"stopLon":-77.0613965,"routeNames":"1103 1702 1706 2204 2511-(Lima-Callao) 404 4405 4512 4703 5303 8306 8507 CR37 IM26 IO19 IO44b OM42-(Callao-Lima)"},{"stopId":736421,"stopName":"Aviación","stopTypeGroup":"bus","stopLat":-12.0842105,"stopLon":-77.004413,"routeNames":"1059 1086 1278-(Lima-Callao) 1304-(Lima-Callao) 1313-(Lima-Callao) 1317-(Lima-Callao) 1318-(Lima-Callao) 1404 1703-(Lima-Callao) 3809 4204 4205 4206 4210-(Lima-Callao) 7103 7601 8104 8520 CR19 CR54 ICR14 IM04 IM11 IM57 IO06 IO12 IO27 IO"},{"stopId":1206403,"stopName":"León Velarde","stopTypeGroup":"bus","stopLat":-12.0841832,"stopLon":-77.0464016,"routeNames":"1278-(Lima-Callao) 1304-(Lima-Callao) 1317-(Lima-Callao) 1318-(Lima-Callao) 1404 2703 4205 4206 9405-(Lima-Callao) ICR14 IM04 IM11 IO27 OM28-(Lima-Callao) SH24a"},{"stopId":1300170,"stopName":"Militar","stopTypeGroup":"bus","stopLat":-12.0841797,"stopLon":-77.031478,"routeNames":"1046 2408 2703 3507 3603 3607 3613 3816"},{"stopId":1308977,"stopName":"San Eugenio","stopTypeGroup":"bus","stopLat":-12.0841213,"stopLon":-77.0212841,"routeNames":"1055 1059 3809"},{"stopId":1196247,"stopName":"Huiracocha","stopTypeGroup":"bus","stopLat":-12.0839855,"stopLon":-77.0515504,"routeNames":"3505 CR32 CR35 IO50"},{"stopId":1206393,"stopName":"Miller","stopTypeGroup":"bus","stopLat":-12.083962,"stopLon":-77.0374722,"routeNames":"1086 1278-(Lima-Callao) 1304-(Lima-Callao) 1313-(Lima-Callao) 1317-(Lima-Callao) 1318-(Lima-Callao) 1404 1615 4205 4206 4516 7103 CR19 CR54 ICR14 IM04 IM11 IO06 IO12 IO27 IO47 OM22 OM28-(Lima-Callao) SH24a"},{"stopId":737366,"stopName":"Aviación","stopTypeGroup":"bus","stopLat":-12.083922,"stopLon":-77.0038497,"routeNames":"1059 1086 1278-(Lima-Callao) 1304-(Lima-Callao) 1313-(Lima-Callao) 1317-(Lima-Callao) 1318-(Lima-Callao) 1404 3809 4204 4205 4206 4210-(Lima-Callao) 8104 CR54 ICR14 IM04 IM11 IM57 IO12 IO27 IO47 OM22 OM28-(Lima-Callao) SH24a"},{"stopId":1303801,"stopName":"José Gálvez","stopTypeGroup":"bus","stopLat":-12.0839115,"stopLon":-77.0294273,"routeNames":"2408 2703 3507"},{"stopId":828206,"stopName":"Conococha","stopTypeGroup":"bus","stopLat":-12.0838616,"stopLon":-77.0373532,"routeNames":"1046 1086 1278-(Lima-Callao) 1304-(Lima-Callao) 1313-(Lima-Callao) 1317-(Lima-Callao) 1318-(Lima-Callao) 1404 2703 3603 3607 3613 3816 4205 4206 4516 7103 8104 8201 9405-(Lima-Callao) 9801-(Lima-Callao) CR19 CR54 ICR14 IM04 IM11 IM57 IO"},{"stopId":1300799,"stopName":"Sinchi Roca","stopTypeGroup":"bus","stopLat":-12.0838223,"stopLon":-77.0448124,"routeNames":"1611 9602-(Lima-Callao)"},{"stopId":1206390,"stopName":"León Velarde","stopTypeGroup":"bus","stopLat":-12.0838203,"stopLon":-77.0459438,"routeNames":"1086 1278-(Lima-Callao) 1304-(Lima-Callao) 1317-(Lima-Callao) 1318-(Lima-Callao) 1404 2703 4205 4206 4516 7103 9405-(Lima-Callao) CR19 ICR14 IM04 IM11 IO12 IO27 OM28-(Lima-Callao) SH24a"},{"stopId":1300285,"stopName":"Avenida Canadá","stopTypeGroup":"bus","stopLat":-12.0838013,"stopLon":-77.0043272,"routeNames":"1060 1061 1804 2701-(Lima-Callao) 3701 3810 3813 3814 4405 4911-(Lima-Callao) IM22"},{"stopId":1003257,"stopName":"Arenales","stopTypeGroup":"bus","stopLat":-12.0837497,"stopLon":-77.035835,"routeNames":"1086 1278-(Lima-Callao) 1304-(Lima-Callao) 1313-(Lima-Callao) 1317-(Lima-Callao) 1318-(Lima-Callao) 1404 1615 4205 4206 4516 7103 CR19 CR54 ICR14 IM04 IM11 IO06 IO12 IO27 IO47 OM22 OM28-(Lima-Callao) SH24a"},{"stopId":736422,"stopName":"Arqueología","stopTypeGroup":"bus","stopLat":-12.0837436,"stopLon":-77.0010066,"routeNames":"1059 1086 1278-(Lima-Callao) 1304-(Lima-Callao) 1313-(Lima-Callao) 1317-(Lima-Callao) 1318-(Lima-Callao) 1404 3809 4204 4205 4206 4210-(Lima-Callao) 8104 CR54 ICR14 IM04 IM11 IM57 IO12 IO27 IO47 OM22 OM28-(Lima-Callao) SH24a"},{"stopId":1158340,"stopName":"José Bernardo Alcedo","stopTypeGroup":"bus","stopLat":-12.0837286,"stopLon":-77.0292511,"routeNames":"1099 2408"},{"stopId":1313694,"stopName":"Canadá","stopTypeGroup":"bus","stopLat":-12.0837226,"stopLon":-77.0140743,"routeNames":"1059 3809"},{"stopId":739140,"stopName":"Cuzco","stopTypeGroup":"bus","stopLat":-12.0837174,"stopLon":-77.082594,"routeNames":"1103 1503 1513 1514 1611 1615 1704 1901-(Lima-Callao) CR71 IO06 IO44b"},{"stopId":1019072,"stopName":"Arenales","stopTypeGroup":"bus","stopLat":-12.083624,"stopLon":-77.0356385,"routeNames":"1046 1086 1278-(Lima-Callao) 1304-(Lima-Callao) 1313-(Lima-Callao) 1317-(Lima-Callao) 1318-(Lima-Callao) 1404 2703 3603 3607 3613 3816 4205 4206 4516 7103 8104 8201 9405-(Lima-Callao) 9801-(Lima-Callao) CR19 CR54 ICR14 IM04 IM11 IM57 IO"},{"stopId":736411,"stopName":"Arequipa","stopTypeGroup":"bus","stopLat":-12.0835967,"stopLon":-77.0347917,"routeNames":"1086 1278-(Lima-Callao) 1304-(Lima-Callao) 1313-(Lima-Callao) 1317-(Lima-Callao) 1318-(Lima-Callao) 1404 4205 4206 4210-(Lima-Callao) 4516 7103 7601 8104 CR19 CR54 ICR14 IM04 IM11 IM57 IO06 IO12 IO27 IO47 OM22 OM28-(Lima-Callao) SH24a"},{"stopId":1159602,"stopName":"Pardo de Zela","stopTypeGroup":"bus","stopLat":-12.0835648,"stopLon":-77.033463,"routeNames":"1047 2613 8201 9405-(Lima-Callao) 9801-(Lima-Callao) NH25"},{"stopId":1196246,"stopName":"Garibaldi","stopTypeGroup":"bus","stopLat":-12.0835501,"stopLon":-77.0506438,"routeNames":"3505 CR32 CR35 IO50"},{"stopId":736410,"stopName":"Canevaro","stopTypeGroup":"bus","stopLat":-12.083539,"stopLon":-77.035768,"routeNames":"1604 2613 4210-(Lima-Callao) 7601 8104 IM57 NH25"},{"stopId":737365,"stopName":"Videna","stopTypeGroup":"bus","stopLat":-12.0834866,"stopLon":-77.0006257,"routeNames":"1059 1086 1278-(Lima-Callao) 1304-(Lima-Callao) 1313-(Lima-Callao) 1317-(Lima-Callao) 1318-(Lima-Callao) 1404 3809 4204 4205 4206 4210-(Lima-Callao) 8104 CR54 ICR14 IM04 IM11 IM57 IO12 IO27 IO47 Lima-Ica-(Perú-Bus) OM22 OM28-(Lima-Cal"},{"stopId":737375,"stopName":"Arequipa","stopTypeGroup":"bus","stopLat":-12.0834604,"stopLon":-77.0344323,"routeNames":"1046 1086 1278-(Lima-Callao) 1304-(Lima-Callao) 1313-(Lima-Callao) 1317-(Lima-Callao) 1318-(Lima-Callao) 1404 2703 3603 3607 3613 3816 4205 4206 4516 7103 8104 8201 9801-(Lima-Callao) CR19 CR54 ICR14 IM04 IM11 IM57 IO06 IO12 IO27 IO47 OM2"},{"stopId":1326232,"stopName":"Pardo de Zela","stopTypeGroup":"bus","stopLat":-12.0834499,"stopLon":-77.0315087,"routeNames":"1099 3613"},{"stopId":1300798,"stopName":"Cápac Yupanqui","stopTypeGroup":"bus","stopLat":-12.0834236,"stopLon":-77.0419049,"routeNames":"1611 9602-(Lima-Callao)"},{"stopId":739108,"stopName":"Cuzco","stopTypeGroup":"bus","stopLat":-12.0834079,"stopLon":-77.0826799,"routeNames":"1103 1503 1513 1514 1611 1615 1704 1901-(Lima-Callao) CR71 IO44b"},{"stopId":737368,"stopName":"Arriola","stopTypeGroup":"bus","stopLat":-12.0833764,"stopLon":-77.0138437,"routeNames":"1059 1086 1278-(Lima-Callao) 1304-(Lima-Callao) 1313-(Lima-Callao) 1317-(Lima-Callao) 1318-(Lima-Callao) 1404 1703-(Lima-Callao) 3809 4204 4205 4206 4210-(Lima-Callao) 7103 7601 8104 8520 CR19 CR54 ICR14 IM04 IM11 IM57 IO06 IO12 IO27 IO"},{"stopId":1301565,"stopName":"Estados Unidos","stopTypeGroup":"bus","stopLat":-12.0833607,"stopLon":-77.0543075,"routeNames":"1086 1278-(Lima-Callao) 1304-(Lima-Callao) 1317-(Lima-Callao) 1318-(Lima-Callao) 3203-(Lima-Callao) 4205 4206 4516 7103 CR19 ICR14 IM04 IO12 IO45 OM28-(Lima-Callao) SH24a"},{"stopId":736413,"stopName":"Merino","stopTypeGroup":"bus","stopLat":-12.083303,"stopLon":-77.0327425,"routeNames":"1047 1086 1278-(Lima-Callao) 1304-(Lima-Callao) 1313-(Lima-Callao) 1317-(Lima-Callao) 1318-(Lima-Callao) 1404 4205 4206 4210-(Lima-Callao) 4516 7103 7601 8104 CR19 CR54 ICR14 IM04 IM11 IM57 IO06 IO12 IO27 IO47 OM22 OM28-(Lima-Callao) SH"},{"stopId":1301566,"stopName":"Estados Unidos","stopTypeGroup":"bus","stopLat":-12.083282,"stopLon":-77.05405,"routeNames":"1086 1278-(Lima-Callao) 1304-(Lima-Callao) 1317-(Lima-Callao) 1318-(Lima-Callao) 3203-(Lima-Callao) 4205 4206 4516 7103 CR19 ICR14 IM04 IO12 IO45 OM28-(Lima-Callao) SH24a"},{"stopId":737382,"stopName":"San Felipe","stopTypeGroup":"bus","stopLat":-12.083282,"stopLon":-77.0520544,"routeNames":"1086 3505 4516 8104 CR19 CR32 CR35 IO12 IO50"},{"stopId":1044616,"stopName":"La Marina","stopTypeGroup":"bus","stopLat":-12.0832711,"stopLon":-77.067268,"routeNames":"1313-(Lima-Callao) 1505 1508 2204 2510 3502 3906-(Lima-Callao) 7505 8525 CR35 IO03 IO07 IO35b IO52 IO89"},{"stopId":1323995,"stopName":"María del Carmen","stopTypeGroup":"bus","stopLat":-12.0832532,"stopLon":-77.0399737,"routeNames":"8621 IO47"},{"stopId":736419,"stopName":"Arriola","stopTypeGroup":"bus","stopLat":-12.0832505,"stopLon":-77.0144928,"routeNames":"1086 1278-(Lima-Callao) 1304-(Lima-Callao) 1313-(Lima-Callao) 1317-(Lima-Callao) 1318-(Lima-Callao) 1404 1703-(Lima-Callao) 4204 4205 4206 4210-(Lima-Callao) 7103 7601 8104 8520 CR19 CR54 ICR14 IM04 IM11 IM57 IO06 IO12 IO27 IO47 OM22 OM"},{"stopId":1301567,"stopName":"Huiracocha","stopTypeGroup":"bus","stopLat":-12.0832295,"stopLon":-77.0522475,"routeNames":"1086 1278-(Lima-Callao) 1304-(Lima-Callao) 1317-(Lima-Callao) 1318-(Lima-Callao) 3203-(Lima-Callao) 4205 4206 4516 7103 CR19 ICR14 IM04 IO12 IO45 OM28-(Lima-Callao) SH24a"},{"stopId":737374,"stopName":"Merino","stopTypeGroup":"bus","stopLat":-12.0832086,"stopLon":-77.0325387,"routeNames":"1046 1047 1086 1278-(Lima-Callao) 1304-(Lima-Callao) 1313-(Lima-Callao) 1317-(Lima-Callao) 1318-(Lima-Callao) 1404 2703 3507 3603 3607 3613 3816 4205 4206 4210-(Lima-Callao) 4516 7103 7601 8104 CR19 CR54 ICR14 IM04 IM11 IM57 IO06 IO12 IO2"},{"stopId":828111,"stopName":"Pardo de Zela","stopTypeGroup":"bus","stopLat":-12.0831037,"stopLon":-77.0326701,"routeNames":"8201 8621 9801-(Lima-Callao)"},{"stopId":735810,"stopName":"Sucre","stopTypeGroup":"bus","stopLat":-12.0830946,"stopLon":-77.0669358,"routeNames":"1504 1506 201-(Lima-Callao) 204 206 209 CR32 CR34 CR69 IM26 IO14-(Lima-Callao) IO19 OM42-(Callao-Lima)"},{"stopId":735822,"stopName":"Sucre","stopTypeGroup":"bus","stopLat":-12.0830291,"stopLon":-77.0676299,"routeNames":"1504 1506 201-(Lima-Callao) 204 206 209 CR32 CR34 CR35 CR65 CR69 IM26 IO03 IO07 IO14-(Lima-Callao) IO19 OM22 OM36 OM37 OM42-(Callao-Lima)"},{"stopId":736414,"stopName":"Francisco Lazo","stopTypeGroup":"bus","stopLat":-12.0830145,"stopLon":-77.0305324,"routeNames":"1086 1278-(Lima-Callao) 1304-(Lima-Callao) 1313-(Lima-Callao) 1317-(Lima-Callao) 1318-(Lima-Callao) 1404 4205 4206 4210-(Lima-Callao) 4516 7103 7601 8104 CR19 CR54 ICR14 IM04 IM11 IM57 IO06 IO12 IO27 IO47 OM22 OM28-(Lima-Callao) SH24a"},{"stopId":1301568,"stopName":"Huiracocha","stopTypeGroup":"bus","stopLat":-12.083004,"stopLon":-77.0520544,"routeNames":"1278-(Lima-Callao) 1304-(Lima-Callao) 1317-(Lima-Callao) 1318-(Lima-Callao) 3203-(Lima-Callao) 4205 4206 7103 ICR14 IM04 IM11 IO45 OM19 OM28-(Lima-Callao) SH24a"},{"stopId":1044582,"stopName":"La Marina","stopTypeGroup":"bus","stopLat":-12.0829259,"stopLon":-77.067205,"routeNames":"1313-(Lima-Callao) 1505 1508 2204 2510 3502 3906-(Lima-Callao) 7505 8525 IO35b IO52 IO89"},{"stopId":737373,"stopName":"Francisco Lazo","stopTypeGroup":"bus","stopLat":-12.0829096,"stopLon":-77.0303714,"routeNames":"1046 1047 1086 1278-(Lima-Callao) 1304-(Lima-Callao) 1313-(Lima-Callao) 1317-(Lima-Callao) 1318-(Lima-Callao) 1404 2703 3507 3603 3607 3613 3816 4205 4206 4210-(Lima-Callao) 4516 7103 7601 8104 CR19 CR54 ICR14 IM04 IM11 IM57 IO06 IO12 IO2"},{"stopId":931299,"stopName":"Pardo de Zela","stopTypeGroup":"bus","stopLat":-12.0828244,"stopLon":-77.0281518,"routeNames":"2408 2703 2803 3507 3805 7607 8308 8619"},{"stopId":949357,"stopName":"Colegio","stopTypeGroup":"bus","stopLat":-12.0828196,"stopLon":-77.0601212,"routeNames":"1103 1702 1706 2204 2511-(Lima-Callao) 404 4405 4512 4703 5303 8306 8507 CR37 IM26 IO19 IO44b OM42-(Callao-Lima)"},{"stopId":827078,"stopName":"San Felipe","stopTypeGroup":"bus","stopLat":-12.0827889,"stopLon":-77.0459282,"routeNames":"1051 1057 1110 1278-(Lima-Callao) 1304-(Lima-Callao) 1317-(Lima-Callao) 1318-(Lima-Callao) 1404 1611 1612 1701 2703 3511 4205 4206 4510 4511 7501 8515 8523 9405-(Lima-Callao) 9602-(Lima-Callao) ICR14 IM04 IM11 IO27 IO28b IO30b OM19 OM21 O"},{"stopId":736423,"stopName":"San Luis","stopTypeGroup":"bus","stopLat":-12.0827837,"stopLon":-76.9976807,"routeNames":"1059 1086 1278-(Lima-Callao) 1304-(Lima-Callao) 1313-(Lima-Callao) 1317-(Lima-Callao) 1318-(Lima-Callao) 1404 3809 4204 4205 4206 4210-(Lima-Callao) 8104 CR54 ICR14 IM04 IM11 IM57 IO12 IO27 IO47 OM22 OM28-(Lima-Callao) SH24a"},{"stopId":736415,"stopName":"Iquitos","stopTypeGroup":"bus","stopLat":-12.0827155,"stopLon":-77.0283866,"routeNames":"1086 1278-(Lima-Callao) 1304-(Lima-Callao) 1313-(Lima-Callao) 1317-(Lima-Callao) 1318-(Lima-Callao) 1404 4205 4206 4210-(Lima-Callao) 4516 7103 7601 8104 CR19 CR54 ICR14 IM04 IM11 IM57 IO06 IO12 IO27 IO47 OM22 OM28-(Lima-Callao) SH24a"},{"stopId":1196318,"stopName":"Huascar","stopTypeGroup":"bus","stopLat":-12.0826466,"stopLon":-77.0507,"routeNames":"1086 1278-(Lima-Callao) 1304-(Lima-Callao) 1317-(Lima-Callao) 1318-(Lima-Callao) 3203-(Lima-Callao) 3505 4205 4206 4516 7103 CR19 CR32 CR35 ICR14 IM04 IO12 IO45 IO50 OM28-(Lima-Callao) SH24a"},{"stopId":737371,"stopName":"Iquitos","stopTypeGroup":"bus","stopLat":-12.0825896,"stopLon":-77.0280594,"routeNames":"1086 1278-(Lima-Callao) 1304-(Lima-Callao) 1313-(Lima-Callao) 1317-(Lima-Callao) 1318-(Lima-Callao) 1404 3507 4205 4206 4210-(Lima-Callao) 4516 7103 7601 8104 CR19 CR54 ICR14 IM04 IM11 IM57 IO06 IO12 IO27 IO47 OM22 OM28-(Lima-Callao) SH"},{"stopId":737364,"stopName":"Canadá","stopTypeGroup":"bus","stopLat":-12.0825739,"stopLon":-76.997171,"routeNames":"1059 2702 3809 7504 8104 8803"},{"stopId":1301237,"stopName":"Canadá","stopTypeGroup":"bus","stopLat":-12.0825319,"stopLon":-77.0269543,"routeNames":"1086 1278-(Lima-Callao) 1304-(Lima-Callao) 1313-(Lima-Callao) 1317-(Lima-Callao) 1318-(Lima-Callao) 1404 3507 4205 4206 4210-(Lima-Callao) 4516 7103 7601 8104 CR19 CR54 ICR14 IM04 IM11 IM57 IO06 IO12 IO27 IO47 OM22 OM28-(Lima-Callao) SH"},{"stopId":735459,"stopName":"Manuel Candamo","stopTypeGroup":"bus","stopLat":-12.0825266,"stopLon":-77.0346791,"routeNames":"301 305"},{"stopId":867698,"stopName":"Pardo de Zela","stopTypeGroup":"bus","stopLat":-12.0824885,"stopLon":-77.0283222,"routeNames":"2803 3805 405 7607 8308 8619"},{"stopId":1196245,"stopName":"Huascar","stopTypeGroup":"bus","stopLat":-12.0824382,"stopLon":-77.0505119,"routeNames":"1278-(Lima-Callao) 1304-(Lima-Callao) 1317-(Lima-Callao) 1318-(Lima-Callao) 3203-(Lima-Callao) 3505 4205 4206 7103 CR32 CR35 ICR14 IM04 IM11 IO45 IO50 OM19 OM28-(Lima-Callao) SH24a"},{"stopId":1196320,"stopName":"Salaverry","stopTypeGroup":"bus","stopLat":-12.0824298,"stopLon":-77.0460201,"routeNames":"1086 1278-(Lima-Callao) 1304-(Lima-Callao) 1317-(Lima-Callao) 1318-(Lima-Callao) 3203-(Lima-Callao) 3505 4205 4206 4516 7103 CR19 CR32 CR35 ICR14 IM04 IO12 IO45 IO50 OM28-(Lima-Callao) SH24a"},{"stopId":826033,"stopName":"Canadá","stopTypeGroup":"bus","stopLat":-12.0824217,"stopLon":-77.0265466,"routeNames":"B C EX2 EX5 EX9"},{"stopId":827199,"stopName":"Manuel Candamo","stopTypeGroup":"bus","stopLat":-12.0823903,"stopLon":-77.0336276,"routeNames":"1604 2613 336 405 4210-(Lima-Callao) 7601 NH25"},{"stopId":1300797,"stopName":"Belisario Flores","stopTypeGroup":"bus","stopLat":-12.0823798,"stopLon":-77.0409018,"routeNames":"1611 9602-(Lima-Callao)"},{"stopId":817697,"stopName":"Colegio","stopTypeGroup":"bus","stopLat":-12.0823588,"stopLon":-77.0598435,"routeNames":"1103 1702 1706 2204 2511-(Lima-Callao) 404 4405 4512 4703 5303 8306 8507 CR37 IM26 IO19 IO44b OM42-(Callao-Lima)"},{"stopId":735422,"stopName":"Manuel Candamo","stopTypeGroup":"bus","stopLat":-12.0823535,"stopLon":-77.0348802,"routeNames":"301 305"},{"stopId":1301585,"stopName":"San Felipe","stopTypeGroup":"bus","stopLat":-12.0823063,"stopLon":-77.0487928,"routeNames":"7103"},{"stopId":827087,"stopName":"San Felipe","stopTypeGroup":"bus","stopLat":-12.0823011,"stopLon":-77.0455635,"routeNames":"1051 1057 1110 1404 1612 1701 2703 3203-(Lima-Callao) 3505 3511 4510 4511 7501 8515 8523 9405-(Lima-Callao) CR32 CR35 IM11 IO27 IO28b IO30b IO45 IO50 OM19 OM21"},{"stopId":1075586,"stopName":"La Marina","stopTypeGroup":"bus","stopLat":-12.0822742,"stopLon":-77.0704326,"routeNames":"CR65 OM22 OM36 OM37"},{"stopId":1003276,"stopName":"Canadá","stopTypeGroup":"bus","stopLat":-12.0822356,"stopLon":-77.0259962,"routeNames":"1086 1278-(Lima-Callao) 1304-(Lima-Callao) 1313-(Lima-Callao) 1317-(Lima-Callao) 1318-(Lima-Callao) 1404 3507 4205 4206 4210-(Lima-Callao) 4516 7103 7601 8104 CR19 CR54 ICR14 IM04 IM11 IM57 IO06 IO12 IO27 IO47 OM22 OM28-(Lima-Callao) SH"},{"stopId":1304325,"stopName":"Canadá","stopTypeGroup":"bus","stopLat":-12.0821909,"stopLon":-76.9973856,"routeNames":"2412 2702 7504 8803 IO47"},{"stopId":1003273,"stopName":"San Luis","stopTypeGroup":"bus","stopLat":-12.0821553,"stopLon":-76.9970323,"routeNames":"1086 1278-(Lima-Callao) 1304-(Lima-Callao) 1313-(Lima-Callao) 1317-(Lima-Callao) 1318-(Lima-Callao) 1404 2412 4204 4205 4206 4210-(Lima-Callao) CR54 ICR14 IM04 IM11 IM57 IO12 IO27 OM22 OM28-(Lima-Callao) SH24a"},{"stopId":1919761,"stopName":"Terminal Móvil Bus","stopTypeGroup":"bus","stopLat":-12.0821174874062,"stopLon":-77.01308190822603,"routeNames":"Lima-Huánuco-(Móvil-Bus)"},{"stopId":739142,"stopName":"Ayacucho","stopTypeGroup":"bus","stopLat":-12.0820388,"stopLon":-77.0822775,"routeNames":"1103 1503 1513 1514 1611 1615 1704 1901-(Lima-Callao) 2408 CR71 IO44b"},{"stopId":1196319,"stopName":"Sanchez Cerro","stopTypeGroup":"bus","stopLat":-12.0820323,"stopLon":-77.0489157,"routeNames":"1086 1278-(Lima-Callao) 1304-(Lima-Callao) 1317-(Lima-Callao) 1318-(Lima-Callao) 3203-(Lima-Callao) 3505 4205 4206 4516 7103 CR19 CR32 CR35 ICR14 IM04 IO12 IO45 IO50 OM28-(Lima-Callao) SH24a"},{"stopId":736418,"stopName":"Santa Catalina","stopTypeGroup":"bus","stopLat":-12.0819706,"stopLon":-77.0173842,"routeNames":"1086 1278-(Lima-Callao) 1304-(Lima-Callao) 1313-(Lima-Callao) 1317-(Lima-Callao) 1318-(Lima-Callao) 1404 1703-(Lima-Callao) 4204 4205 4206 4210-(Lima-Callao) 7103 7601 8104 8520 CR19 CR54 ICR14 IM04 IM11 IM57 IO06 IO12 IO27 IO47 OM22 OM"},{"stopId":828207,"stopName":"Belisario Flores","stopTypeGroup":"bus","stopLat":-12.0819505,"stopLon":-77.0383298,"routeNames":"8201 9801-(Lima-Callao) IM57"},{"stopId":737369,"stopName":"Santa Catalina","stopTypeGroup":"bus","stopLat":-12.0819286,"stopLon":-77.0169711,"routeNames":"1086 1278-(Lima-Callao) 1304-(Lima-Callao) 1313-(Lima-Callao) 1317-(Lima-Callao) 1318-(Lima-Callao) 1404 1703-(Lima-Callao) 4204 4205 4206 4210-(Lima-Callao) 7103 7601 8104 8520 CR19 CR54 ICR14 IM04 IM11 IM57 IO06 IO12 IO27 IO47 OM22 OM"},{"stopId":1196244,"stopName":"Sanchez Cerro","stopTypeGroup":"bus","stopLat":-12.0818632,"stopLon":-77.0486858,"routeNames":"1278-(Lima-Callao) 1304-(Lima-Callao) 1317-(Lima-Callao) 1318-(Lima-Callao) 3203-(Lima-Callao) 3505 4205 4206 CR32 CR35 ICR14 IM04 IM11 IO45 IO50 OM19 OM28-(Lima-Callao) SH24a"},{"stopId":1867135,"stopName":"José María Córdova","stopTypeGroup":"bus","stopLat":-12.081845038659875,"stopLon":-77.0384417233469,"routeNames":"1618"},{"stopId":1044584,"stopName":"Echenique","stopTypeGroup":"bus","stopLat":-12.0818348,"stopLon":-77.070413,"routeNames":"1504 1506 CR32 CR34 CR35 CR69 IM26 IO03 IO07 IO14-(Lima-Callao) IO19 OM42-(Callao-Lima)"},{"stopId":739107,"stopName":"Ayacucho","stopTypeGroup":"bus","stopLat":-12.081808,"stopLon":-77.0823795,"routeNames":"1103 1503 1513 1514 1611 1615 1704 1901-(Lima-Callao) 2408 CR71 IO44b"},{"stopId":1003258,"stopName":"Palermo","stopTypeGroup":"bus","stopLat":-12.0817642,"stopLon":-77.0228208,"routeNames":"1055 1059 1086 1278-(Lima-Callao) 1304-(Lima-Callao) 1313-(Lima-Callao) 1317-(Lima-Callao) 1318-(Lima-Callao) 1404 3809 4205 4206 4210-(Lima-Callao) 7103 7601 8104 8520 CR19 CR54 ICR14 IM04 IM11 IM57 IO06 IO12 IO27 IO47 OM22 OM28-(Lima-"},{"stopId":827322,"stopName":"Manuel Candamo","stopTypeGroup":"bus","stopLat":-12.0816349,"stopLon":-77.0295453,"routeNames":"1046 1047 1099 2408 3603 3607 3613 3816"},{"stopId":1308314,"stopName":"Aviación","stopTypeGroup":"bus","stopLat":-12.0816034,"stopLon":-77.0057058,"routeNames":"1053 3702 7610 8803"},{"stopId":1003254,"stopName":"Echenique","stopTypeGroup":"bus","stopLat":-12.0815871,"stopLon":-77.071583,"routeNames":"1504 1506 CR32 CR34 CR35 CR65 CR69 IM26 IO03 IO07 IO14-(Lima-Callao) IO19 OM22 OM36 OM37 OM42-(Callao-Lima)"},{"stopId":1300709,"stopName":"Jirón Garcilaso","stopTypeGroup":"bus","stopLat":-12.0815615,"stopLon":-77.0409179,"routeNames":"1044 IO47"},{"stopId":1003274,"stopName":"Palermo","stopTypeGroup":"bus","stopLat":-12.0815485,"stopLon":-77.0228902,"routeNames":"1055 1059 1086 1278-(Lima-Callao) 1304-(Lima-Callao) 1313-(Lima-Callao) 1317-(Lima-Callao) 1318-(Lima-Callao) 1404 3809 4205 4206 4210-(Lima-Callao) 7103 7601 8104 8520 CR19 CR54 ICR14 IM04 IM11 IM57 IO06 IO12 IO27 IO47 OM22 OM28-(Lima-"},{"stopId":1300796,"stopName":"Jirón Garcilaso","stopTypeGroup":"bus","stopLat":-12.0814985,"stopLon":-77.0410305,"routeNames":"1611 9602-(Lima-Callao)"},{"stopId":737383,"stopName":"Hermilio Valdizán","stopTypeGroup":"bus","stopLat":-12.0814408,"stopLon":-77.0521188,"routeNames":"8104 IM11 OM19"},{"stopId":1300292,"stopName":"Del Aire","stopTypeGroup":"bus","stopLat":-12.0814356,"stopLon":-77.0050085,"routeNames":"1060 1061 1608 1804 2701-(Lima-Callao) 3701 3810 3813 3814 4405 4911-(Lima-Callao) IM22"},{"stopId":828108,"stopName":"Arequipa","stopTypeGroup":"bus","stopLat":-12.0813936,"stopLon":-77.035135,"routeNames":"8201 9801-(Lima-Callao)"},{"stopId":736409,"stopName":"Belisario Flores","stopTypeGroup":"bus","stopLat":-12.0813883,"stopLon":-77.0360845,"routeNames":"1604 2613 336 4210-(Lima-Callao) 8104 8201 9801-(Lima-Callao) IM57 NH25"},{"stopId":736417,"stopName":"Parinacochas","stopTypeGroup":"bus","stopLat":-12.0813202,"stopLon":-77.0195031,"routeNames":"1086 1278-(Lima-Callao) 1304-(Lima-Callao) 1313-(Lima-Callao) 1317-(Lima-Callao) 1318-(Lima-Callao) 1404 4205 4206 4210-(Lima-Callao) 7103 7601 8104 8520 CR19 CR54 ICR14 IM04 IM11 IM57 IO06 IO12 IO27 IO47 OM22 OM28-(Lima-Callao) SH24a"},{"stopId":1044618,"stopName":"Cabo Gutarra","stopTypeGroup":"bus","stopLat":-12.0813118,"stopLon":-77.0664338,"routeNames":"1313-(Lima-Callao) 1505 1508 2204 2510 3502 3906-(Lima-Callao) 7505 8525 IO35b IO52 IO89"},{"stopId":828109,"stopName":"Petit Thouars","stopTypeGroup":"bus","stopLat":-12.0812217,"stopLon":-77.0339189,"routeNames":"8201 9801-(Lima-Callao)"},{"stopId":1300284,"stopName":"Del Aire","stopTypeGroup":"bus","stopLat":-12.0812205,"stopLon":-77.0056683,"routeNames":"1053 1060 1061 1608 1804 2701-(Lima-Callao) 3701 3702 3810 3813 3814 4405 4911-(Lima-Callao) 7610 8803 IM22"},{"stopId":737370,"stopName":"Parinacochas","stopTypeGroup":"bus","stopLat":-12.0811733,"stopLon":-77.019031,"routeNames":"1086 1278-(Lima-Callao) 1304-(Lima-Callao) 1313-(Lima-Callao) 1317-(Lima-Callao) 1318-(Lima-Callao) 1404 1703-(Lima-Callao) 4204 4205 4206 4210-(Lima-Callao) 7103 7601 8104 8520 CR19 CR54 ICR14 IM04 IM11 IM57 IO06 IO12 IO27 IO47 OM22 OM"},{"stopId":1003259,"stopName":"Rosa Toro","stopTypeGroup":"bus","stopLat":-12.0811408,"stopLon":-76.9937139,"routeNames":"1086 1278-(Lima-Callao) 1304-(Lima-Callao) 1313-(Lima-Callao) 1317-(Lima-Callao) 1318-(Lima-Callao) 1404 2412 4204 4205 4206 4210-(Lima-Callao) CR54 ICR14 IM04 IM11 IM57 IO12 IO27 OM22 OM28-(Lima-Callao) SH24a"},{"stopId":1300171,"stopName":"Bartolomé Herrera","stopTypeGroup":"bus","stopLat":-12.0811313,"stopLon":-77.0318091,"routeNames":"1046 1047 1099 3603 3607 3613 3816"},{"stopId":1044581,"stopName":"Cabo Gutarra","stopTypeGroup":"bus","stopLat":-12.0811057,"stopLon":-77.0664326,"routeNames":"1313-(Lima-Callao) 1505 1508 2204 2510 3502 3906-(Lima-Callao) 7505 8525 IO35b IO52 IO89"},{"stopId":1339517,"stopName":"Manuel Miller","stopTypeGroup":"bus","stopLat":-12.0810736,"stopLon":-77.0373237,"routeNames":"1044"},{"stopId":1302752,"stopName":"Canadá","stopTypeGroup":"bus","stopLat":-12.0809792,"stopLon":-77.0192724,"routeNames":"1703-(Lima-Callao) 4204"},{"stopId":735821,"stopName":"Bartolomé Herrera","stopTypeGroup":"bus","stopLat":-12.0808521,"stopLon":-77.0735901,"routeNames":"1504 1506 201-(Lima-Callao) 206 CR27 CR32 CR34 CR35 CR65 CR69 IM26 IO03 IO07 IO14-(Lima-Callao) IO19 OM22 OM36 OM37 OM42-(Callao-Lima)"},{"stopId":735811,"stopName":"Bartolomé Herrera","stopTypeGroup":"bus","stopLat":-12.0808319,"stopLon":-77.0730486,"routeNames":"1504 1506 201-(Lima-Callao) 206 CR27 CR32 CR34 CR35 CR65 CR69 IM26 IO03 IO07 IO14-(Lima-Callao) IO19 OM22 OM36 OM37 OM42-(Callao-Lima)"},{"stopId":817737,"stopName":"Óvalo de la Brasil","stopTypeGroup":"bus","stopLat":-12.0808271,"stopLon":-77.0585158,"routeNames":"1103 1702 1706 2204 2511-(Lima-Callao) 404 4405 4512 4703 5303 8306 8507 CR37 IM26 IO19 IO44b OM42-(Callao-Lima)"},{"stopId":1301564,"stopName":"Ovalo de la Brasil","stopTypeGroup":"bus","stopLat":-12.0808061,"stopLon":-77.0580143,"routeNames":"1086 1278-(Lima-Callao) 1304-(Lima-Callao) 1317-(Lima-Callao) 1318-(Lima-Callao) 3203-(Lima-Callao) 4205 4206 4516 7103 CR19 ICR14 IM04 IO12 IO45 OM28-(Lima-Callao) SH24a"},{"stopId":1003272,"stopName":"Rosa Toro","stopTypeGroup":"bus","stopLat":-12.0807914,"stopLon":-76.9934274,"routeNames":"1086 1278-(Lima-Callao) 1304-(Lima-Callao) 1313-(Lima-Callao) 1317-(Lima-Callao) 1318-(Lima-Callao) 1404 2412 3405 3611 4204 4205 4206 4210-(Lima-Callao) CR54 ICR14 IM04 IM11 IM57 IO12 IO27 OM22 OM28-(Lima-Callao) SH24a"},{"stopId":1313828,"stopName":"Canadá","stopTypeGroup":"bus","stopLat":-12.0807851,"stopLon":-76.9937164,"routeNames":"3405 3611"},{"stopId":1300710,"stopName":"Instituto Nacional de Salud","stopTypeGroup":"bus","stopLat":-12.080633,"stopLon":-77.041803,"routeNames":"1044 IO47"},{"stopId":1301563,"stopName":"Ovalo de la Brasil","stopTypeGroup":"bus","stopLat":-12.0804651,"stopLon":-77.0585614,"routeNames":"1086 1278-(Lima-Callao) 1304-(Lima-Callao) 1317-(Lima-Callao) 1318-(Lima-Callao) 3203-(Lima-Callao) 4205 4206 4516 7103 CR19 ICR14 IM04 IO12 IO45 OM28-(Lima-Callao) SH24a"},{"stopId":817696,"stopName":"Óvalo de la Brasil","stopTypeGroup":"bus","stopLat":-12.0804415,"stopLon":-77.0582664,"routeNames":"1103 1702 1706 2204 2511-(Lima-Callao) 404 4405 4512 4703 5303 8306 8507 CR37 IM26 IO19 IO44b OM42-(Callao-Lima)"},{"stopId":828208,"stopName":"Domingo Cueto","stopTypeGroup":"bus","stopLat":-12.0802658,"stopLon":-77.0385763,"routeNames":"1618 8201 9801-(Lima-Callao) IM57"},{"stopId":1989634,"stopName":"Emilio Althaus","stopTypeGroup":"bus","stopLat":-12.080145138777574,"stopLon":-77.03307509422304,"routeNames":"8621"},{"stopId":736407,"stopName":"Miller","stopTypeGroup":"bus","stopLat":-12.080014,"stopLon":-77.0375651,"routeNames":"1044 1057 1474 3203-(Lima-Callao) 4510 4902-(Lima-Callao) 8104 8201 8621 9801-(Lima-Callao) IM24 IM57 IO47"},{"stopId":1003278,"stopName":"Miguel de Unamuno","stopTypeGroup":"bus","stopLat":-12.080013,"stopLon":-77.0753832,"routeNames":"1504 1506 CR27 CR32 CR34 CR35 CR65 CR69 IM26 IO03 IO07 IO14-(Lima-Callao) IO19 OM22 OM36 OM37 OM42-(Callao-Lima)"},{"stopId":1017542,"stopName":"Hospital Rebagliati","stopTypeGroup":"bus","stopLat":-12.0800092,"stopLon":-77.0397647,"routeNames":"1044 1057 1474 1618 3203-(Lima-Callao) 4510 4902-(Lima-Callao) 8104 8201 8621 9801-(Lima-Callao) IM24 IM57 IO47"},{"stopId":1003253,"stopName":"Miguel de Unamuno","stopTypeGroup":"bus","stopLat":-12.0799454,"stopLon":-77.0761216,"routeNames":"1504 1506 CR27 CR32 CR34 CR35 CR65 CR69 IM26 IO03 IO07 IO14-(Lima-Callao) IO19 OM22 OM36 OM37 OM42-(Callao-Lima)"},{"stopId":1325484,"stopName":"Miller","stopTypeGroup":"bus","stopLat":-12.0799432,"stopLon":-77.0373639},{"stopId":761380,"stopName":"Salaverry","stopTypeGroup":"bus","stopLat":-12.0799353,"stopLon":-77.0427632,"routeNames":"1474 4902-(Lima-Callao) 8104 IM11 IM24 IM57 IO74 OM19"},{"stopId":1037470,"stopName":"Emilio Althaus","stopTypeGroup":"bus","stopLat":-12.0799347,"stopLon":-77.0285476,"routeNames":"2408 2803 3805 7607 8308 8619"},{"stopId":1158339,"stopName":"Emilio Althaus","stopTypeGroup":"bus","stopLat":-12.0799189,"stopLon":-77.0297893,"routeNames":"1046 1047 1099 2408 3603 3607 3613 3816"},{"stopId":1019073,"stopName":"Hospital Rebagliati","stopTypeGroup":"bus","stopLat":-12.0798985,"stopLon":-77.0398323,"routeNames":"1057 1618 3203-(Lima-Callao) 4510 4902-(Lima-Callao) 8201 9801-(Lima-Callao) IM24 IM57"},{"stopId":736408,"stopName":"Arenales","stopTypeGroup":"bus","stopLat":-12.0798724,"stopLon":-77.0364413,"routeNames":"1044 1057 1474 3203-(Lima-Callao) 4510 4902-(Lima-Callao) 8104 8201 8621 9801-(Lima-Callao) IM24 IM57"},{"stopId":736406,"stopName":"Rebagliati","stopTypeGroup":"bus","stopLat":-12.0798409,"stopLon":-77.0422,"routeNames":"1044 1051 1057 1110 1404 1611 1612 1701 2703 3203-(Lima-Callao) 3505 3511 4510 4511 7501 8515 8523 9405-(Lima-Callao) 9602-(Lima-Callao) CR32 CR35 IO27 IO28b IO30b IO45 IO47 IO50 OM21"},{"stopId":1037473,"stopName":"Emilio Althaus","stopTypeGroup":"bus","stopLat":-12.0797729,"stopLon":-77.0286952,"routeNames":"2803 3805 7607 8308 8619"},{"stopId":732429,"stopName":"Manuel Segura","stopTypeGroup":"bus","stopLat":-12.0797701,"stopLon":-77.0350894,"routeNames":"301 303 305"},{"stopId":1017541,"stopName":"Arequipa","stopTypeGroup":"bus","stopLat":-12.0796925,"stopLon":-77.0353802,"routeNames":"1044 1057 1474 3203-(Lima-Callao) 4510 4902-(Lima-Callao) 8621 IM24"},{"stopId":1304141,"stopName":"Domingo Cueto","stopTypeGroup":"bus","stopLat":-12.0796888,"stopLon":-77.036342,"routeNames":"1044 1057 1604 2613 3203-(Lima-Callao) 4210-(Lima-Callao) 4510 4902-(Lima-Callao) IM24 NH25"},{"stopId":827200,"stopName":"Manuel Segura","stopTypeGroup":"bus","stopLat":-12.0796494,"stopLon":-77.03403,"routeNames":"1604 2613 336 405 4210-(Lima-Callao) NH25"},{"stopId":828209,"stopName":"Salaverry","stopTypeGroup":"bus","stopLat":-12.0795943,"stopLon":-77.0419425,"routeNames":"1057 1618 3203-(Lima-Callao) 4510 4902-(Lima-Callao) 8201 8621 9801-(Lima-Callao) IM24 IM57"},{"stopId":1301562,"stopName":"Mariscal Agustín Gamarra","stopTypeGroup":"bus","stopLat":-12.0795839,"stopLon":-77.0613617,"routeNames":"1086 1278-(Lima-Callao) 1304-(Lima-Callao) 1317-(Lima-Callao) 1318-(Lima-Callao) 3203-(Lima-Callao) 4205 4206 4516 7103 CR19 ICR14 IO12 IO45 OM28-(Lima-Callao) SH24a"},{"stopId":732411,"stopName":"Manuel Segura","stopTypeGroup":"bus","stopLat":-12.0795629,"stopLon":-77.0352852,"routeNames":"301 303 305"},{"stopId":1760013,"stopName":"Terminal Terrestre Palomino (Arriola)","stopTypeGroup":"bus","stopLat":-12.0794999,"stopLon":-77.0116925,"routeNames":"Lima-Cusco-(Wari-Palomino) Lima-Nazca-(Palomino)"},{"stopId":1309005,"stopName":"Los Diamantes","stopTypeGroup":"bus","stopLat":-12.0794947,"stopLon":-77.0226252,"routeNames":"1055 1059 3507 3809 4516 8520"},{"stopId":827086,"stopName":"Rebagliati","stopTypeGroup":"bus","stopLat":-12.0794422,"stopLon":-77.0423824,"routeNames":"1051 1110 1404 1612 1618 1701 2703 3505 3511 4511 7501 8201 8515 8523 8621 9405-(Lima-Callao) 9602-(Lima-Callao) 9801-(Lima-Callao) CR32 CR35 IO27 IO28b IO30b IO45 IO47 IO50 OM21"},{"stopId":736405,"stopName":"Olavegoya","stopTypeGroup":"bus","stopLat":-12.0793478,"stopLon":-77.0478326,"routeNames":"1474 4902-(Lima-Callao) 8104 IM11 IM24 IM57 IO74 OM19"},{"stopId":1300172,"stopName":"Manuel Segura","stopTypeGroup":"bus","stopLat":-12.0792429,"stopLon":-77.0312726,"routeNames":"1046 1047 1099 3603 3607 3613 3816"},{"stopId":1017543,"stopName":"Militar","stopTypeGroup":"bus","stopLat":-12.0792364,"stopLon":-77.0321935,"routeNames":"1044 1057 1474 3203-(Lima-Callao) 4510 4902-(Lima-Callao) IM24"},{"stopId":1308975,"stopName":"Los Diamantes","stopTypeGroup":"bus","stopLat":-12.0790645,"stopLon":-77.0227969,"routeNames":"1055 1059 3507 3809 4516 8520"},{"stopId":1003260,"stopName":"Kentucky","stopTypeGroup":"bus","stopLat":-12.0790461,"stopLon":-76.990749,"routeNames":"1086 1278-(Lima-Callao) 1304-(Lima-Callao) 1313-(Lima-Callao) 1317-(Lima-Callao) 1318-(Lima-Callao) 1404 2412 3405 3611 4204 4205 4206 4210-(Lima-Callao) CR54 ICR14 IM04 IM11 IM57 IO12 IO27 OM22 OM28-(Lima-Callao) SH24a"},{"stopId":1044619,"stopName":"Manuel Cipriano Dulanto","stopTypeGroup":"bus","stopLat":-12.078957,"stopLon":-77.0654334,"routeNames":"1313-(Lima-Callao) 1505 1508 2204 2510 3502 3906-(Lima-Callao) 7505 8525 IO35b IO52 IO89"},{"stopId":817738,"stopName":"La Dieciocho","stopTypeGroup":"bus","stopLat":-12.0788468,"stopLon":-77.0568556,"routeNames":"1103 1702 1706 2204 2511-(Lima-Callao) 404 4405 4512 4703 5303 8306 8507 CR37 IM26 IO19 IO44b OM42-(Callao-Lima)"},{"stopId":1330475,"stopName":"Prolongación Iquitos","stopTypeGroup":"bus","stopLat":-12.0788127,"stopLon":-77.0291054,"routeNames":"3805 7607 8619"},{"stopId":1301561,"stopName":"Sucre","stopTypeGroup":"bus","stopLat":-12.0788075,"stopLon":-77.0656103,"routeNames":"1086 1278-(Lima-Callao) 1304-(Lima-Callao) 1313-(Lima-Callao) 1317-(Lima-Callao) 1318-(Lima-Callao) 3203-(Lima-Callao) 4205 4206 4516 7103 9306-(Callao-Lima) CR17 CR19 CR62 ICR14 IM04 IM47 IO12 IO37b-(Callao-Lima) IO38b IO45 IO89 IPC0"},{"stopId":1003271,"stopName":"Kentucky","stopTypeGroup":"bus","stopLat":-12.0788064,"stopLon":-76.9907296,"routeNames":"1086 1278-(Lima-Callao) 1304-(Lima-Callao) 1313-(Lima-Callao) 1317-(Lima-Callao) 1318-(Lima-Callao) 1404 2412 3405 3611 4204 4205 4206 4210-(Lima-Callao) CR54 ICR14 IM04 IM11 IM57 IO12 IO27 OM22 OM28-(Lima-Callao) SH24a"},{"stopId":1044580,"stopName":"Manuel Cipriano Dulanto","stopTypeGroup":"bus","stopLat":-12.0786102,"stopLon":-77.065347,"routeNames":"1086 1278-(Lima-Callao) 1304-(Lima-Callao) 1317-(Lima-Callao) 1318-(Lima-Callao) 1505 1508 2204 2510 3203-(Lima-Callao) 3502 3906-(Lima-Callao) 4205 4206 4516 7103 7505 8525 9306-(Callao-Lima) CR17 CR19 CR62 ICR14 IM04 IM47 IO12 IO35b I"},{"stopId":1304324,"stopName":"Del Aire","stopTypeGroup":"bus","stopLat":-12.0785819,"stopLon":-76.9989252,"routeNames":"2412 2702 7504 8803 IO47"},{"stopId":1301586,"stopName":"3 de Octubre","stopTypeGroup":"bus","stopLat":-12.0785714,"stopLon":-77.0609593,"routeNames":"1086 1278-(Lima-Callao) 1304-(Lima-Callao) 1317-(Lima-Callao) 1318-(Lima-Callao) 3203-(Lima-Callao) 4205 4206 4516 7103 CR19 ICR14 IM04 IO12 IO45 OM28-(Lima-Callao) SH24a"},{"stopId":737384,"stopName":"Húsares de Junín","stopTypeGroup":"bus","stopLat":-12.0785452,"stopLon":-77.0496941,"routeNames":"8104 IM11 OM19"},{"stopId":739143,"stopName":"La Marina","stopTypeGroup":"bus","stopLat":-12.078477,"stopLon":-77.0811832,"routeNames":"018p 1103 1201 1503 1513 1514 1611 1615 1704 1901-(Lima-Callao) 2408 CR71 IO44b"},{"stopId":736403,"stopName":"Huiracocha","stopTypeGroup":"bus","stopLat":-12.0783721,"stopLon":-77.0496887,"routeNames":"1474 4902-(Lima-Callao) 8104 IM11 IM24 IM57 IO74 OM19"},{"stopId":1717249,"stopName":"Santa María Magdalena","stopTypeGroup":"bus","stopLat":-12.0783527,"stopLon":-77.0631682,"routeNames":"IM04"},{"stopId":817694,"stopName":"La Dieciocho","stopTypeGroup":"bus","stopLat":-12.0783354,"stopLon":-77.0565444,"routeNames":"1103 1702 1706 2204 2511-(Lima-Callao) 404 4405 4703 5303 8306 8507 CR37 IM26 IO19 IO44b OM42-(Callao-Lima)"},{"stopId":1131549,"stopName":"La Marina","stopTypeGroup":"bus","stopLat":-12.0783285,"stopLon":-77.0845271,"routeNames":"1491 CR14 CR75 IO06 OM32"},{"stopId":735820,"stopName":"Universitaria","stopTypeGroup":"bus","stopLat":-12.0782756,"stopLon":-77.0818851,"routeNames":"201-(Lima-Callao) 204 CR27 CR32 CR34 CR35 CR65 CR69 CR71 IM26 IO03 IO07 IO14-(Lima-Callao) IO19 IO40 IO74 OM22 OM36 OM37 OM42-(Callao-Lima)"},{"stopId":761379,"stopName":"José de la Riva Agüero","stopTypeGroup":"bus","stopLat":-12.0782024,"stopLon":-77.0846829,"routeNames":"4901-(Lima-Callao) 4904-(Lima-Callao) CR27 CR32 CR34 CR35 CR65 CR69 CR71 IM26 IM55 IO03 IO06 IO07 IO14-(Lima-Callao) IO19 IO40 IO71 IO74 OM10 OM19 OM22 OM32 OM36 OM37 OM42-(Callao-Lima)"},{"stopId":735812,"stopName":"Universitaria","stopTypeGroup":"bus","stopLat":-12.0781938,"stopLon":-77.0809096,"routeNames":"1504 1506 201-(Lima-Callao) 204 206 209 CR27 CR32 CR34 CR35 CR65 CR69 IM26 IO03 IO07 IO14-(Lima-Callao) IO19 IO40 OM22 OM36 OM37 OM42-(Callao-Lima)"},{"stopId":1300291,"stopName":"Ovalo San Luis","stopTypeGroup":"bus","stopLat":-12.0781465,"stopLon":-77.010228,"routeNames":"1053 1060 1061 1608 1804 2701-(Lima-Callao) 3701 3702 3810 3813 3814 4405 4614 4911-(Lima-Callao) 7610 8803 IM22"},{"stopId":1304323,"stopName":"Del Aire","stopTypeGroup":"bus","stopLat":-12.0780993,"stopLon":-76.9993544,"routeNames":"2412 2702 7504 8803 IO47"},{"stopId":761414,"stopName":"José de la Riva Agüero","stopTypeGroup":"bus","stopLat":-12.0780469,"stopLon":-77.0843482,"routeNames":"CR27 CR32 CR34 CR35 CR65 CR69 CR71 IM26 IO03 IO07 IO14-(Lima-Callao) IO19 IO40 IO71 IO74 OM10 OM22 OM36 OM37 OM42-(Callao-Lima)"},{"stopId":738732,"stopName":"La Marina","stopTypeGroup":"bus","stopLat":-12.0779629,"stopLon":-77.0816526,"routeNames":"018p 1103 1201 1503 1504 1506 1513 1514 1611 1615 1704 1901-(Lima-Callao) 206 209 2408 IO44b IO74"},{"stopId":1131505,"stopName":"La Marina","stopTypeGroup":"bus","stopLat":-12.077871,"stopLon":-77.0845465,"routeNames":"1491 4901-(Lima-Callao) 4904-(Lima-Callao) CR14 CR75 IM55 OM19"},{"stopId":1017619,"stopName":"Arenales","stopTypeGroup":"bus","stopLat":-12.0778675,"stopLon":-77.0364903,"routeNames":"1044 1057 3203-(Lima-Callao) 4510 4902-(Lima-Callao) IM24"},{"stopId":1304140,"stopName":"Teodoro Cárdenas","stopTypeGroup":"bus","stopLat":-12.0777479,"stopLon":-77.0366317,"routeNames":"1604 2613 336 4210-(Lima-Callao) NH25"},{"stopId":1017618,"stopName":"Arequipa","stopTypeGroup":"bus","stopLat":-12.0776897,"stopLon":-77.0352917,"routeNames":"1044 1057 3203-(Lima-Callao) 4510 4902-(Lima-Callao) IM24"},{"stopId":930807,"stopName":"Teodoro Cárdenas","stopTypeGroup":"bus","stopLat":-12.0776676,"stopLon":-77.0343412,"routeNames":"1604 2613 4210-(Lima-Callao) NH25"},{"stopId":1466169,"stopName":"Daniel Hernández","stopTypeGroup":"bus","stopLat":-12.0776561,"stopLon":-77.069588,"routeNames":"1086 1278-(Lima-Callao) 1304-(Lima-Callao) 1313-(Lima-Callao) 1317-(Lima-Callao) 1318-(Lima-Callao) 3203-(Lima-Callao) 4205 4206 4516 7103 9306-(Callao-Lima) CR17 CR19 CR62 ICR14 IM04 IM47 IO12 IO37b-(Callao-Lima) IO38b IO45 IO89 IPC0"},{"stopId":736404,"stopName":"Mariátegui","stopTypeGroup":"bus","stopLat":-12.0776115,"stopLon":-77.0506597,"routeNames":"1474 4902-(Lima-Callao) 8104 IM11 IM24 IM57 IO74 OM19"},{"stopId":1466173,"stopName":"Daniel Hernández","stopTypeGroup":"bus","stopLat":-12.0776036,"stopLon":-77.069419,"routeNames":"1086 1278-(Lima-Callao) 1304-(Lima-Callao) 1313-(Lima-Callao) 1317-(Lima-Callao) 1318-(Lima-Callao) 3203-(Lima-Callao) 4205 4206 4516 7103 9306-(Callao-Lima) CR17 CR19 CR62 ICR14 IM04 IM47 IO12 IO37b-(Callao-Lima) IO38b IO45 IO89 IPC0"},{"stopId":1313463,"stopName":"Manuel Del Pino","stopTypeGroup":"bus","stopLat":-12.077601,"stopLon":-77.03013,"routeNames":"1046 1099 3603 3607 7607"},{"stopId":867719,"stopName":"Estación México","stopTypeGroup":"bus","stopLat":-12.0774973,"stopLon":-77.029607,"routeNames":"1044 1046 1047 1057 1099 1474 3203-(Lima-Callao) 3603 3607 3613 3816 405 4510 4902-(Lima-Callao) IM24"},{"stopId":1300205,"stopName":"Estación México","stopTypeGroup":"bus","stopLat":-12.0774369,"stopLon":-77.0296512,"routeNames":"1047 2408 3613 3805 8619"},{"stopId":1044620,"stopName":"Vivanco","stopTypeGroup":"bus","stopLat":-12.0773728,"stopLon":-77.064559,"routeNames":"1505 1508 2204 2510 3502 3906-(Lima-Callao) 7505 8525 9306-(Callao-Lima) CR17 CR62 IM47 IO35b IO37b-(Callao-Lima) IO38b IO52 IPC06"},{"stopId":1017617,"stopName":"Enrique Barrón","stopTypeGroup":"bus","stopLat":-12.0773329,"stopLon":-77.0327328,"routeNames":"1044 1057 3203-(Lima-Callao) 4510 4902-(Lima-Callao) IM24"},{"stopId":931300,"stopName":"Estación México","stopTypeGroup":"bus","stopLat":-12.0772859,"stopLon":-77.0289774,"routeNames":"2408 2803 3805 7607 8308 8619"},{"stopId":1056293,"stopName":"Óvalo San Luis","stopTypeGroup":"bus","stopLat":-12.0772843,"stopLon":-77.0099752,"routeNames":"2412 2702 3405 3611 4405 4911-(Lima-Callao) 7504 IM34b"},{"stopId":761412,"stopName":"Huáscar","stopTypeGroup":"bus","stopLat":-12.0771551,"stopLon":-77.0467812,"routeNames":"1474 IM24 IM57"},{"stopId":1044579,"stopName":"Vivanco","stopTypeGroup":"bus","stopLat":-12.0771399,"stopLon":-77.064511,"routeNames":"1505 1508 2204 2510 3502 3906-(Lima-Callao) 7505 8525 9306-(Callao-Lima) CR17 CR62 IM47 IO35b IO37b-(Callao-Lima) IO38b IO52 IPC06"},{"stopId":1017616,"stopName":"Torrea Paz","stopTypeGroup":"bus","stopLat":-12.0770706,"stopLon":-77.0308767,"routeNames":"1044 1057 1474 3203-(Lima-Callao) 4510 4902-(Lima-Callao) IM24"},{"stopId":1325864,"stopName":"Parque Unión Panamericana","stopTypeGroup":"bus","stopLat":-12.0770581,"stopLon":-77.021158,"routeNames":"3507"},{"stopId":1056208,"stopName":"Óvalo San Luis","stopTypeGroup":"bus","stopLat":-12.0769262,"stopLon":-77.0109462,"routeNames":"1053 1060 1061 1112 1608 1610 1804 2412 2603 2611 2701-(Lima-Callao) 2702 3405 3701 3702 3810 3813 3814 3815 4510 4602 4604 4607 4608 4612 4613 4614 4618 4619 4620 7504 7610 8803 IM22 IM34b IO47 IO74 NH112a"},{"stopId":761411,"stopName":"Pachacútec","stopTypeGroup":"bus","stopLat":-12.0769191,"stopLon":-77.0450485,"routeNames":"1474 IM24 IM57"},{"stopId":1325863,"stopName":"Parque Unión Panamericana","stopTypeGroup":"bus","stopLat":-12.0769138,"stopLon":-77.0211768,"routeNames":"3507"},{"stopId":737385,"stopName":"Huamachuco","stopTypeGroup":"bus","stopLat":-12.0768876,"stopLon":-77.0494902,"routeNames":"1474 8104 IM11 IM24 IM57 OM19"},{"stopId":930813,"stopName":"Teodoro Cárdenas","stopTypeGroup":"bus","stopLat":-12.0768839,"stopLon":-77.0302168,"routeNames":"1099 3816 7607"},{"stopId":826032,"stopName":"México","stopTypeGroup":"bus","stopLat":-12.0768587,"stopLon":-77.0288131,"routeNames":"B C"},{"stopId":931371,"stopName":"Mello Franco","stopTypeGroup":"bus","stopLat":-12.0767445,"stopLon":-77.0494645,"routeNames":"4913-(Lima-Callao) IM40"},{"stopId":735460,"stopName":"Enrique Villar","stopTypeGroup":"bus","stopLat":-12.0767328,"stopLon":-77.0355481,"routeNames":"301 305"},{"stopId":761381,"stopName":"Mariátegui","stopTypeGroup":"bus","stopLat":-12.076683,"stopLon":-77.042082,"routeNames":"1051 1110 1404 1612 1618 1701 2703 3505 3511 4511 4902-(Lima-Callao) 7501 8201 8515 8523 8621 9405-(Lima-Callao) 9602-(Lima-Callao) 9801-(Lima-Callao) CR32 CR35 IM24 IM57 IO27 IO28b IO30b IO45 IO47 IO50 IO74 OM21"},{"stopId":735421,"stopName":"Enrique Villar","stopTypeGroup":"bus","stopLat":-12.076565,"stopLon":-77.0357305,"routeNames":"301 305"},{"stopId":1313804,"stopName":"Del Aire","stopTypeGroup":"bus","stopLat":-12.0764627,"stopLon":-76.9952989,"routeNames":"3405 3611"},{"stopId":1678614,"stopName":"Terminal de Cercanías","stopTypeGroup":"bus","stopLat":-12.0764308,"stopLon":-77.0266539,"routeNames":"Arequipa-Lima-(Abba-Bus)"},{"stopId":1308974,"stopName":"Parque Unión Panamericana","stopTypeGroup":"bus","stopLat":-12.0763892,"stopLon":-77.022872,"routeNames":"1055 1059 3809 4516 8520"},{"stopId":1056210,"stopName":"Río Chincha","stopTypeGroup":"bus","stopLat":-12.0763754,"stopLon":-77.0046305,"routeNames":"2412 2702 3405 3611 4405 4911-(Lima-Callao) 7504 IM34b"},{"stopId":761410,"stopName":"Mariátegui","stopTypeGroup":"bus","stopLat":-12.0763656,"stopLon":-77.0423153,"routeNames":"1051 1110 1404 1474 1612 1618 1701 2703 3505 3511 4511 7501 8201 8515 8523 8621 9405-(Lima-Callao) 9602-(Lima-Callao) 9801-(Lima-Callao) CR32 IO27 IO28b IO30b IO45 IO47 IO50 OM21"},{"stopId":1309006,"stopName":"Parque Unión Americana","stopTypeGroup":"bus","stopLat":-12.076321,"stopLon":-77.0226735,"routeNames":"1055 1059 3809 4516 8520"},{"stopId":1301559,"stopName":"Juan Valer Sandoval","stopTypeGroup":"bus","stopLat":-12.0762424,"stopLon":-77.0742685,"routeNames":"1086 1278-(Lima-Callao) 1304-(Lima-Callao) 1313-(Lima-Callao) 1317-(Lima-Callao) 1318-(Lima-Callao) 3203-(Lima-Callao) 4205 4206 4516 7103 9306-(Callao-Lima) CR17 CR19 CR62 ICR14 IM04 IM47 IO12 IO37b-(Callao-Lima) IO38b IO45 IO89 IPC0"},{"stopId":1301560,"stopName":"Juan Valer Sandoval","stopTypeGroup":"bus","stopLat":-12.0762004,"stopLon":-77.0739895,"routeNames":"1086 1278-(Lima-Callao) 1304-(Lima-Callao) 1313-(Lima-Callao) 1317-(Lima-Callao) 1318-(Lima-Callao) 3203-(Lima-Callao) 4205 4206 4516 7103 9306-(Callao-Lima) CR17 CR19 CR62 ICR14 IM04 IM47 IO12 IO37b-(Callao-Lima) IO38b IO45 IO89 IPC0"},{"stopId":1056291,"stopName":"Río Chincha","stopTypeGroup":"bus","stopLat":-12.0761869,"stopLon":-77.0042971,"routeNames":"2412 2702 3405 3611 4405 4911-(Lima-Callao) 7504 IM34b"},{"stopId":1313805,"stopName":"Del Aire","stopTypeGroup":"bus","stopLat":-12.076085,"stopLon":-76.9956529,"routeNames":"3405 3611"},{"stopId":867717,"stopName":"México","stopTypeGroup":"bus","stopLat":-12.0760836,"stopLon":-77.0272091,"routeNames":"1044 1046 1047 1057 1059 1099 1403 1474 1804 2407 2408 2409 2412 2803 3203-(Lima-Callao) 3405 3603 3607 3613 3805 3809 3816 405 4304 4510 4901-(Lima-Callao) 4902-(Lima-Callao) 4904-(Lima-Callao) 7607 8308 8520 8618 8619 IM24 IM55 NM09"},{"stopId":1302751,"stopName":"Avenida de las Américas","stopTypeGroup":"bus","stopLat":-12.076043,"stopLon":-77.0167726,"routeNames":"1703-(Lima-Callao) 4204"},{"stopId":867694,"stopName":"México","stopTypeGroup":"bus","stopLat":-12.0759789,"stopLon":-77.0276366,"routeNames":"1044 1046 1474 2408 3603 3607 3805 405 8308"},{"stopId":1323967,"stopName":"Óvalo San Luis","stopTypeGroup":"bus","stopLat":-12.075925,"stopLon":-77.0094743,"routeNames":"1112 1610 3815 4510 4602 4604 4607 4608 4612 4613 4618 4619 4620 4624 IO47 IO74 NH112a"},{"stopId":736402,"stopName":"Garzón","stopTypeGroup":"bus","stopLat":-12.0758489,"stopLon":-77.0528269,"routeNames":"1031 1474 1604 2513 2613 3205 4503 4513 4902-(Lima-Callao) 4913-(Lima-Callao) 7504 8104 8510 IM11 IM21 IM24 IM40 IM57 IO74 OM19"},{"stopId":1325887,"stopName":"Parinacochas","stopTypeGroup":"bus","stopLat":-12.0758227,"stopLon":-77.017014,"routeNames":"3507"},{"stopId":1302750,"stopName":"Avenida de las Américas","stopTypeGroup":"bus","stopLat":-12.0757545,"stopLon":-77.0167512,"routeNames":"1703-(Lima-Callao) 3507 4204"},{"stopId":1017544,"stopName":"Luna Pizarro","stopTypeGroup":"bus","stopLat":-12.0757468,"stopLon":-77.0256643,"routeNames":"1047 1057 2803 3203-(Lima-Callao) 3613 4510 4902-(Lima-Callao) IM24"},{"stopId":1044622,"stopName":"José Leguía y Meléndez","stopTypeGroup":"bus","stopLat":-12.0756548,"stopLon":-77.0635773,"routeNames":"1505 1508 2204 2510 3502 3906-(Lima-Callao) 7505 8525 9306-(Callao-Lima) CR17 CR62 IM47 IO35b IO37b-(Callao-Lima) IO38b IO52 IPC06"},{"stopId":737386,"stopName":"Márquez","stopTypeGroup":"bus","stopLat":-12.0756339,"stopLon":-77.0510566,"routeNames":"1474 4913-(Lima-Callao) 8104 IM11 IM24 IM40 IM57 OM19"},{"stopId":1301557,"stopName":"Abraham Lincoln","stopTypeGroup":"bus","stopLat":-12.0755814,"stopLon":-77.0765108,"routeNames":"1086 1278-(Lima-Callao) 1304-(Lima-Callao) 1313-(Lima-Callao) 1317-(Lima-Callao) 1318-(Lima-Callao) 3203-(Lima-Callao) 4205 4206 4516 7103 9306-(Callao-Lima) CR17 CR19 CR62 ICR14 IM04 IM47 IO12 IO37b-(Callao-Lima) IO38b IO45 IO89 IPC0"},{"stopId":1312278,"stopName":"Abraham Lincoln","stopTypeGroup":"bus","stopLat":-12.0755447,"stopLon":-77.0762372,"routeNames":"1086 1278-(Lima-Callao) 1304-(Lima-Callao) 1313-(Lima-Callao) 1317-(Lima-Callao) 1318-(Lima-Callao) 3203-(Lima-Callao) 4205 4206 4516 9306-(Callao-Lima) CR17 CR19 CR62 ICR14 IM04 IM47 IO12 IO37b-(Callao-Lima) IO38b IO45 IO89 IPC06 OM2"},{"stopId":1309223,"stopName":"Araníbar","stopTypeGroup":"bus","stopLat":-12.0754712,"stopLon":-77.0312566,"routeNames":"1474"},{"stopId":1044578,"stopName":"José Leguía y Meléndez","stopTypeGroup":"bus","stopLat":-12.0754666,"stopLon":-77.0635669,"routeNames":"1505 1508 2204 2510 3502 3906-(Lima-Callao) 7505 8525 9306-(Callao-Lima) CR17 CR62 IM47 IO35b IO37b-(Callao-Lima) IO38b IO52 IPC06"},{"stopId":1053004,"stopName":"Terminal de Cercanías Soyuz","stopTypeGroup":"bus","stopLat":-12.0754561,"stopLon":-77.0268487,"routeNames":"Lima-Ica-(Perú-Bus)"},{"stopId":1205892,"stopName":"México","stopTypeGroup":"bus","stopLat":-12.0754199,"stopLon":-77.0256992,"routeNames":"1059 1403 1804 2407 2409 3405 3809 4304 4901-(Lima-Callao) 4904-(Lima-Callao) 8508 8520 IM55 Lima-Ica-(Perú-Bus) NM09"},{"stopId":817739,"stopName":"Bolívar","stopTypeGroup":"bus","stopLat":-12.0754162,"stopLon":-77.0540151,"routeNames":"1103 1702 1706 2204 2511-(Lima-Callao) 404 4405 4512 4703 5303 8306 8507 CR37 IM26 IO19 IO44b OM42-(Callao-Lima)"},{"stopId":1323994,"stopName":"Dulanto","stopTypeGroup":"bus","stopLat":-12.0753978,"stopLon":-77.0763767,"routeNames":"1474"},{"stopId":1612032,"stopName":"Afranio de Mello Franco","stopTypeGroup":"bus","stopLat":-12.0753663,"stopLon":-77.0509762},{"stopId":761382,"stopName":"Cuba","stopTypeGroup":"bus","stopLat":-12.0753296,"stopLon":-77.0420176,"routeNames":"1051 1110 1404 1612 1618 1701 2703 3505 4511 4902-(Lima-Callao) 7501 8201 8515 8523 8621 9405-(Lima-Callao) 9602-(Lima-Callao) 9801-(Lima-Callao) CR32 CR35 IO27 IO28b IO30b IO45 IO47 IO50 IO74 OM21"},{"stopId":931428,"stopName":"Pachacútec","stopTypeGroup":"bus","stopLat":-12.0752143,"stopLon":-77.0451447,"routeNames":"1604 2613 3205 4503 4513 4913-(Lima-Callao) IM40"},{"stopId":1323684,"stopName":"Salaverry","stopTypeGroup":"bus","stopLat":-12.0752142,"stopLon":-77.0423502,"routeNames":"1604 2613 3205 4503 4513 4913-(Lima-Callao) IM40"},{"stopId":1056211,"stopName":"San Luis","stopTypeGroup":"bus","stopLat":-12.075182,"stopLon":-77.0011946,"routeNames":"2412 2702 3405 3611 4405 4911-(Lima-Callao) 7504 IM34b"},{"stopId":1304339,"stopName":"San Juan","stopTypeGroup":"bus","stopLat":-12.0751617,"stopLon":-77.0009047,"routeNames":"2412 2702 7504 8803 IO47"},{"stopId":1071815,"stopName":"Horacio Urteaga","stopTypeGroup":"bus","stopLat":-12.0751459,"stopLon":-77.0496087,"routeNames":"3205 4503 4513"},{"stopId":1002005,"stopName":"Andahuaylas","stopTypeGroup":"bus","stopLat":-12.0751453,"stopLon":-77.0245573,"routeNames":"1047 1057 1059 1403 1804 2407 2409 2412 2803 3203-(Lima-Callao) 3405 3613 3809 4304 4510 4901-(Lima-Callao) 4902-(Lima-Callao) 4904-(Lima-Callao) 8508 8520 8618 IM24 IM55 NM09"},{"stopId":761383,"stopName":"Guisse","stopTypeGroup":"bus","stopLat":-12.0750883,"stopLon":-77.0398986,"routeNames":"1604 2613 3205 4210-(Lima-Callao) 4503 4513 IM40 IO74"},{"stopId":931369,"stopName":"Pachacútec","stopTypeGroup":"bus","stopLat":-12.0750647,"stopLon":-77.0449762,"routeNames":"1604 2613 3205 4210-(Lima-Callao) 4503 4513 4902-(Lima-Callao) 4913-(Lima-Callao) IM40 IO74"},{"stopId":739144,"stopName":"La Mar","stopTypeGroup":"bus","stopLat":-12.0750621,"stopLon":-77.0797509,"routeNames":"018p 1103 1201 1503 1504 1506 1513 1514 1611 1615 1704 1901-(Lima-Callao) 206 2408 IO44b IO74"},{"stopId":761409,"stopName":"Salaverry","stopTypeGroup":"bus","stopLat":-12.0750411,"stopLon":-77.0418459,"routeNames":"1474 1604 2613 3205 4210-(Lima-Callao) 4503 4513 IM40 IO74"},{"stopId":736400,"stopName":"Brasil","stopTypeGroup":"bus","stopLat":-12.0750201,"stopLon":-77.0540661,"routeNames":"1031 1474 1518 1604 2513 2613 3205 4503 4513 4902-(Lima-Callao) 4913-(Lima-Callao) 7504 8104 8510 IM11 IM21 IM24 IM40 IM57 IO37b-(Callao-Lima) IO74 OM19"},{"stopId":931370,"stopName":"Huiracocha","stopTypeGroup":"bus","stopLat":-12.0750122,"stopLon":-77.0474706,"routeNames":"1604 2613 3205 4210-(Lima-Callao) 4503 4513 4902-(Lima-Callao) 4913-(Lima-Callao) IM40 IO74"},{"stopId":1017546,"stopName":"Palermo","stopTypeGroup":"bus","stopLat":-12.0749538,"stopLon":-77.0235265,"routeNames":"1047 1057 1059 1403 1804 2407 2409 2803 3203-(Lima-Callao) 3405 3613 3809 4304 4510 4901-(Lima-Callao) 4902-(Lima-Callao) 4904-(Lima-Callao) 8508 8520 IM24 IM55 NM09"},{"stopId":931427,"stopName":"Cuba","stopTypeGroup":"bus","stopLat":-12.0749366,"stopLon":-77.0475774,"routeNames":"1604 2613 3205 4503 4513 4913-(Lima-Callao) IM40"},{"stopId":761408,"stopName":"Guisse","stopTypeGroup":"bus","stopLat":-12.0749204,"stopLon":-77.0396626,"routeNames":"1474 1604 2613 3205 4210-(Lima-Callao) 4503 4513 IM40 IO74"},{"stopId":1056289,"stopName":"San Luis","stopTypeGroup":"bus","stopLat":-12.0749171,"stopLon":-77.0009126,"routeNames":"3405 3611 4405 4911-(Lima-Callao) IM34b"},{"stopId":793514,"stopName":"Universitaria","stopTypeGroup":"bus","stopLat":-12.0749158,"stopLon":-77.0800178,"routeNames":"1086 1304-(Lima-Callao) 1313-(Lima-Callao) 1317-(Lima-Callao) 1318-(Lima-Callao) 3203-(Lima-Callao) 4516 4901-(Lima-Callao) 4904-(Lima-Callao) 4913-(Lima-Callao) 8510 8511 9306-(Callao-Lima) CR17 CR19 CR62 IM47 IM55 IO12 IO37b-(Call"},{"stopId":1300706,"stopName":"Cuba","stopTypeGroup":"bus","stopLat":-12.0749152,"stopLon":-77.0421785,"routeNames":"1051 1110 1404 1612 1618 1701 2703 3505 3511 4210-(Lima-Callao) 4511 4913-(Lima-Callao) 7501 8201 8515 8523 8621 9405-(Lima-Callao) 9602-(Lima-Callao) 9801-(Lima-Callao) CR32 CR35 IO27 IO28b IO30b IO45 IO47 IO50 OM21"},{"stopId":737388,"stopName":"Bolívar","stopTypeGroup":"bus","stopLat":-12.0748863,"stopLon":-77.0536906,"routeNames":"1031 1103 1474 1518 1604 1702 1706 2204 2511-(Lima-Callao) 2513 2613 3205 404 4405 4512 4513 4703 4902-(Lima-Callao) 5303 7504 8104 8306 8507 8510 CR37 IM21 IM24 IM26 IM57 IO19 IO37b-(Callao-Lima) IO44b IO74 OM42-(Callao-Lima)"},{"stopId":1301588,"stopName":"Universitaria","stopTypeGroup":"bus","stopLat":-12.0748837,"stopLon":-77.079429,"routeNames":"1086 1278-(Lima-Callao) 1304-(Lima-Callao) 1313-(Lima-Callao) 1317-(Lima-Callao) 1318-(Lima-Callao) 1474 3203-(Lima-Callao) 4205 4206 4516 7103 9306-(Callao-Lima) CR17 CR19 CR62 ICR14 IM04 IM47 IO12 IO37b-(Callao-Lima) IO38b IO45 IO89"},{"stopId":1131550,"stopName":"La Mar","stopTypeGroup":"bus","stopLat":-12.0747586,"stopLon":-77.0838238,"routeNames":"1491 4901-(Lima-Callao) 4904-(Lima-Callao) CR14 CR75 IM55 OM19"},{"stopId":761384,"stopName":"Arenales","stopTypeGroup":"bus","stopLat":-12.0747185,"stopLon":-77.0372003,"routeNames":"1604 2613 3205 4210-(Lima-Callao) 4503 4513 IM40 IO74"},{"stopId":739106,"stopName":"La Mar","stopTypeGroup":"bus","stopLat":-12.0747106,"stopLon":-77.0796812,"routeNames":"018p 1103 1201 1278-(Lima-Callao) 1503 1504 1506 1513 1514 1611 1615 1704 1901-(Lima-Callao) 206 2408 4205 4206 4901-(Lima-Callao) 4904-(Lima-Callao) 4913-(Lima-Callao) 7103 8510 8511 ICR14 IM04 IM55 IO44b IO74 OM19 SH24a"},{"stopId":732430,"stopName":"Emilio Fernández","stopTypeGroup":"bus","stopLat":-12.0746372,"stopLon":-77.0358539,"routeNames":"301 303 305"},{"stopId":793513,"stopName":"Riva Agüero","stopTypeGroup":"bus","stopLat":-12.0746174,"stopLon":-77.0839807,"routeNames":"1086 1304-(Lima-Callao) 1313-(Lima-Callao) 1317-(Lima-Callao) 1318-(Lima-Callao) 1491 3203-(Lima-Callao) 4913-(Lima-Callao) 8510 8511 9306-(Callao-Lima) CR14 CR17 CR19 CR62 CR75 IM47 IO12 IO37b-(Callao-Lima) IO38b IO45 IO89 IPC06 OM28"},{"stopId":761407,"stopName":"Arenales","stopTypeGroup":"bus","stopLat":-12.0746109,"stopLon":-77.0369911,"routeNames":"1474 1604 2613 3205 4210-(Lima-Callao) 4503 4513 IM40 IO74"},{"stopId":738087,"stopName":"Arriola","stopTypeGroup":"metro","stopLat":-12.0746057,"stopLon":-77.0111454,"routeNames":"Línea-1"},{"stopId":793658,"stopName":"Riva Agüero","stopTypeGroup":"bus","stopLat":-12.0745728,"stopLon":-77.083557,"routeNames":"1086 1304-(Lima-Callao) 1313-(Lima-Callao) 1317-(Lima-Callao) 1318-(Lima-Callao) 3203-(Lima-Callao) 4901-(Lima-Callao) 4904-(Lima-Callao) 4913-(Lima-Callao) 8510 8511 9306-(Callao-Lima) CR17 CR19 CR62 IM47 IM55 IO12 IO37b-(Callao-"},{"stopId":761385,"stopName":"Arequipa","stopTypeGroup":"bus","stopLat":-12.0745716,"stopLon":-77.0361489,"routeNames":"3205 4503 4513 IM40 IO74"},{"stopId":930808,"stopName":"Alejandro Tirado","stopTypeGroup":"bus","stopLat":-12.0745054,"stopLon":-77.034814,"routeNames":"1604 2613 336 4210-(Lima-Callao) NH25"},{"stopId":1311107,"stopName":"Cuba","stopTypeGroup":"bus","stopLat":-12.0744955,"stopLon":-77.0371199,"routeNames":"336 NH25"},{"stopId":1327596,"stopName":"Luzuriaga","stopTypeGroup":"bus","stopLat":-12.0744483,"stopLon":-77.0501769,"routeNames":"4503"},{"stopId":761406,"stopName":"Arequipa","stopTypeGroup":"bus","stopLat":-12.0744405,"stopLon":-77.0357788,"routeNames":"1474 1604 2613 3205 4210-(Lima-Callao) 4503 4513 IM40 IO74"},{"stopId":761386,"stopName":"Petit Thouars","stopTypeGroup":"bus","stopLat":-12.0743906,"stopLon":-77.0349553,"routeNames":"3205 4503 4513 IM40 IO74"},{"stopId":1017547,"stopName":"Abtao","stopTypeGroup":"bus","stopLat":-12.0743854,"stopLon":-77.0213923,"routeNames":"1047 1055 1057 1403 1804 2407 2409 2803 3203-(Lima-Callao) 3405 3613 4304 4510 4516 4901-(Lima-Callao) 4902-(Lima-Callao) 4904-(Lima-Callao) 8508 IM24 IM55 NM09"},{"stopId":1056295,"stopName":"Estación Arriola","stopTypeGroup":"bus","stopLat":-12.0743803,"stopLon":-77.0109979,"routeNames":"1053 1060 1061 1112 1607 1608 1610 1804 2412 2603 2611 2701-(Lima-Callao) 2702 3405 3701 3702 3810 3813 3814 3815 4510 4602 4604 4607 4608 4612 4613 4614 4618 4619 4620 7504 7610 8803 IM22 IM34b IO47 IO74 NH112a"},{"stopId":1056207,"stopName":"Estación Arriola","stopTypeGroup":"bus","stopLat":-12.0743742,"stopLon":-77.0113018,"routeNames":"1053 1060 1061 1112 1607 1608 1610 1804 2412 2603 2611 2701-(Lima-Callao) 2702 3405 3701 3702 3810 3813 3814 3815 4510 4602 4604 4607 4608 4612 4613 4614 4618 4619 4620 7504 7610 8803 IM22 IM34b IO47 IO74 NH112a"},{"stopId":732410,"stopName":"Alejandro Tirado","stopTypeGroup":"bus","stopLat":-12.0743408,"stopLon":-77.0360819,"routeNames":"301 303 305"},{"stopId":737387,"stopName":"Brasil","stopTypeGroup":"bus","stopLat":-12.074291,"stopLon":-77.0527518,"routeNames":"1474 4503 4913-(Lima-Callao) 8104 IM11 IM24 IM40 IM57 OM19"},{"stopId":761405,"stopName":"Petit Thouars","stopTypeGroup":"bus","stopLat":-12.0742778,"stopLon":-77.0345879,"routeNames":"1474 3205 4503 4513 IM40 IO74"},{"stopId":1309224,"stopName":"Farmacia","stopTypeGroup":"bus","stopLat":-12.0741755,"stopLon":-77.0323777,"routeNames":"1474"},{"stopId":1017614,"stopName":"Abtao","stopTypeGroup":"bus","stopLat":-12.0741671,"stopLon":-77.0211172,"routeNames":"1047 1057 1403 1804 2407 2409 2412 2803 3203-(Lima-Callao) 3405 3613 4304 4510 4516 4901-(Lima-Callao) 4902-(Lima-Callao) 4904-(Lima-Callao) 8508 8618 IM24 IM55 NM09"},{"stopId":1308973,"stopName":"México","stopTypeGroup":"bus","stopLat":-12.0740759,"stopLon":-77.0213163,"routeNames":"1055 8618"},{"stopId":761387,"stopName":"Farmacia","stopTypeGroup":"bus","stopLat":-12.0740497,"stopLon":-77.032603,"routeNames":"3205 4503 4513 IM40 IO74"},{"stopId":793515,"stopName":"Luzuriaga","stopTypeGroup":"bus","stopLat":-12.074018,"stopLon":-77.0511644,"routeNames":"1031 1604 2513 2613 3205 4503 4513 4913-(Lima-Callao) 7504 8510 IM21 IM40"},{"stopId":1056212,"stopName":"Rosa Toro","stopTypeGroup":"bus","stopLat":-12.0740132,"stopLon":-76.9970783,"routeNames":"3405 3611 4405 4911-(Lima-Callao) IM34b"},{"stopId":1017548,"stopName":"Huamanga","stopTypeGroup":"bus","stopLat":-12.0740101,"stopLon":-77.0186382,"routeNames":"1047 1057 1403 1804 2407 2409 2803 3203-(Lima-Callao) 3405 3613 4304 4510 4516 4901-(Lima-Callao) 4902-(Lima-Callao) 4904-(Lima-Callao) 8508 8618 IM24 IM55 NM09"},{"stopId":1313806,"stopName":"San Juan","stopTypeGroup":"bus","stopLat":-12.0739657,"stopLon":-76.9968063,"routeNames":"3405 3611"},{"stopId":761404,"stopName":"Farmacia","stopTypeGroup":"bus","stopLat":-12.0739526,"stopLon":-77.0324394,"routeNames":"3205 4503 4513 IM40 IO74"},{"stopId":1044623,"stopName":"Córdova","stopTypeGroup":"bus","stopLat":-12.0739316,"stopLon":-77.062609,"routeNames":"1505 1508 2204 2510 3502 3906-(Lima-Callao) 7505 8525 9306-(Callao-Lima) CR17 CR62 IM47 IO35b IO37b-(Callao-Lima) IO38b IO52 IPC06"},{"stopId":1301673,"stopName":"Unidad Vecinal Matute","stopTypeGroup":"bus","stopLat":-12.0739028,"stopLon":-77.0248407,"routeNames":"8508"},{"stopId":1017613,"stopName":"Huamanga","stopTypeGroup":"bus","stopLat":-12.0738539,"stopLon":-77.0189983,"routeNames":"1047 1057 1403 1804 2407 2409 2412 2803 3203-(Lima-Callao) 3405 3613 4304 4510 4516 4901-(Lima-Callao) 4902-(Lima-Callao) 4904-(Lima-Callao) 8508 8618 IM24 IM55 NM09"},{"stopId":1313789,"stopName":"Mateo Pumacahua","stopTypeGroup":"bus","stopLat":-12.0738083,"stopLon":-77.043761,"routeNames":"4210-(Lima-Callao)"},{"stopId":761388,"stopName":"José Gálvez","stopTypeGroup":"bus","stopLat":-12.0737926,"stopLon":-77.0308274,"routeNames":"3205 4503 4513 IM40 IO74"},{"stopId":1056288,"stopName":"San Juan","stopTypeGroup":"bus","stopLat":-12.0737395,"stopLon":-76.9970569,"routeNames":"4405 4911-(Lima-Callao) IM34b"},{"stopId":737389,"stopName":"Del Río","stopTypeGroup":"bus","stopLat":-12.0736667,"stopLon":-77.0555735,"routeNames":"1031 1474 1518 1604 2513 2613 3205 4503 4513 4902-(Lima-Callao) 4913-(Lima-Callao) 7504 8104 8510 IM11 IM21 IM24 IM40 IM57 IO37b-(Callao-Lima) IO74 OM19"},{"stopId":1332082,"stopName":"Rivas","stopTypeGroup":"bus","stopLat":-12.0735985,"stopLon":-77.0294273,"routeNames":"1099 3816"},{"stopId":736399,"stopName":"Del Río","stopTypeGroup":"bus","stopLat":-12.0735933,"stopLon":-77.0558739,"routeNames":"1031 1474 1518 1604 2513 2613 3205 4503 4513 4902-(Lima-Callao) 4913-(Lima-Callao) 7504 8104 8510 IM11 IM21 IM24 IM40 IM57 IO37b-(Callao-Lima) IO74 OM19"},{"stopId":761403,"stopName":"Alejandro Tirado","stopTypeGroup":"bus","stopLat":-12.0735854,"stopLon":-77.0307335,"routeNames":"1099 3205 4503 4513 IM40 IO74"},{"stopId":1302824,"stopName":"México","stopTypeGroup":"bus","stopLat":-12.0735513,"stopLon":-77.016322,"routeNames":"1703-(Lima-Callao) 3507 4204"},{"stopId":1327597,"stopName":"Circolo Sportivo Italiano","stopTypeGroup":"bus","stopLat":-12.0735461,"stopLon":-77.0543396,"routeNames":"4503 4913-(Lima-Callao) IM11 IM40 OM19"},{"stopId":1304159,"stopName":"Rio Chincha","stopTypeGroup":"bus","stopLat":-12.0735356,"stopLon":-77.0053893,"routeNames":"1112 1610 3815 4510 4602 4604 4607 4608 4612 4613 4618 4619 4620 4624 IO47 IO74 NH112a"},{"stopId":1017549,"stopName":"Parinacochas","stopTypeGroup":"bus","stopLat":-12.0734936,"stopLon":-77.0165473,"routeNames":"1047 1057 1403 1804 2407 2409 2803 3203-(Lima-Callao) 3405 3613 4304 4510 4516 4901-(Lima-Callao) 4902-(Lima-Callao) 4904-(Lima-Callao) 8508 8618 IM24 IM55 NM09"},{"stopId":1044577,"stopName":"Córdova","stopTypeGroup":"bus","stopLat":-12.0734869,"stopLon":-77.0624327,"routeNames":"1505 1508 2204 2510 3502 3906-(Lima-Callao) 7505 8525 9306-(Callao-Lima) CR17 CR62 IM47 IO35b IO37b-(Callao-Lima) IO38b IO52 IPC06"},{"stopId":2056226,"stopName":"Simón Bolívar","stopTypeGroup":"bus","stopLat":-12.073451634581211,"stopLon":-77.05573439598085},{"stopId":1327595,"stopName":"José María Plaza","stopTypeGroup":"bus","stopLat":-12.0733257,"stopLon":-77.0479935,"routeNames":"4503 4513"},{"stopId":1304160,"stopName":"Rio Chincha","stopTypeGroup":"bus","stopLat":-12.073247,"stopLon":-77.0051211,"routeNames":"1112 1610 3815 4510 4602 4604 4607 4608 4612 4613 4618 4619 4620 4624 IO47 IO74 NH112a"},{"stopId":1009294,"stopName":"Parinacochas","stopTypeGroup":"bus","stopLat":-12.0732177,"stopLon":-77.016241,"routeNames":"1047 1057 1403 1804 2407 2409 2412 2702 3203-(Lima-Callao) 3405 4304 4503 4510 4516 4901-(Lima-Callao) 4902-(Lima-Callao) 4904-(Lima-Callao) 7204 8507 8508 8618 8803 IM24 IM55 NM09"},{"stopId":931426,"stopName":"Horacio Urteaga","stopTypeGroup":"bus","stopLat":-12.0731737,"stopLon":-77.0480013,"routeNames":"1604 2613 4210-(Lima-Callao) 4913-(Lima-Callao) IM40"},{"stopId":931435,"stopName":"México","stopTypeGroup":"bus","stopLat":-12.0731374,"stopLon":-77.0164936,"routeNames":"1060 1602 1607 1608 1610 1703-(Lima-Callao) 2412 2603 2611 2701-(Lima-Callao) 2702 2803 3205 3507 3610 3613 3810 4204 4503 4513 7204 7504 8507 8513 8803 IM22 IM34b IM40 IO47 IO74 NH26b"},